timestamp,x,y,z,pitch,yaw,roll,vx,vy,vz,ax,ay,az,yaw_rate
17395,-106.6867,-4.8475,0.5175,0.0,-89.3578,0.0,0.0,0.0,-1.2109,0.0,0.0,-9.8,0.0
17411,-106.6867,-4.8475,0.5054,0.0,-89.3578,0.0,0.0,0.0,-1.3026,0.0,0.0,-9.8,0.0
17427,-106.6867,-4.8475,0.5054,0.0,-89.3578,0.0,0.0,0.0,-1.3026,0.0,0.0,-9.8,0.0
17445,-106.6867,-4.8475,0.4548,0.0,-89.3578,0.0,0.0,0.0,-1.6311,0.0,0.0,-9.8,0.0
17461,-106.6867,-4.8475,0.4235,0.0,-89.3578,0.0,0.0,0.0,-1.8054,0.0,0.0,-9.8,0.0
17475,-106.6867,-4.8475,0.3857,0.0,-89.3578,0.0,0.0,0.0,-1.9953,0.0,0.0,-9.8,0.0
17492,-106.6867,-4.8475,0.3489,0.0,-89.3578,0.0,0.0,0.0,-2.1654,0.0,0.0,-9.8,0.0
17507,-106.6867,-4.8475,0.3489,0.0,-89.3578,0.0,0.0,0.0,-2.1654,0.0,0.0,-9.8,0.0
17523,-106.6867,-4.8475,0.3068,0.0,-89.3578,0.0,0.0,0.0,-2.3449,0.0,0.0,-9.8,0.0
17539,-106.6867,-4.8475,0.264,0.0,-89.3578,0.0,0.0,0.0,-2.5143,0.0,0.0,-9.8,0.0
17556,-106.6867,-4.8475,0.2191,0.0,-89.3578,0.0,0.0,0.0,-2.681,0.0,0.0,-9.8,0.0
17573,-106.6867,-4.8475,0.1703,0.0,-89.3578,0.0,0.0,0.0,-2.8514,0.0,0.0,-9.8,0.0
17589,-106.6867,-4.8475,0.1201,0.0,-89.3578,0.0,0.0,0.0,-3.0168,0.0,0.0,-9.8,0.0
17606,-106.6867,-4.8475,0.0676,0.0,-89.3578,0.0,0.0,0.0,-3.1805,0.0,0.0,-9.8,0.0
17621,-106.6867,-4.8468,0.0158,-0.0009,-89.3578,0.0,-0.001,0.0853,-2.5005,-0.0502,4.4797,35.6914,-0.0
17635,-106.6867,-4.8468,0.0158,-0.0009,-89.3578,0.0,-0.001,0.0853,-2.5005,-0.0502,4.4797,35.6914,-0.0
17651,-106.6868,-4.8455,-0.0223,-0.0024,-89.3578,0.0,-0.0009,0.0798,-1.758,0.0031,-0.2799,37.6453,-0.0
17667,-106.6868,-4.8443,-0.0475,-0.0032,-89.3578,-0.0,-0.0009,0.0765,-1.2099,0.002,-0.1742,29.108,0.0
17685,-106.6868,-4.8432,-0.0644,-0.0036,-89.3578,0.0,-0.0009,0.0783,-0.7913,-0.0011,0.0927,21.9524,-0.0
17701,-106.6868,-4.8421,-0.0742,-0.0038,-89.3578,0.0,-0.0009,0.0817,-0.4986,-0.0022,0.1992,16.9617,0.0
17716,-106.6868,-4.8396,-0.0796,-0.0064,-89.3578,-0.0,-0.0024,0.2167,-0.2891,-0.0939,8.3692,12.9962,0.0005
17732,-106.6869,-4.8346,-0.0824,-0.0112,-89.3578,0.0,-0.0033,0.2953,-0.1157,-0.0483,4.3731,9.6447,-0.007
17749,-106.687,-4.8282,-0.0827,-0.0161,-89.3565,0.0,-0.0048,0.4079,0.0119,-0.0829,6.2897,7.1226,0.0614
17763,-106.6871,-4.8183,-0.081,-0.0236,-89.3558,0.0001,-0.0059,0.5498,0.1067,-0.0605,7.5001,5.0165,0.7634
17779,-106.6872,-4.8071,-0.0783,-0.0309,-89.353,0.0001,-0.0085,0.6857,0.166,-0.1496,7.9764,3.4734,-0.106
17796,-106.6874,-4.7936,-0.0748,-0.0382,-89.3469,0.0001,-0.0091,0.8064,0.2062,-0.0357,6.8862,2.2989,0.3893
17811,-106.6874,-4.7936,-0.0748,-0.0382,-89.3469,0.0001,-0.0091,0.8064,0.2062,-0.0357,6.8862,2.2989,0.3893
17827,-106.6876,-4.7786,-0.0709,-0.0443,-89.3487,0.0,-0.0102,0.9032,0.2304,-0.0608,5.5692,1.3905,-0.3109
17843,-106.6877,-4.7609,-0.0665,-0.0504,-89.3596,-0.0,-0.0111,1.0061,0.2431,-0.0518,5.6759,0.6991,-0.1298
17862,-106.6878,-4.7431,-0.0617,-0.0546,-89.3658,-0.0005,-0.004,1.0217,0.2736,0.4157,0.9081,1.7795,1.7257
17875,-106.6882,-4.7205,-0.0568,-0.0618,-89.3343,-0.0003,-0.0122,1.2605,0.264,-0.452,13.0997,-0.5295,4.1565
17893,-106.6885,-4.6986,-0.0523,-0.064,-89.323,-0.0006,-0.0089,1.2605,0.2473,0.1846,0.0003,-0.9309,3.3381
17909,-106.6886,-4.6772,-0.0483,-0.0637,-89.3188,-0.0011,-0.0055,1.2749,0.2296,0.1985,0.8323,-1.0285,2.8772
17925,-106.6887,-4.6561,-0.0446,-0.0616,-89.3179,-0.0012,-0.0066,1.2749,0.2125,-0.0673,0.0025,-1.002,2.6607
17939,-106.6887,-4.6339,-0.041,-0.0581,-89.3229,-0.0011,-0.0081,1.2712,0.1965,-0.0825,-0.2033,-0.8903,2.5026
17955,-106.6889,-4.613,-0.0379,-0.0544,-89.3238,-0.001,-0.0077,1.2716,0.178,0.0233,0.0235,-1.0972,2.559
17971,-106.6889,-4.613,-0.0379,-0.0544,-89.3238,-0.001,-0.0077,1.2716,0.178,0.0233,0.0235,-1.0972,2.559
17987,-106.6889,-4.5896,-0.0348,-0.0496,-89.3359,-0.0008,-0.0084,1.267,0.1635,-0.0342,-0.244,-0.7598,2.3653
18003,-106.689,-4.5688,-0.0323,-0.0458,-89.3392,-0.0008,-0.0071,1.2722,0.1451,0.0743,0.306,-1.0931,2.4172
18019,-106.6889,-4.5423,-0.0297,-0.044,-89.3658,-0.0009,-0.0076,1.3266,0.1254,-0.0244,2.7003,-0.9754,-1.0438
18036,-106.689,-4.5174,-0.0275,-0.0428,-89.3804,-0.0007,-0.0087,1.324,0.1179,-0.0619,-0.1403,-0.4154,-0.746
18052,-106.6891,-4.4922,-0.0257,-0.0442,-89.3885,-0.0004,-0.0124,1.4486,0.1044,-0.2145,7.3974,-0.7971,-0.4447
18069,-106.6893,-4.4672,-0.024,-0.0437,-89.3944,-0.0002,-0.0128,1.4428,0.0938,-0.0273,-0.3442,-0.6298,-0.3315
18085,-106.6896,-4.4394,-0.0225,-0.0441,-89.3976,0.0002,-0.0155,1.5157,0.0842,-0.1531,4.1047,-0.5407,-0.1665
18101,-106.6899,-4.4126,-0.0212,-0.0432,-89.3961,0.0004,-0.0159,1.5244,0.0747,-0.0193,0.5077,-0.5557,0.0839
18115,-106.6901,-4.383,-0.02,-0.0441,-89.4134,0.0005,-0.0175,1.6211,0.0667,-0.0941,5.4533,-0.4523,-0.9133
18133,-106.6906,-4.3512,-0.0189,-0.0469,-89.3901,0.0007,-0.0215,1.7876,0.059,-0.223,9.3575,-0.4285,1.1774
18147,-106.6906,-4.3512,-0.0189,-0.0469,-89.3901,0.0007,-0.0215,1.7876,0.059,-0.223,9.3575,-0.4285,1.1774
18163,-106.6908,-4.3155,-0.0178,-0.0504,-89.4101,0.0008,-0.0211,1.8493,0.0523,0.0192,3.2812,-0.3587,-0.9889
18181,-106.6911,-4.281,-0.017,-0.055,-89.4269,0.0007,-0.0228,2.0605,0.0456,-0.0969,12.4359,-0.3932,-3.1855
18195,-106.6919,-4.2425,-0.0162,-0.0601,-89.389,0.0011,-0.0272,2.1865,0.0407,-0.2474,7.0525,-0.2775,1.0851
18212,-106.6925,-4.2048,-0.0155,-0.0625,-89.3703,0.0011,-0.0262,2.2902,0.0358,0.0598,6.0342,-0.2827,1.2556
18229,-106.6929,-4.1634,-0.0149,-0.0645,-89.3754,0.001,-0.0268,2.3506,0.0318,-0.0354,3.3243,-0.2204,-1.2504
18244,-106.6933,-4.1171,-0.0144,-0.0693,-89.3792,0.0005,-0.0257,2.5348,0.0279,0.0602,9.7793,-0.2048,1.1731
18259,-106.6936,-4.0741,-0.0139,-0.0701,-89.3999,0.0002,-0.0263,2.5639,0.0243,-0.0358,1.6672,-0.2087,-1.3138
18275,-106.6941,-4.0276,-0.0135,-0.0705,-89.3996,0.0,-0.0266,2.608,0.0215,-0.0155,2.4148,-0.1525,0.6704
18292,-106.6941,-4.0276,-0.0135,-0.0705,-89.3996,0.0,-0.0266,2.608,0.0215,-0.0155,2.4148,-0.1525,0.6704
18307,-106.6945,-3.9803,-0.0132,-0.0696,-89.4119,-0.0001,-0.0278,2.6632,0.0189,-0.0633,3.015,-0.1451,-1.7364
18323,-106.6949,-3.9316,-0.0128,-0.0704,-89.4183,-0.0003,-0.0263,2.7481,0.0165,0.0792,4.7377,-0.1314,-2.9111
18339,-106.6956,-3.8835,-0.0126,-0.072,-89.3983,-0.0001,-0.0307,2.8765,0.0145,-0.2542,7.5164,-0.1175,1.4084
18355,-106.6962,-3.8308,-0.0123,-0.0732,-89.3876,0.0003,-0.0342,2.9786,0.0129,-0.1952,5.6344,-0.0904,-0.8693
18372,-106.697,-3.7745,-0.0121,-0.0728,-89.3722,0.0005,-0.0345,3.0638,0.0113,-0.015,4.4482,-0.0819,0.8107
18389,-106.6978,-3.7172,-0.0119,-0.0732,-89.3578,0.0006,-0.0354,3.1008,0.0098,-0.0469,1.9715,-0.08,0.5643
18403,-106.6985,-3.658,-0.0117,-0.0732,-89.3519,0.0007,-0.037,3.243,0.0085,-0.0864,7.5045,-0.0665,0.3625
18419,-106.6985,-3.658,-0.0117,-0.0732,-89.3519,0.0007,-0.037,3.243,0.0085,-0.0864,7.5045,-0.0665,0.3625
18435,-106.699,-3.5995,-0.0116,-0.0742,-89.3683,0.0006,-0.0384,3.2986,0.0074,-0.0776,3.0931,-0.062,-0.7085
18453,-106.6999,-3.5374,-0.0115,-0.0765,-89.3454,0.0007,-0.04,3.485,0.0065,-0.0849,10.1491,-0.0503,0.6704
18467,-106.7008,-3.4744,-0.0113,-0.0801,-89.3303,0.0008,-0.0415,3.5942,0.0057,-0.0845,6.1385,-0.0451,0.7572
18484,-106.7016,-3.409,-0.0112,-0.082,-89.3255,0.0008,-0.0435,3.7251,0.005,-0.1093,7.2374,-0.0377,0.0963
18501,-106.7022,-3.3413,-0.0111,-0.0846,-89.3465,0.0007,-0.0452,3.8052,0.0044,-0.0942,4.4556,-0.034,-0.7102
18517,-106.7031,-3.2741,-0.011,-0.0871,-89.3279,0.0007,-0.0467,3.9715,0.0038,-0.0868,9.5868,-0.0325,0.4625
18532,-106.7041,-3.2025,-0.0109,-0.0926,-89.3133,0.0008,-0.0489,4.1772,0.0034,-0.1301,11.7991,-0.0255,0.3634
18547,-106.705,-3.1258,-0.0109,-0.0952,-89.3083,0.0008,-0.05,4.2267,0.003,-0.0614,2.6971,-0.021,0.3067
18563,-106.705,-3.1258,-0.0109,-0.0952,-89.3083,0.0008,-0.05,4.2267,0.003,-0.0614,2.6971,-0.021,0.3067
18579,-106.7059,-3.0505,-0.0108,-0.096,-89.3041,0.0008,-0.052,4.3544,0.0026,-0.1075,7.2239,-0.0212,0.1422
18595,-106.7069,-2.9736,-0.0107,-0.0974,-89.3016,0.0008,-0.0534,4.4419,0.0023,-0.0822,4.9967,-0.0192,0.2256
18613,-106.7078,-2.8971,-0.0107,-0.0977,-89.2998,0.0008,-0.0551,4.5639,0.002,-0.1014,7.1356,-0.0151,-0.0499
18629,-106.709,-2.7994,-0.0107,-0.1001,-89.2963,0.0008,-0.0574,4.7104,0.0017,-0.1095,6.9777,-0.0158,0.2843
18644,-106.71,-2.7152,-0.0106,-0.1032,-89.3018,0.0007,-0.0588,4.8409,0.0016,-0.0772,7.5221,-0.0088,-0.2664
18661,-106.7112,-2.6301,-0.0106,-0.1041,-89.2901,0.0008,-0.0602,4.902,0.0014,-0.0848,3.5369,-0.0107,0.6185
18675,-106.7121,-2.544,-0.0105,-0.104,-89.3049,0.0007,-0.0608,4.9902,0.0012,-0.033,5.1274,-0.0093,-0.422
18692,-106.7135,-2.4451,-0.0105,-0.1027,-89.2811,0.0007,-0.062,5.0564,0.0011,-0.0629,3.4135,-0.0073,0.6249
18707,-106.7135,-2.4451,-0.0105,-0.1027,-89.2811,0.0007,-0.062,5.0564,0.0011,-0.0629,3.4135,-0.0073,0.6249
18723,-106.7145,-2.3495,-0.0105,-0.1006,-89.3018,0.0006,-0.0629,5.141,0.0009,-0.0458,4.574,-0.0077,-0.5592
18741,-106.7158,-2.2569,-0.0105,-0.0988,-89.2823,0.0007,-0.0649,5.2429,0.0008,-0.1145,5.789,-0.0072,0.6571
18755,-106.7169,-2.1584,-0.0105,-0.0972,-89.3005,0.0006,-0.0656,5.333,0.0007,-0.0375,4.8988,-0.0047,-0.4665
18772,-106.7182,-2.0613,-0.0105,-0.0959,-89.2806,0.0006,-0.0676,5.4377,0.0006,-0.1156,5.882,-0.0054,0.62
18789,-106.7193,-1.9655,-0.0105,-0.0954,-89.2957,0.0005,-0.0684,5.5532,0.0005,-0.0476,6.7106,-0.005,-0.4411
18805,-106.7206,-1.8666,-0.0105,-0.0955,-89.2799,0.0006,-0.0707,5.6717,0.0005,-0.1317,6.796,-0.0039,0.4778
18819,-106.7219,-1.7577,-0.0105,-0.0958,-89.2972,0.0004,-0.0714,5.7793,0.0004,-0.0356,5.7334,-0.0019,-0.4534
18835,-106.7219,-1.7577,-0.0105,-0.0958,-89.2972,0.0004,-0.0714,5.7793,0.0004,-0.0356,5.7334,-0.0019,-0.4534
18851,-106.7233,-1.6525,-0.0105,-0.096,-89.2797,0.0005,-0.0735,5.8899,0.0004,-0.1181,6.2008,-0.0029,0.4588
18867,-106.7245,-1.5453,-0.0105,-0.0967,-89.2946,0.0004,-0.0744,6.0194,0.0003,-0.0508,7.2758,-0.0032,-0.432
18883,-106.7259,-1.4416,-0.0105,-0.0978,-89.2825,0.0004,-0.0768,6.1521,0.0003,-0.1388,7.8659,-0.0027,0.3561
18900,-106.7273,-1.3221,-0.0105,-0.0996,-89.296,0.0003,-0.0778,6.2894,0.0003,-0.053,7.2247,-0.0009,-0.3967
18916,-106.7288,-1.2063,-0.0104,-0.1008,-89.281,0.0004,-0.0799,6.4035,0.0002,-0.1159,6.3196,-0.002,0.5253
18933,-106.7301,-1.0978,-0.0104,-0.1019,-89.2926,0.0003,-0.0809,6.5294,0.0002,-0.0605,7.576,-0.0015,-0.3429
18948,-106.7316,-0.9823,-0.0104,-0.1038,-89.284,0.0003,-0.0833,6.6871,0.0002,-0.1422,9.1077,-0.0015,0.2616
18963,-106.7332,-0.8536,-0.0104,-0.1063,-89.2904,0.0002,-0.0849,6.839,0.0001,-0.081,8.0555,-0.0009,-0.1777
18979,-106.7347,-0.7331,-0.0104,-0.1078,-89.2828,0.0003,-0.0867,6.9526,0.0001,-0.1039,6.5471,-0.0016,0.3133
18995,-106.7362,-0.6106,-0.0104,-0.1089,-89.2911,0.0002,-0.0878,7.0744,0.0001,-0.0649,7.0332,-0.0004,-0.299
19012,-106.7378,-0.4824,-0.0104,-0.1098,-89.282,0.0002,-0.0898,7.1972,0.0001,-0.1108,6.8852,-0.0009,0.3039
19027,-106.7378,-0.4824,-0.0104,-0.1098,-89.282,0.0002,-0.0898,7.1972,0.0001,-0.1108,6.8852,-0.0009,0.3039
19043,-106.7394,-0.3539,-0.0104,-0.1104,-89.2901,0.0002,-0.0909,7.3171,0.0001,-0.065,6.8228,-0.0012,-0.266
19060,-106.7413,-0.202,-0.0103,-0.1117,-89.2863,0.0002,-0.0936,7.5198,0.0001,-0.1349,9.9535,0.0001,-0.0122
19077,-106.743,-0.0632,-0.0103,-0.1138,-89.2863,0.0002,-0.0957,7.6828,0.0001,-0.1117,8.9669,-0.0011,0.0135
19093,-106.7447,0.0684,-0.0103,-0.1157,-89.2863,0.0002,-0.0975,7.825,0.0,-0.1051,8.4184,-0.0011,0.0275
19108,-106.7463,0.2003,-0.0103,-0.1174,-89.2862,0.0002,-0.0991,7.9581,0.0,-0.1,7.9924,0.0002,0.043
19123,-106.748,0.3399,-0.0103,-0.1189,-89.2861,0.0002,-0.1008,8.0906,0.0001,-0.0952,7.6409,0.0009,0.0747
19141,-106.7498,0.4792,-0.0103,-0.1198,-89.2861,0.0002,-0.1023,8.2143,0.0,-0.0908,7.2648,-0.0013,0.1208
19155,-106.7516,0.6223,-0.0103,-0.1202,-89.286,0.0001,-0.1038,8.3338,0.0,-0.0865,6.9316,0.0003,0.1983
19171,-106.7534,0.768,-0.0103,-0.1202,-89.286,0.0001,-0.1052,8.4477,0.0,-0.0823,6.5745,-0.0001,0.3134
19187,-106.7534,0.768,-0.0103,-0.1202,-89.286,0.0001,-0.1052,8.4477,0.0,-0.0823,6.5745,-0.0001,0.3134
19203,-106.7553,0.9198,-0.0103,-0.1195,-89.2858,0.0001,-0.1066,8.558,0.0,-0.0774,6.1948,-0.0005,0.5009
19219,-106.7572,1.0738,-0.0103,-0.1184,-89.2854,0.0001,-0.1079,8.6603,0.0,-0.0715,5.7366,-0.0005,0.7543
19236,-106.7591,1.2256,-0.0103,-0.1169,-89.2847,0.0001,-0.1091,8.7547,0.0,-0.0686,5.426,-0.0005,0.9839
19251,-106.7611,1.3867,-0.0103,-0.115,-89.2829,0.0001,-0.1102,8.8478,0.0,-0.0633,5.1054,0.0002,1.3768
19268,-106.7631,1.5443,-0.0103,-0.1127,-89.2826,0.0001,-0.1113,8.9334,0.0,-0.0579,4.8367,-0.0001,1.3881
19285,-106.765,1.697,-0.0103,-0.1104,-89.2828,0.0001,-0.1123,9.0202,0.0,-0.0596,5.1135,-0.0003,1.1866
19301,-106.767,1.8582,-0.0104,-0.1081,-89.2819,0.0001,-0.1134,9.1117,0.0,-0.0628,5.1566,0.0002,1.2838
19317,-106.769,2.0169,-0.0104,-0.106,-89.282,0.0001,-0.1144,9.1988,-0.0,-0.0616,5.0401,-0.0018,1.1883
19331,-106.771,2.1789,-0.0104,-0.1039,-89.2818,0.0001,-0.1156,9.288,0.0,-0.0636,5.1001,0.0022,1.1678
19347,-106.773,2.3412,-0.0104,-0.102,-89.2818,0.0,-0.1167,9.376,0.0,-0.0637,5.0735,0.0001,1.1033
19363,-106.773,2.3412,-0.0104,-0.102,-89.2818,0.0,-0.1167,9.376,0.0,-0.0637,5.0735,0.0001,1.1033
19379,-106.7751,2.5098,-0.0104,-0.1002,-89.2815,0.0,-0.1178,9.4656,0.0,-0.0631,5.02,0.0001,1.1575
19395,-106.7771,2.6722,-0.0104,-0.0986,-89.282,0.0,-0.1189,9.5509,0.0,-0.063,5.003,-0.0005,0.9828
19412,-106.7794,2.8527,-0.0104,-0.097,-89.2809,0.0,-0.12,9.6436,0.0,-0.0619,4.939,-0.0008,1.2246
19427,-106.7814,3.0127,-0.0105,-0.0955,-89.2821,0.0,-0.121,9.724,0.0,-0.0616,4.8755,0.0003,0.8495
19443,-106.7837,3.196,-0.0105,-0.0941,-89.2812,0.0001,-0.1222,9.8173,0.0,-0.063,4.9886,0.0004,1.0456
19459,-106.786,3.3849,-0.0105,-0.0926,-89.2803,0.0001,-0.1233,9.905,0.0,-0.0578,4.5864,-0.0005,1.2795
19475,-106.7882,3.5569,-0.0105,-0.0913,-89.2815,0.0,-0.1243,9.984,-0.0,-0.0577,4.5759,-0.0013,0.9626
19493,-106.7903,3.7321,-0.0105,-0.0901,-89.282,0.0001,-0.1254,10.0683,-0.0,-0.0618,4.8316,0.0011,0.8397
19507,-106.7903,3.7321,-0.0105,-0.0901,-89.282,0.0001,-0.1254,10.0683,-0.0,-0.0618,4.8316,0.0011,0.8397
19523,-106.793,3.9449,-0.0105,-0.089,-89.2847,0.0,-0.1269,10.1755,-0.0,-0.0695,5.1087,-0.0008,-0.1763
19541,-106.7954,4.1393,-0.0105,-0.0882,-89.2852,0.0,-0.1282,10.2711,-0.0,-0.0681,5.0404,0.0008,-0.2742
19556,-106.7978,4.3338,-0.0105,-0.0875,-89.2859,0.0001,-0.1294,10.3619,0.0,-0.0642,4.8259,0.0006,-0.408
19573,-106.8002,4.5267,-0.0105,-0.0867,-89.2866,0.0,-0.1305,10.4474,0.0,-0.0604,4.6206,0.0001,-0.5415
19588,-106.8026,4.7193,-0.0105,-0.0858,-89.287,0.0001,-0.1315,10.5289,0.0,-0.0572,4.4478,-0.0006,-0.6367
19603,-106.805,4.9105,-0.0105,-0.0849,-89.287,0.0001,-0.1325,10.6072,0.0,-0.0551,4.3352,0.0,-0.6584
19619,-106.805,4.9105,-0.0105,-0.0849,-89.287,0.0001,-0.1325,10.6072,0.0,-0.0551,4.3352,0.0,-0.6584
19635,-106.8075,5.1085,-0.0105,-0.0838,-89.2873,0.0001,-0.1335,10.686,0.0,-0.0542,4.2436,0.0005,-0.7317
19651,-106.8097,5.2872,-0.0105,-0.0828,-89.2865,0.0001,-0.1344,10.7568,0.0,-0.0525,4.2531,-0.0003,-0.4999
19667,-106.8123,5.4914,-0.0106,-0.0817,-89.287,0.0,-0.1354,10.8366,0.0,-0.0538,4.2324,-0.0001,-0.6233
19684,-106.8146,5.6782,-0.0106,-0.0807,-89.2866,0.0001,-0.1363,10.9079,-0.0,-0.0511,4.1515,-0.0006,-0.4969
19702,-106.817,5.8722,-0.0106,-0.0797,-89.2864,0.0,-0.1372,10.9813,0.0,-0.0516,4.1481,0.0008,-0.4726
19715,-106.817,5.8722,-0.0106,-0.0797,-89.2864,0.0,-0.1372,10.9813,0.0,-0.0516,4.1481,0.0008,-0.4726
19731,-106.82,6.1111,-0.0106,-0.0786,-89.2848,0.0,-0.1383,11.072,-0.0,-0.0493,4.1935,-0.0006,0.1127
19747,-106.8227,6.3273,-0.0106,-0.0776,-89.2845,0.0001,-0.1392,11.1524,-0.0,-0.0493,4.1414,-0.0001,0.1625
19765,-106.8252,6.5286,-0.0106,-0.0767,-89.2845,0.0,-0.1401,11.2251,-0.0,-0.049,4.046,0.0003,0.1716
19779,-106.8277,6.7257,-0.0106,-0.0759,-89.2845,0.0,-0.141,11.2946,0.0,-0.0488,3.9762,0.0002,0.1596
19796,-106.8303,6.9309,-0.0106,-0.075,-89.2845,0.0,-0.1418,11.3653,0.0,-0.0479,3.9099,0.0001,0.1684
19813,-106.8328,7.136,-0.0106,-0.0741,-89.2845,0.0,-0.1427,11.4344,0.0,-0.0473,3.8435,0.0001,0.1705
19829,-106.8354,7.3421,-0.0106,-0.0732,-89.2845,0.0,-0.1435,11.5022,-0.0,-0.0467,3.7831,-0.0006,0.1692
19843,-106.8379,7.5402,-0.0106,-0.0724,-89.2846,0.0,-0.1443,11.5662,0.0,-0.0464,3.7315,0.0003,0.1375
19859,-106.8406,7.7568,-0.0106,-0.0714,-89.2846,0.0,-0.1452,11.6348,0.0,-0.0454,3.6787,0.0003,0.1549
19875,-106.8406,7.7568,-0.0106,-0.0714,-89.2846,0.0,-0.1452,11.6348,0.0,-0.0454,3.6787,0.0003,0.1549
19891,-106.8433,7.9724,-0.0106,-0.0705,-89.2845,0.0,-0.146,11.7016,-0.0,-0.0448,3.6189,-0.001,0.1649
19907,-106.8457,8.1715,-0.0106,-0.0697,-89.2847,0.0,-0.1467,11.7622,-0.0,-0.0448,3.5731,0.0001,0.1216
19923,-106.8484,8.3883,-0.0107,-0.0688,-89.2847,0.0,-0.1475,11.827,0.0,-0.0439,3.53,0.001,0.1235
19939,-106.8511,8.601,-0.0107,-0.0679,-89.2847,0.0,-0.1483,11.8893,-0.0,-0.0434,3.4809,-0.0008,0.1119
19957,-106.8538,8.8147,-0.0107,-0.067,-89.2848,0.0,-0.1491,11.9509,0.0,-0.0428,3.4364,0.0005,0.1
19972,-106.8563,9.021,-0.0107,-0.0662,-89.2849,0.0,-0.1498,12.0092,0.0,-0.0425,3.3943,0.0001,0.0744
19988,-106.8589,9.2262,-0.0107,-0.0654,-89.285,0.0,-0.1505,12.0663,0.0,-0.042,3.3543,-0.0,0.0522
20003,-106.8615,9.4356,-0.0107,-0.0646,-89.285,0.0,-0.1513,12.1236,0.0,-0.0414,3.3135,-0.0,0.0387
20021,-106.8642,9.6525,-0.0107,-0.0638,-89.2851,-0.0,-0.152,12.182,0.0,-0.0408,3.2719,0.0,0.0323
20035,-106.8671,9.8804,-0.0107,-0.063,-89.2851,0.0,-0.1527,12.2422,0.0,-0.0403,3.2294,0.0001,0.0319
20051,-106.8671,9.8804,-0.0107,-0.063,-89.2851,0.0,-0.1527,12.2422,0.0,-0.0403,3.2294,0.0001,0.0319
20067,-106.8698,10.1027,-0.0107,-0.0621,-89.2851,0.0,-0.1535,12.2998,0.0,-0.0397,3.1872,0.0003,0.0275
20083,-106.8727,10.3292,-0.0107,-0.0613,-89.2851,0.0,-0.1542,12.3576,-0.0,-0.0393,3.1467,-0.0007,0.0249
20101,-106.8754,10.5479,-0.0107,-0.0606,-89.2851,0.0,-0.1549,12.4124,-0.0,-0.0388,3.1073,-0.0,0.0188
20116,-106.878,10.7572,-0.0107,-0.0599,-89.2852,0.0,-0.1555,12.464,0.0,-0.0384,3.0703,0.0004,0.0113
20133,-106.8806,10.9673,-0.0107,-0.0592,-89.2852,0.0,-0.1561,12.515,0.0,-0.0379,3.035,0.0001,0.0067
20149,-106.8833,11.1781,-0.0107,-0.0585,-89.2852,0.0,-0.1568,12.5654,-0.0,-0.0375,3.0001,-0.0003,0.0039
20165,-106.886,11.3944,-0.0107,-0.0578,-89.2852,0.0,-0.1574,12.6163,-0.0,-0.037,2.9657,-0.0002,0.0025
20180,-106.8889,11.6279,-0.0107,-0.057,-89.2852,0.0,-0.1581,12.6688,-0.0,-0.0355,2.8439,-0.0,0.0022
20195,-106.8889,11.6279,-0.0107,-0.057,-89.2852,0.0,-0.1581,12.6688,-0.0,-0.0355,2.8439,-0.0,0.0022
20211,-106.8921,11.8836,-0.0107,-0.0561,-89.2852,0.0,-0.1587,12.7213,0.0,-0.0326,2.612,0.0007,-0.0002
20227,-106.8949,12.1124,-0.0108,-0.0551,-89.2852,0.0,-0.1593,12.7651,-0.0,-0.0304,2.4396,-0.0008,-0.0001
20243,-106.8979,12.347,-0.0108,-0.0539,-89.2852,0.0,-0.1598,12.8069,-0.0,-0.0285,2.2795,0.0003,-0.0001
20261,-106.9008,12.5844,-0.0108,-0.0526,-89.2852,0.0,-0.1603,12.8461,-0.0,-0.0264,2.1218,-0.0,-0.0001
20277,-106.9037,12.8131,-0.0108,-0.0512,-89.2852,0.0,-0.1607,12.8812,0.0,-0.0246,1.972,0.0002,-0.0001
20292,-106.9066,13.0504,-0.0108,-0.0497,-89.2852,0.0,-0.1611,12.915,-0.0,-0.023,1.838,-0.0004,-0.0001
20309,-106.9094,13.2703,-0.0108,-0.0482,-89.2852,0.0,-0.1615,12.944,0.0,-0.0213,1.7075,0.0005,-0.0001
20324,-106.9122,13.498,-0.0108,-0.0467,-89.2852,0.0,-0.1618,12.972,0.0,-0.0199,1.5946,0.0001,-0.0001
20339,-106.9152,13.7367,-0.0108,-0.0449,-89.2852,-0.0,-0.1622,12.9994,-0.0,-0.0187,1.4901,-0.0004,-0.0001
20355,-106.9152,13.7367,-0.0108,-0.0449,-89.2852,-0.0,-0.1622,12.9994,-0.0,-0.0187,1.4901,-0.0004,-0.0001
20371,-106.9181,13.9646,-0.0108,-0.0433,-89.2852,0.0,-0.1625,13.0236,-0.0,-0.0173,1.3846,-0.0006,-0.0
20388,-106.921,14.2014,-0.0109,-0.0415,-89.2852,-0.0,-0.1628,13.0471,-0.0,-0.016,1.2915,0.0001,-0.0
20420,-106.9273,14.7034,-0.0109,-0.0378,-89.2852,0.0,-0.1633,13.0917,0.0,-0.0139,1.1189,0.0015,-0.0
20437,-106.9306,14.9326,-0.0109,-0.0362,-89.3084,0.0042,-0.2187,13.106,0.0,-3.1656,0.8158,0.0001,-1.8905
20453,-106.9353,15.1609,-0.0109,-0.0342,-89.3872,0.0159,-0.3228,13.1097,0.0001,-5.9748,0.2141,0.0055,-5.4848
20467,-106.9412,15.3777,-0.0109,-0.032,-89.5337,0.0333,-0.4516,13.1035,0.0003,-7.7886,-0.377,0.0106,-10.0318
20483,-106.9501,15.6183,-0.0109,-0.0289,-89.8024,0.0596,-0.6206,13.0849,0.0005,-9.1891,-1.009,0.0125,-16.1867
20499,-106.9501,15.6183,-0.0109,-0.0289,-89.8024,0.0596,-0.6206,13.0849,0.0005,-9.1891,-1.009,0.0125,-16.1867
20515,-106.9613,15.8587,-0.0109,-0.0251,-90.1968,0.0899,-0.8045,13.0553,0.0008,-9.9942,-1.6085,0.0135,-23.2108
20531,-106.9751,16.0986,-0.011,-0.0205,-90.731,0.1218,-0.9957,13.016,0.001,-10.384,-2.1383,0.0128,-30.9538
20549,-106.9895,16.3146,-0.011,-0.0159,-91.3392,0.1497,-1.1678,12.9738,0.0011,-10.3394,-2.5313,0.0068,-38.4234
20565,-107.0071,16.544,-0.011,-0.0104,-92.1341,0.1785,-1.3497,12.9224,0.0012,-10.2441,-2.8989,0.0068,-46.9085
20580,-107.0262,16.7682,-0.011,-0.0046,-93.0661,0.2042,-1.5211,12.8673,0.0013,-9.8333,-3.1595,0.0018,-55.6597
20596,-107.0463,16.9836,-0.011,0.0012,-94.1136,0.2255,-1.6767,12.8113,0.0012,-9.2473,-3.3245,-0.0018,-64.4455
20611,-107.0693,17.2129,-0.0111,0.0076,-95.4076,0.2447,-1.832,12.749,0.0012,-8.6131,-3.4607,-0.0044,-74.2317
20627,-107.092,17.4265,-0.0111,0.0134,-96.7811,0.2581,-1.9617,12.6907,0.001,-7.6774,-3.4501,-0.0075,-83.6464
20643,-107.1179,17.6594,-0.0111,0.0195,-98.481,0.2679,-2.0879,12.6266,0.0009,-6.8031,-3.4516,-0.0088,-94.2958
20659,-107.1179,17.6594,-0.0111,0.0195,-98.481,0.2679,-2.0879,12.6266,0.0009,-6.8031,-3.4516,-0.0088,-94.2958
20675,-107.1456,17.9014,-0.0111,0.0254,-100.4797,0.2723,-2.1978,12.5617,0.0007,-5.6603,-3.3432,-0.0109,-105.7154
20692,-107.1725,18.1318,-0.0112,0.0301,-102.6072,0.2705,-2.2776,12.5038,0.0004,-4.2774,-3.1054,-0.0127,-116.8188
20707,-107.197,18.3426,-0.0112,0.0334,-104.7499,0.2638,-2.3265,12.4555,0.0002,-2.8411,-2.8082,-0.0137,-127.1116
20724,-107.2207,18.5497,-0.0112,0.0355,-107.0479,0.2525,-2.3524,12.412,-0.0,-1.5188,-2.5465,-0.0126,-137.3721
20741,-107.2443,18.7619,-0.0112,0.0364,-109.6082,0.2362,-2.3559,12.3717,-0.0003,-0.1981,-2.29,-0.0148,-148.0289
20757,-107.2659,18.9661,-0.0112,0.0359,-112.2732,0.2164,-2.3344,12.3378,-0.0005,1.2568,-1.9855,-0.0124,-158.3653
20773,-107.2868,19.1771,-0.0112,0.0337,-115.244,0.1919,-2.2881,12.3065,-0.0007,2.5945,-1.7514,-0.0113,-169.1748
20787,-107.3048,19.3753,-0.0112,0.0298,-118.2313,0.165,-2.2003,12.2891,-0.0009,5.1845,-1.0295,-0.0115,-178.7037
20803,-107.3208,19.5843,-0.0112,0.0224,-121.5625,0.1296,-2.0343,12.2903,-0.0011,9.221,0.0668,-0.0102,-187.0371
20819,-107.3208,19.5843,-0.0112,0.0224,-121.5625,0.1296,-2.0343,12.2903,-0.0011,9.221,0.0668,-0.0102,-187.0371
20835,-107.3328,19.7899,-0.0111,0.0115,-124.9917,0.0881,-1.8061,12.3003,-0.0013,12.7867,0.5607,-0.0138,-193.754
20851,-107.3401,19.9846,-0.011,-0.0022,-128.3579,0.0441,-1.541,12.3085,-0.0016,15.5811,0.4829,-0.0143,-199.0731
20868,-107.3427,20.1843,-0.0109,-0.0193,-131.9256,-0.0054,-1.2279,12.3087,-0.0018,17.7781,0.0139,-0.0138,-203.7233
20885,-107.3402,20.3823,-0.0108,-0.0388,-135.5655,-0.0569,-0.8818,12.2953,-0.0009,19.6559,-0.765,0.0515,-207.6327
20901,-107.3317,20.5849,-0.0107,-0.0609,-139.396,-0.1112,-0.4973,12.2626,0.0001,21.1007,-1.7932,0.0545,-211.0482
20916,-107.3181,20.7752,-0.0105,-0.0827,-143.0837,-0.1613,-0.1131,12.2105,0.0008,22.2022,-3.0114,0.0418,-213.7458
20933,-107.2993,20.9593,-0.0103,-0.1044,-146.7413,-0.2093,0.2772,12.1369,0.0013,22.9912,-4.3349,0.0306,-216.0292
20948,-107.2751,21.1417,-0.0101,-0.1263,-150.4546,-0.2562,0.6786,12.0388,0.0017,23.5167,-5.7461,0.0206,-218.0499
20964,-107.247,21.312,-0.0099,-0.1466,-154.0098,-0.2985,1.0644,11.9219,0.0019,23.8056,-7.2159,0.0138,-219.7619
20979,-107.2102,21.4966,-0.0097,-0.1687,-157.9698,-0.3443,1.4924,11.7658,0.0021,23.8957,-8.7147,0.0089,-221.5472
20995,-107.1703,21.6672,-0.0095,-0.1884,-161.7387,-0.3845,1.8943,11.5911,0.0021,23.7488,-10.3222,0.003,-223.1142
21027,-107.1209,21.8483,-0.0094,-0.209,-165.8731,-0.4265,2.3258,11.3725,0.0021,23.4195,-11.8669,0.0008,-224.8423
21043,-107.0708,22.0098,-0.0092,-0.2264,-169.6912,-0.4614,2.7118,11.1456,0.0021,22.8559,-13.4304,-0.0034,-226.4502
21059,-106.9671,22.297,-0.0089,-0.2532,-176.8522,-0.5273,3.306,10.5603,0.0021,16.8866,-20.5641,0.0027,-228.0509
21075,-106.9671,22.297,-0.0089,-0.2532,-176.8522,-0.5273,3.306,10.5603,0.0021,16.8866,-20.5641,0.0027,-228.0509
21091,-106.9084,22.4402,-0.0088,-0.2635,179.3266,-0.5671,3.5427,10.1826,0.0021,14.1726,-22.6129,0.0019,-229.0063
21107,-106.8495,22.5741,-0.0087,-0.2713,175.5695,-0.6073,3.7322,9.7851,0.0021,11.5744,-24.2867,0.0002,-229.6759
21123,-106.7891,22.703,-0.0086,-0.277,171.7548,-0.6491,3.8784,9.3595,0.0022,8.8166,-25.6567,0.0023,-230.0883
21139,-106.7297,22.823,-0.0086,-0.2806,167.9944,-0.6905,3.9758,8.9235,0.0022,5.9616,-26.6855,0.0001,-230.1721
21155,-106.6708,22.9369,-0.0085,-0.2823,164.2154,-0.7321,4.023,8.4745,0.0021,2.8717,-27.3299,-0.0039,-229.974
21171,-106.6171,23.0467,-0.0085,-0.2741,160.5556,-0.7664,3.7137,8.1943,0.002,-18.8406,-17.0694,-0.0079,-220.5566
21187,-106.5708,23.1519,-0.0087,-0.2587,157.1202,-0.7879,3.3989,7.9602,-0.0019,-19.5971,-14.5771,-0.2412,-211.647
21203,-106.531,23.2549,-0.0089,-0.2375,153.8177,-0.8078,3.0523,7.7319,-0.0013,-21.6001,-14.2205,0.0369,-203.9778
21220,-106.4969,23.3586,-0.009,-0.2109,150.5145,-0.8316,2.6759,7.4936,0.0035,-22.7088,-14.3823,0.2871,-197.7963
21235,-106.4708,23.4567,-0.0092,-0.1834,147.3941,-0.8562,2.3131,7.2876,0.0027,-22.6399,-12.8522,-0.0464,-193.7939
21253,-106.4511,23.5548,-0.0094,-0.1558,144.2675,-0.8801,1.9219,7.1099,0.0022,-23.9162,-10.8656,-0.0314,-190.2967
21267,-106.439,23.6504,-0.0095,-0.1284,141.2709,-0.8992,1.5139,7.0082,0.0018,-25.3749,-6.3225,-0.0248,-184.8457
21285,-106.4337,23.7485,-0.0097,-0.0994,138.3369,-0.9112,1.0906,6.9779,0.0014,-25.8698,-1.8555,-0.0238,-177.3605
21299,-106.4355,23.8485,-0.0099,-0.0691,135.5323,-0.9149,0.6686,7.0068,0.001,-25.7253,1.7649,-0.0239,-168.7708
21317,-106.4435,23.9479,-0.0101,-0.0391,132.9545,-0.9111,0.2693,7.0809,0.0006,-25.1072,4.6589,-0.0255,-159.835
21331,-106.4588,24.058,-0.0104,-0.0064,130.3516,-0.9006,-0.1441,7.189,0.0003,-24.189,6.3253,-0.0212,-149.7354
21349,-106.4823,24.1808,-0.0106,0.028,127.7545,-0.8836,-0.5613,7.3292,-0.0001,-22.6637,7.6135,-0.0189,-138.1475
21365,-106.5118,24.3071,-0.0109,0.0598,125.3898,-0.8615,-0.9322,7.4942,-0.0004,-20.2928,9.0299,-0.0168,-126.491
21380,-106.5462,24.438,-0.0111,0.0884,123.2257,-0.8322,-1.232,7.6818,-0.0007,-16.4213,10.2771,-0.0166,-116.0295
21395,-106.5801,24.5604,-0.0113,0.1105,121.3974,-0.7968,-1.4068,7.8635,-0.001,-10.5729,10.9943,-0.0152,-109.0462
21411,-106.6175,24.694,-0.0114,0.13,119.5629,-0.7471,-1.5082,8.0524,-0.0013,-5.8048,10.8035,-0.0178,-103.7598
21428,-106.6561,24.8337,-0.0116,0.1457,117.7685,-0.6859,-1.5363,8.2364,-0.0016,-1.5798,10.3557,-0.0181,-100.173
21443,-106.6561,24.8337,-0.0116,0.1457,117.7685,-0.6859,-1.5363,8.2364,-0.0016,-1.5798,10.3557,-0.0181,-100.173
21459,-106.693,24.9727,-0.0117,0.1569,116.0689,-0.619,-1.5029,8.4053,-0.002,1.9372,9.7889,-0.0212,-98.0489
21476,-106.7289,25.116,-0.0118,0.1647,114.3819,-0.5458,-1.4236,8.565,-0.0023,4.5601,9.1891,-0.0215,-96.7962
21493,-106.7652,25.2722,-0.0119,0.1699,112.5964,-0.4633,-1.3012,8.724,-0.0027,6.5975,8.5696,-0.0188,-96.0582
21508,-106.7973,25.4239,-0.012,0.1723,110.9042,-0.3856,-1.1557,8.8642,-0.003,8.2415,7.9412,-0.0161,-95.7269
21539,-106.8583,25.7682,-0.0121,0.1713,107.1645,-0.2227,-0.7598,9.1347,-0.0033,10.6775,6.5503,-0.0042,-95.848
21555,-106.8583,25.7682,-0.0121,0.1713,107.1645,-0.2227,-0.7598,9.1347,-0.0033,10.6775,6.5503,-0.0042,-95.848
21571,-106.8817,25.9316,-0.0121,0.1691,105.4636,-0.1533,-0.6281,9.262,-0.0034,7.2897,7.0502,-0.0048,-93.4495
21588,-106.9046,26.1072,-0.0122,0.167,103.768,-0.0981,-0.5851,9.3931,-0.0033,2.2525,6.8708,0.0013,-87.252
21606,-106.9268,26.2848,-0.0122,0.1646,102.2397,-0.0649,-0.6188,9.5035,-0.0031,-1.7703,5.8132,0.0143,-78.3048
21621,-106.9495,26.4668,-0.0122,0.1611,100.9,-0.0516,-0.7146,9.5886,-0.0026,-4.9856,4.4251,0.0253,-67.2229
21635,-106.9733,26.6505,-0.0122,0.1559,99.7989,-0.0556,-0.8629,9.643,-0.002,-7.7167,2.8341,0.0314,-54.5212
21652,-106.9981,26.8332,-0.0122,0.149,98.9463,-0.07,-1.0098,9.6785,-0.0013,-7.732,1.8672,0.0373,-42.4814
21667,-106.9981,26.8332,-0.0122,0.149,98.9463,-0.07,-1.0098,9.6785,-0.0013,-7.732,1.8672,0.0373,-42.4814
21685,-107.0248,27.0257,-0.0122,0.1405,98.263,-0.0856,-1.1149,9.7133,-0.0005,-5.2757,1.7473,0.0358,-32.597
21701,-107.0526,27.2248,-0.0121,0.1319,97.7254,-0.0956,-1.1794,9.7573,-0.0001,-3.1453,2.1438,0.0236,-23.58
21717,-107.0773,27.4042,-0.0121,0.1236,97.3714,-0.0994,-1.212,9.7936,0.0001,-1.7785,1.9767,0.0109,-17.6863
21731,-107.1025,27.5901,-0.012,0.1152,97.0976,-0.0982,-1.2253,9.8256,0.0002,-0.696,1.6902,0.0043,-12.9054
21748,-107.127,27.7752,-0.0119,0.1069,96.8926,-0.093,-1.2244,9.8485,0.0002,0.0457,1.2147,-0.0014,-9.3103
21763,-107.127,27.7752,-0.0119,0.1069,96.8926,-0.093,-1.2244,9.8485,0.0002,0.0457,1.2147,-0.0014,-9.3103
21780,-107.1508,27.9621,-0.0116,0.1159,96.7385,-0.0307,-1.2184,9.8711,0.045,0.3153,1.1905,2.3658,-6.3964
21796,-107.1752,28.1585,-0.0109,0.1395,96.6156,0.0704,-1.2123,9.8788,0.0427,0.3085,0.3885,-0.1188,-4.3415
21812,-107.2005,28.3586,-0.0109,0.1243,96.5222,0.0387,-1.2006,9.926,-0.0198,0.5794,2.3405,-3.0917,-4.1442
21827,-107.2239,28.5486,-0.0111,0.1032,96.4589,-0.0005,-1.1821,9.9516,-0.0164,0.9676,1.3334,0.1786,-3.0771
21843,-107.2239,28.5486,-0.0111,0.1032,96.4589,-0.0005,-1.1821,9.9516,-0.0164,0.9676,1.3334,0.1786,-3.0771
21859,-107.247,28.7413,-0.0112,0.0874,96.4116,-0.0182,-1.1684,9.9738,-0.0121,0.7071,1.1508,0.2181,-2.3213
21876,-107.2691,28.9289,-0.0113,0.0757,96.3771,-0.0245,-1.1586,9.9911,-0.0088,0.5201,0.9175,0.1781,-1.8158
21892,-107.2917,29.1229,-0.0114,0.066,96.3496,-0.0256,-1.1506,10.0049,-0.0064,0.4094,0.7127,0.1237,-1.4091
21907,-107.3146,29.3218,-0.0114,0.0578,96.3272,-0.0239,-1.1437,10.0145,-0.0046,0.3469,0.4794,0.0914,-1.0862
21923,-107.3146,29.3218,-0.0114,0.0578,96.3272,-0.0239,-1.1437,10.0145,-0.0046,0.3469,0.4794,0.0914,-1.0862
21939,-107.3367,29.5156,-0.0114,0.0512,96.3096,-0.0213,-1.1378,10.0212,-0.0033,0.3076,0.3469,0.0679,-0.8564
21955,-107.3583,29.7058,-0.0114,0.0458,96.2958,-0.0184,-1.1328,10.0291,-0.0023,0.2637,0.4154,0.0494,-0.6811
21972,-107.3799,29.8974,-0.0114,0.0412,96.2847,-0.0155,-1.1285,10.0382,-0.0016,0.2212,0.4784,0.036,-0.541
21988,-107.4039,30.1109,-0.0114,0.0372,96.2751,-0.0127,-1.1236,10.0431,-0.001,0.2305,0.2301,0.0283,-0.4069
22003,-107.4259,30.3074,-0.0114,0.0342,96.2688,-0.0102,-1.1206,10.0559,-0.0007,0.1557,0.6526,0.0162,-0.3048
22019,-107.4259,30.3074,-0.0114,0.0342,96.2688,-0.0102,-1.1206,10.0559,-0.0007,0.1557,0.6526,0.0162,-0.3048
22035,-107.4474,30.5007,-0.0114,0.0314,96.264,-0.0081,-1.1178,10.0613,-0.0004,0.1433,0.2802,0.0141,-0.2379
22052,-107.4677,30.686,-0.0108,-0.0024,96.2601,0.0341,-1.1173,10.0663,0.0196,0.0291,0.2736,1.089,-0.1408
22069,-107.4901,30.8893,-0.0104,-0.0233,96.2569,0.0545,-1.1209,10.0994,0.0004,-0.1778,1.6427,-0.9518,-0.1394
22084,-107.5131,31.0951,-0.0107,-0.0065,96.2541,0.0277,-1.117,10.1126,-0.0077,0.1902,0.648,-0.3993,-0.129
22099,-107.5349,31.2916,-0.0109,0.0041,96.2524,0.0134,-1.1148,10.1263,-0.0063,0.1157,0.705,0.0751,-0.1151
22115,-107.5349,31.2916,-0.0109,0.0041,96.2524,0.0134,-1.1148,10.1263,-0.0063,0.1157,0.705,0.0751,-0.1151
22131,-107.5574,31.4966,-0.011,0.0107,96.2512,0.0061,-1.1147,10.1446,-0.0044,0.0047,0.9075,0.0907,-0.0454
22149,-107.579,31.693,-0.0111,0.0146,96.2505,0.0023,-1.115,10.159,-0.0035,-0.0158,0.7439,0.0498,-0.0152
22165,-107.6008,31.8911,-0.0112,0.0168,96.2498,0.0004,-1.1157,10.1723,-0.0025,-0.0352,0.6833,0.0496,0.0013
22179,-107.6223,32.0868,-0.0113,0.0177,96.2493,-0.0004,-1.1162,10.1818,-0.0018,-0.0297,0.4917,0.0373,-0.0128
22195,-107.6223,32.0868,-0.0113,0.0177,96.2493,-0.0004,-1.1162,10.1818,-0.0018,-0.0297,0.4917,0.0373,-0.0128
22211,-107.6434,32.2799,-0.0113,0.0177,96.2488,-0.0008,-1.1166,10.1875,-0.0012,-0.0168,0.3028,0.0301,-0.0193
22228,-107.665,32.477,-0.0113,0.0172,96.2485,-0.0009,-1.1169,10.193,-0.0008,-0.0183,0.2804,0.021,-0.0164
22246,-107.6869,32.6767,-0.0113,0.0164,96.2482,-0.0009,-1.1173,10.1979,-0.0005,-0.0182,0.254,0.015,-0.0132
22262,-107.7086,32.8743,-0.0113,0.0155,96.248,-0.0009,-1.1176,10.2026,-0.0003,-0.0186,0.242,0.0107,-0.0106
22275,-107.7292,33.0631,-0.0113,0.0147,96.2478,-0.0008,-1.1181,10.208,-0.0001,-0.0249,0.2885,0.0079,-0.0086
22291,-107.7292,33.0631,-0.0113,0.0147,96.2478,-0.0008,-1.1181,10.208,-0.0001,-0.0249,0.2885,0.0079,-0.0086
22307,-107.7524,33.2747,-0.0113,0.014,96.2476,-0.0007,-1.1184,10.2114,-0.0,-0.0121,0.1655,0.0058,-0.0064
22325,-107.7739,33.4711,-0.0113,0.0137,96.2475,-0.0006,-1.1195,10.2226,0.0,-0.0589,0.5848,0.0034,-0.0048
22341,-107.7952,33.6653,-0.0113,0.0133,96.2475,-0.0005,-1.12,10.2282,0.0001,-0.0281,0.2929,0.0011,-0.0037
22357,-107.8169,33.8633,-0.0113,0.0127,96.2474,-0.0005,-1.1202,10.2308,0.0001,-0.0113,0.1316,0.0015,-0.003
22371,-107.8378,34.0546,-0.0113,0.0122,96.2474,-0.0004,-1.1209,10.2368,0.0001,-0.0329,0.3229,0.0014,-0.0025
22389,-107.8378,34.0546,-0.0113,0.0122,96.2474,-0.0004,-1.1209,10.2368,0.0001,-0.0329,0.3229,0.0014,-0.0025
22403,-107.8598,34.2551,-0.0113,0.0116,96.2473,-0.0003,-1.1212,10.2407,0.0001,-0.0199,0.2018,0.0009,-0.0019
22421,-107.881,34.4492,-0.0113,0.0111,96.2473,-0.0003,-1.122,10.2477,0.0001,-0.0383,0.3663,-0.0001,-0.0016
22437,-107.9034,34.6538,-0.0113,0.0105,96.2473,-0.0002,-1.1223,10.2512,0.0001,-0.0178,0.1762,-0.0008,-0.0013
22451,-107.9263,34.8632,-0.0113,0.0103,96.2472,-0.0002,-1.126,10.2848,0.0001,-0.1792,1.6496,-0.0001,-0.001
22467,-107.9263,34.8632,-0.0113,0.0103,96.2472,-0.0002,-1.126,10.2848,0.0001,-0.1792,1.6496,-0.0001,-0.001
22483,-107.9478,35.0591,-0.0113,0.0103,96.2472,-0.0002,-1.1277,10.3004,0.0001,-0.0888,0.8233,-0.0003,-0.0008
22502,-107.9687,35.25,-0.0112,0.0104,96.2472,-0.0002,-1.1291,10.3134,0.0001,-0.0756,0.6989,-0.0012,-0.0006
22515,-107.9919,35.4618,-0.0112,0.0104,96.2472,-0.0002,-1.1297,10.3191,0.0001,-0.0298,0.2805,-0.0004,-0.0004
22533,-108.0133,35.6579,-0.0112,0.0104,96.2472,-0.0002,-1.1308,10.3292,0.0001,-0.0576,0.5313,0.0002,-0.0003
22547,-108.0345,35.8512,-0.0112,0.0104,96.2472,-0.0002,-1.1314,10.3351,0.0001,-0.0339,0.3131,-0.0001,-0.0002
22563,-108.0345,35.8512,-0.0112,0.0104,96.2472,-0.0002,-1.1314,10.3351,0.0001,-0.0339,0.3131,-0.0001,-0.0002
22579,-108.0579,36.0654,-0.0112,0.0104,96.2472,-0.0002,-1.1337,10.3563,0.0001,-0.112,1.0264,-0.0006,-0.0002
22597,-108.0814,36.2794,-0.0112,0.0104,96.2472,-0.0002,-1.1348,10.3661,0.0001,-0.0518,0.476,-0.0005,-0.0001
22613,-108.1036,36.4823,-0.0112,0.0105,96.2472,-0.0001,-1.1359,10.3759,0.0001,-0.0543,0.4987,-0.0003,-0.0001
22627,-108.1245,36.6737,-0.0112,0.0105,96.2472,-0.0001,-1.1366,10.3824,0.0001,-0.0387,0.355,-0.0004,-0.0001
22643,-108.1245,36.6737,-0.0112,0.0105,96.2472,-0.0001,-1.1366,10.3824,0.0001,-0.0387,0.355,-0.0004,-0.0001
22659,-108.1494,36.9013,-0.0112,0.0103,96.2472,-0.0001,-1.1385,10.4003,0.0,-0.0891,0.8156,-0.0003,-0.0001
22676,-108.1723,37.1098,-0.0112,0.0103,96.2472,-0.0001,-1.1394,10.408,0.0,-0.0419,0.3841,-0.0002,-0.0
22693,-108.1946,37.3139,-0.0112,0.0102,96.2472,-0.0001,-1.1403,10.4168,0.0,-0.0489,0.448,-0.0004,-0.0
22707,-108.2162,37.5108,-0.0112,0.01,96.2472,-0.0001,-1.1409,10.4224,0.0,-0.0326,0.2987,-0.0003,-0.0
22723,-108.2162,37.5108,-0.0112,0.01,96.2472,-0.0001,-1.1409,10.4224,0.0,-0.0326,0.2987,-0.0003,-0.0
