timestamp,x,y,z,pitch,yaw,roll,vx,vy,vz,ax,ay,az,yaw_rate
164742,-106.6867,-4.8475,-0.0662,0.0,-89.3578,0.0,-0.0,0.0,0.2392,-0.0,0.0,0.7507,-0.0
164758,-106.6867,-4.8475,-0.0662,0.0,-89.3578,0.0,-0.0,0.0,0.2392,-0.0,0.0,0.7507,-0.0
164774,-106.6867,-4.8475,-0.0662,0.0,-89.3578,0.0,-0.0,0.0,0.2392,-0.0,0.0,0.7507,-0.0
164797,-106.6867,-4.8475,-0.0662,0.0,-89.3578,0.0,-0.0,0.0,0.2392,-0.0,0.0,0.7507,-0.0
164806,-106.6867,-4.8475,-0.0662,0.0,-89.3578,0.0,-0.0,0.0,0.2392,-0.0,0.0,0.7507,-0.0
164822,-106.6867,-4.8475,-0.0662,0.0,-89.3578,0.0,-0.0,0.0,0.2392,-0.0,0.0,0.7507,-0.0
164838,-106.6867,-4.8475,-0.0662,0.0,-89.3578,0.0,-0.0,0.0,0.2392,-0.0,0.0,0.7507,-0.0
164854,-106.6867,-4.8475,-0.0662,0.0,-89.3578,0.0,-0.0,0.0,0.2392,-0.0,0.0,0.7507,-0.0
164870,-106.6867,-4.8475,-0.0662,0.0,-89.3578,0.0,-0.0,0.0,0.2392,-0.0,0.0,0.7507,-0.0
164886,-106.6867,-4.8475,-0.0662,0.0,-89.3578,0.0,-0.0,0.0,0.2392,-0.0,0.0,0.7507,-0.0
164902,-106.6867,-4.8475,-0.0662,0.0,-89.3578,0.0,-0.0,0.0,0.2392,-0.0,0.0,0.7507,-0.0
164918,-106.6867,-4.8475,-0.0662,0.0,-89.3578,0.0,-0.0,0.0,0.2392,-0.0,0.0,0.7507,-0.0
164934,-106.6867,-4.8475,-0.0662,0.0,-89.3578,0.0,-0.0,0.0,0.2392,-0.0,0.0,0.7507,-0.0
164950,-106.6867,-4.8475,-0.0662,0.0,-89.3578,0.0,-0.0,0.0,0.2392,-0.0,0.0,0.7507,-0.0
164966,-106.6867,-4.8475,-0.0662,0.0,-89.3578,0.0,-0.0,0.0,0.2392,-0.0,0.0,0.7507,-0.0
164982,-106.6867,-4.8475,-0.0662,0.0,-89.3578,0.0,-0.0,0.0,0.2392,-0.0,0.0,0.7507,-0.0
164998,-106.6867,-4.8475,-0.0662,0.0,-89.3578,0.0,-0.0,0.0,0.2392,-0.0,0.0,0.7507,-0.0
165014,-106.6867,-4.8475,-0.0662,0.0,-89.3578,0.0,-0.0,0.0,0.2392,-0.0,0.0,0.7507,-0.0
165030,-106.6867,-4.8475,-0.0662,0.0,-89.3578,0.0,-0.0,0.0,0.2392,-0.0,0.0,0.7507,-0.0
165046,-106.6867,-4.8475,-0.0662,0.0,-89.3578,0.0,-0.0,0.0,0.2392,-0.0,0.0,0.7507,-0.0
165062,-106.6867,-4.8475,-0.0662,0.0,-89.3578,0.0,-0.0,0.0,0.2392,-0.0,0.0,0.7507,-0.0
165078,-106.6867,-4.8475,-0.0662,0.0,-89.3578,0.0,-0.0,0.0,0.2392,-0.0,0.0,0.7507,-0.0
165094,-106.6867,-4.8475,-0.0662,0.0,-89.3578,0.0,-0.0,0.0,0.2392,-0.0,0.0,0.7507,-0.0
165110,-106.6867,-4.8475,-0.0662,0.0,-89.3578,0.0,-0.0,0.0,0.2392,-0.0,0.0,0.7507,-0.0
165126,-106.6867,-4.8475,-0.0662,0.0,-89.3578,0.0,-0.0,0.0,0.2392,-0.0,0.0,0.7507,-0.0
165142,-106.6867,-4.8475,-0.0662,0.0,-89.3578,0.0,-0.0,0.0,0.2392,-0.0,0.0,0.7507,-0.0
165158,-106.6867,-4.8475,-0.0662,0.0,-89.3578,0.0,-0.0,0.0,0.2392,-0.0,0.0,0.7507,-0.0
165174,-106.6867,-4.8475,-0.0662,0.0,-89.3578,0.0,-0.0,0.0,0.2392,-0.0,0.0,0.7507,-0.0
165190,-106.6867,-4.8475,-0.0662,0.0,-89.3578,0.0,-0.0,0.0,0.2392,-0.0,0.0,0.7507,-0.0
165206,-106.6867,-4.8475,-0.0662,0.0,-89.3578,0.0,-0.0,0.0,0.2392,-0.0,0.0,0.7507,-0.0
165222,-106.6867,-4.8475,-0.0435,0.0,-89.3578,0.0,0.0,-0.0,0.1983,0.0,-0.0,-0.1022,0.0
165238,-106.6867,-4.8475,-0.0435,0.0,-89.3578,0.0,0.0,-0.0,0.1983,0.0,-0.0,-0.1022,0.0
165254,-106.6867,-4.8475,-0.0435,0.0,-89.3578,0.0,0.0,-0.0,0.1983,0.0,-0.0,-0.1022,0.0
165270,-106.6867,-4.8475,-0.0435,0.0,-89.3578,0.0,0.0,-0.0,0.1983,0.0,-0.0,-0.1022,0.0
165286,-106.6867,-4.8456,-0.0282,-0.0016,-89.3578,0.0,-0.0005,0.0402,0.1191,-0.0024,0.2127,-0.4192,0.0001
165302,-106.6867,-4.8456,-0.0282,-0.0016,-89.3578,0.0,-0.0005,0.0402,0.1191,-0.0024,0.2127,-0.4192,0.0001
165318,-106.6867,-4.8456,-0.0282,-0.0016,-89.3578,0.0,-0.0005,0.0402,0.1191,-0.0024,0.2127,-0.4192,0.0001
165334,-106.6867,-4.8456,-0.0282,-0.0016,-89.3578,0.0,-0.0005,0.0402,0.1191,-0.0024,0.2127,-0.4192,0.0001
165350,-106.6867,-4.8456,-0.0282,-0.0016,-89.3578,0.0,-0.0005,0.0402,0.1191,-0.0024,0.2127,-0.4192,0.0001
165366,-106.6867,-4.8456,-0.0282,-0.0016,-89.3578,0.0,-0.0005,0.0402,0.1191,-0.0024,0.2127,-0.4192,0.0001
165382,-106.6867,-4.8456,-0.0282,-0.0016,-89.3578,0.0,-0.0005,0.0402,0.1191,-0.0024,0.2127,-0.4192,0.0001
165398,-106.6867,-4.8456,-0.0282,-0.0016,-89.3578,0.0,-0.0005,0.0402,0.1191,-0.0024,0.2127,-0.4192,0.0001
165414,-106.6867,-4.8456,-0.0282,-0.0016,-89.3578,0.0,-0.0005,0.0402,0.1191,-0.0024,0.2127,-0.4192,0.0001
165430,-106.6867,-4.8456,-0.0282,-0.0016,-89.3578,0.0,-0.0005,0.0402,0.1191,-0.0024,0.2127,-0.4192,0.0001
165446,-106.6867,-4.8456,-0.0282,-0.0016,-89.3578,0.0,-0.0005,0.0402,0.1191,-0.0024,0.2127,-0.4192,0.0001
165462,-106.6867,-4.8456,-0.0282,-0.0016,-89.3578,0.0,-0.0005,0.0402,0.1191,-0.0024,0.2127,-0.4192,0.0001
165478,-106.6868,-4.8409,-0.0196,-0.0048,-89.3578,0.0,-0.0011,0.1002,0.0629,-0.0053,0.4741,-0.4431,-0.0073
165494,-106.6868,-4.8409,-0.0196,-0.0048,-89.3578,0.0,-0.0011,0.1002,0.0629,-0.0053,0.4741,-0.4431,-0.0073
165510,-106.6868,-4.8409,-0.0196,-0.0048,-89.3578,0.0,-0.0011,0.1002,0.0629,-0.0053,0.4741,-0.4431,-0.0073
165563,-106.6868,-4.8409,-0.0196,-0.0048,-89.3578,0.0,-0.0011,0.1002,0.0629,-0.0053,0.4741,-0.4431,-0.0073
165730,-106.6868,-4.8409,-0.0196,-0.0048,-89.3578,0.0,-0.0011,0.1002,0.0629,-0.0053,0.4741,-0.4431,-0.0073
165743,-106.6868,-4.8409,-0.0196,-0.0048,-89.3578,0.0,-0.0011,0.1002,0.0629,-0.0053,0.4741,-0.4431,-0.0073
165759,-106.6868,-4.8409,-0.0196,-0.0048,-89.3578,0.0,-0.0011,0.1002,0.0629,-0.0053,0.4741,-0.4431,-0.0073
165775,-106.6868,-4.8409,-0.0196,-0.0048,-89.3578,0.0,-0.0011,0.1002,0.0629,-0.0053,0.4741,-0.4431,-0.0073
165791,-106.6868,-4.8409,-0.0196,-0.0048,-89.3578,0.0,-0.0011,0.1002,0.0629,-0.0053,0.4741,-0.4431,-0.0073
165807,-106.6868,-4.8409,-0.0196,-0.0048,-89.3578,0.0,-0.0011,0.1002,0.0629,-0.0053,0.4741,-0.4431,-0.0073
165823,-106.6872,-4.8037,-0.015,-0.0277,-89.349,-0.0001,-0.005,0.5008,0.0311,-0.0271,2.7743,-0.2208,0.2099
165839,-106.6872,-4.8037,-0.015,-0.0277,-89.349,-0.0001,-0.005,0.5008,0.0311,-0.0271,2.7743,-0.2208,0.2099
165855,-106.6872,-4.8037,-0.015,-0.0277,-89.349,-0.0001,-0.005,0.5008,0.0311,-0.0271,2.7743,-0.2208,0.2099
165871,-106.6872,-4.8037,-0.015,-0.0277,-89.349,-0.0001,-0.005,0.5008,0.0311,-0.0271,2.7743,-0.2208,0.2099
165887,-106.6872,-4.8037,-0.015,-0.0277,-89.349,-0.0001,-0.005,0.5008,0.0311,-0.0271,2.7743,-0.2208,0.2099
165903,-106.6872,-4.8037,-0.015,-0.0277,-89.349,-0.0001,-0.005,0.5008,0.0311,-0.0271,2.7743,-0.2208,0.2099
165919,-106.6872,-4.8037,-0.015,-0.0277,-89.349,-0.0001,-0.005,0.5008,0.0311,-0.0271,2.7743,-0.2208,0.2099
165935,-106.6872,-4.8037,-0.015,-0.0277,-89.349,-0.0001,-0.005,0.5008,0.0311,-0.0271,2.7743,-0.2208,0.2099
165951,-106.6872,-4.8037,-0.015,-0.0277,-89.349,-0.0001,-0.005,0.5008,0.0311,-0.0271,2.7743,-0.2208,0.2099
165969,-106.6872,-4.8037,-0.015,-0.0277,-89.349,-0.0001,-0.005,0.5008,0.0311,-0.0271,2.7743,-0.2208,0.2099
165983,-106.6879,-4.7272,-0.0128,-0.045,-89.3477,-0.0003,-0.0098,0.9758,0.0147,-0.0134,1.3322,-0.046,0.4362
165999,-106.689,-4.6291,-0.0116,-0.0413,-89.3524,0.0,-0.0113,1.0134,0.0101,-0.0151,0.393,-0.0481,0.0176
166015,-106.689,-4.6291,-0.0116,-0.0413,-89.3524,0.0,-0.0113,1.0134,0.0101,-0.0151,0.393,-0.0481,0.0176
166031,-106.689,-4.6291,-0.0116,-0.0413,-89.3524,0.0,-0.0113,1.0134,0.0101,-0.0151,0.393,-0.0481,0.0176
166047,-106.689,-4.6291,-0.0116,-0.0413,-89.3524,0.0,-0.0113,1.0134,0.0101,-0.0151,0.393,-0.0481,0.0176
166065,-106.6899,-4.5487,-0.0112,-0.0284,-89.3534,0.0,-0.0111,1.0044,0.0036,0.0022,-0.1177,-0.0843,0.052
166079,-106.6899,-4.5487,-0.0112,-0.0284,-89.3534,0.0,-0.0111,1.0044,0.0036,0.0022,-0.1177,-0.0843,0.052
166095,-106.6899,-4.5487,-0.0112,-0.0284,-89.3534,0.0,-0.0111,1.0044,0.0036,0.0022,-0.1177,-0.0843,0.052
166111,-106.6899,-4.5487,-0.0112,-0.0284,-89.3534,0.0,-0.0111,1.0044,0.0036,0.0022,-0.1177,-0.0843,0.052
166127,-106.6899,-4.5487,-0.0112,-0.0284,-89.3534,0.0,-0.0111,1.0044,0.0036,0.0022,-0.1177,-0.0843,0.052
166143,-106.6899,-4.5487,-0.0112,-0.0284,-89.3534,0.0,-0.0111,1.0044,0.0036,0.0022,-0.1177,-0.0843,0.052
166160,-106.6911,-4.444,-0.011,-0.0279,-89.3451,0.0,-0.0145,1.2599,0.0011,-0.0376,2.8188,-0.028,-0.386
166175,-106.6911,-4.444,-0.011,-0.0279,-89.3451,0.0,-0.0145,1.2599,0.0011,-0.0376,2.8188,-0.028,-0.386
166191,-106.6911,-4.444,-0.011,-0.0279,-89.3451,0.0,-0.0145,1.2599,0.0011,-0.0376,2.8188,-0.028,-0.386
166207,-106.6911,-4.444,-0.011,-0.0279,-89.3451,0.0,-0.0145,1.2599,0.0011,-0.0376,2.8188,-0.028,-0.386
166223,-106.6911,-4.444,-0.011,-0.0279,-89.3451,0.0,-0.0145,1.2599,0.0011,-0.0376,2.8188,-0.028,-0.386
166239,-106.6911,-4.444,-0.011,-0.0279,-89.3451,0.0,-0.0145,1.2599,0.0011,-0.0376,2.8188,-0.028,-0.386
166255,-106.6939,-4.2895,-0.0108,-0.0567,-89.258,0.0014,-0.0306,1.8835,0.0004,-0.1767,6.854,-0.008,2.4862
166271,-106.6939,-4.2895,-0.0108,-0.0567,-89.258,0.0014,-0.0306,1.8835,0.0004,-0.1767,6.854,-0.008,2.4862
166287,-106.6939,-4.2895,-0.0108,-0.0567,-89.258,0.0014,-0.0306,1.8835,0.0004,-0.1767,6.854,-0.008,2.4862
166303,-106.6939,-4.2895,-0.0108,-0.0567,-89.258,0.0014,-0.0306,1.8835,0.0004,-0.1767,6.854,-0.008,2.4862
166319,-106.6939,-4.2895,-0.0108,-0.0567,-89.258,0.0014,-0.0306,1.8835,0.0004,-0.1767,6.854,-0.008,2.4862
166335,-106.6965,-4.0987,-0.0107,-0.0644,-89.261,0.0005,-0.0307,2.3133,0.0001,-0.0016,4.8477,-0.0027,-1.8909
166351,-106.6965,-4.0987,-0.0107,-0.0644,-89.261,0.0005,-0.0307,2.3133,0.0001,-0.0016,4.8477,-0.0027,-1.8909
166367,-106.6965,-4.0987,-0.0107,-0.0644,-89.261,0.0005,-0.0307,2.3133,0.0001,-0.0016,4.8477,-0.0027,-1.8909
166383,-106.6965,-4.0987,-0.0107,-0.0644,-89.261,0.0005,-0.0307,2.3133,0.0001,-0.0016,4.8477,-0.0027,-1.8909
166399,-106.6965,-4.0987,-0.0107,-0.0644,-89.261,0.0005,-0.0307,2.3133,0.0001,-0.0016,4.8477,-0.0027,-1.8909
166415,-106.6965,-4.0987,-0.0107,-0.0644,-89.261,0.0005,-0.0307,2.3133,0.0001,-0.0016,4.8477,-0.0027,-1.8909
166431,-106.7004,-3.8501,-0.0106,-0.0757,-89.202,0.001,-0.0421,2.8207,0.0,-0.118,5.2456,-0.0007,4.5838
166447,-106.7004,-3.8501,-0.0106,-0.0757,-89.202,0.001,-0.0421,2.8207,0.0,-0.118,5.2456,-0.0007,4.5838
166463,-106.7004,-3.8501,-0.0106,-0.0757,-89.202,0.001,-0.0421,2.8207,0.0,-0.118,5.2456,-0.0007,4.5838
166479,-106.7004,-3.8501,-0.0106,-0.0757,-89.202,0.001,-0.0421,2.8207,0.0,-0.118,5.2456,-0.0007,4.5838
166495,-106.7004,-3.8501,-0.0106,-0.0757,-89.202,0.001,-0.0421,2.8207,0.0,-0.118,5.2456,-0.0007,4.5838
166511,-106.7004,-3.8501,-0.0106,-0.0757,-89.202,0.001,-0.0421,2.8207,0.0,-0.118,5.2456,-0.0007,4.5838
166529,-106.7061,-3.5691,-0.0106,-0.0789,-89.0655,0.0025,-0.0542,3.2564,0.0,-0.133,4.7913,-0.0002,0.3537
166543,-106.7061,-3.5691,-0.0106,-0.0789,-89.0655,0.0025,-0.0542,3.2564,0.0,-0.133,4.7913,-0.0002,0.3537
166559,-106.7061,-3.5691,-0.0106,-0.0789,-89.0655,0.0025,-0.0542,3.2564,0.0,-0.133,4.7913,-0.0002,0.3537
166575,-106.7061,-3.5691,-0.0106,-0.0789,-89.0655,0.0025,-0.0542,3.2564,0.0,-0.133,4.7913,-0.0002,0.3537
166591,-106.7061,-3.5691,-0.0106,-0.0789,-89.0655,0.0025,-0.0542,3.2564,0.0,-0.133,4.7913,-0.0002,0.3537
166607,-106.7061,-3.5691,-0.0106,-0.0789,-89.0655,0.0025,-0.0542,3.2564,0.0,-0.133,4.7913,-0.0002,0.3537
166625,-106.7104,-3.2345,-0.0106,-0.0808,-89.1833,-0.0005,-0.0525,3.8275,-0.0,0.0182,6.0704,-0.0005,0.0168
166639,-106.7104,-3.2345,-0.0106,-0.0808,-89.1833,-0.0005,-0.0525,3.8275,-0.0,0.0182,6.0704,-0.0005,0.0168
166655,-106.7104,-3.2345,-0.0106,-0.0808,-89.1833,-0.0005,-0.0525,3.8275,-0.0,0.0182,6.0704,-0.0005,0.0168
166671,-106.7104,-3.2345,-0.0106,-0.0808,-89.1833,-0.0005,-0.0525,3.8275,-0.0,0.0182,6.0704,-0.0005,0.0168
166687,-106.7104,-3.2345,-0.0106,-0.0808,-89.1833,-0.0005,-0.0525,3.8275,-0.0,0.0182,6.0704,-0.0005,0.0168
166703,-106.7104,-3.2345,-0.0106,-0.0808,-89.1833,-0.0005,-0.0525,3.8275,-0.0,0.0182,6.0704,-0.0005,0.0168
166719,-106.7144,-2.8512,-0.0105,-0.0839,-89.3065,-0.0023,-0.0517,4.3598,0.0,0.0083,5.6223,0.0003,1.0505
166735,-106.7144,-2.8512,-0.0105,-0.0839,-89.3065,-0.0023,-0.0517,4.3598,0.0,0.0083,5.6223,0.0003,1.0505
166751,-106.7144,-2.8512,-0.0105,-0.0839,-89.3065,-0.0023,-0.0517,4.3598,0.0,0.0083,5.6223,0.0003,1.0505
166767,-106.7144,-2.8512,-0.0105,-0.0839,-89.3065,-0.0023,-0.0517,4.3598,0.0,0.0083,5.6223,0.0003,1.0505
166783,-106.7144,-2.8512,-0.0105,-0.0839,-89.3065,-0.0023,-0.0517,4.3598,0.0,0.0083,5.6223,0.0003,1.0505
166799,-106.7144,-2.8512,-0.0105,-0.0839,-89.3065,-0.0023,-0.0517,4.3598,0.0,0.0083,5.6223,0.0003,1.0505
166815,-106.7183,-2.4241,-0.0105,-0.0895,-89.4131,-0.0031,-0.0522,4.8985,0.0,-0.0047,5.807,0.0,-2.669
166831,-106.7183,-2.4241,-0.0105,-0.0895,-89.4131,-0.0031,-0.0522,4.8985,0.0,-0.0047,5.807,0.0,-2.669
166847,-106.7183,-2.4241,-0.0105,-0.0895,-89.4131,-0.0031,-0.0522,4.8985,0.0,-0.0047,5.807,0.0,-2.669
166863,-106.7183,-2.4241,-0.0105,-0.0895,-89.4131,-0.0031,-0.0522,4.8985,0.0,-0.0047,5.807,0.0,-2.669
166879,-106.7183,-2.4241,-0.0105,-0.0895,-89.4131,-0.0031,-0.0522,4.8985,0.0,-0.0047,5.807,0.0,-2.669
166895,-106.7183,-2.4241,-0.0105,-0.0895,-89.4131,-0.0031,-0.0522,4.8985,0.0,-0.0047,5.807,0.0,-2.669
166913,-106.7229,-1.9101,-0.0105,-0.0926,-89.4711,-0.0033,-0.0499,5.4807,0.0,0.0233,5.8604,-0.0,1.3251
166927,-106.7229,-1.9101,-0.0105,-0.0926,-89.4711,-0.0033,-0.0499,5.4807,0.0,0.0233,5.8604,-0.0,1.3251
166943,-106.7229,-1.9101,-0.0105,-0.0926,-89.4711,-0.0033,-0.0499,5.4807,0.0,0.0233,5.8604,-0.0,1.3251
166959,-106.7229,-1.9101,-0.0105,-0.0926,-89.4711,-0.0033,-0.0499,5.4807,0.0,0.0233,5.8604,-0.0,1.3251
166975,-106.7229,-1.9101,-0.0105,-0.0926,-89.4711,-0.0033,-0.0499,5.4807,0.0,0.0233,5.8604,-0.0,1.3251
166991,-106.7229,-1.9101,-0.0105,-0.0926,-89.4711,-0.0033,-0.0499,5.4807,0.0,0.0233,5.8604,-0.0,1.3251
167009,-106.7274,-1.3487,-0.0104,-0.0984,-89.5331,-0.003,-0.0525,6.1255,-0.0,-0.0273,6.6437,-0.0001,-1.8945
167023,-106.7274,-1.3487,-0.0104,-0.0984,-89.5331,-0.003,-0.0525,6.1255,-0.0,-0.0273,6.6437,-0.0001,-1.8945
167039,-106.7274,-1.3487,-0.0104,-0.0984,-89.5331,-0.003,-0.0525,6.1255,-0.0,-0.0273,6.6437,-0.0001,-1.8945
167055,-106.7274,-1.3487,-0.0104,-0.0984,-89.5331,-0.003,-0.0525,6.1255,-0.0,-0.0273,6.6437,-0.0001,-1.8945
167071,-106.7274,-1.3487,-0.0104,-0.0984,-89.5331,-0.003,-0.0525,6.1255,-0.0,-0.0273,6.6437,-0.0001,-1.8945
167087,-106.7274,-1.3487,-0.0104,-0.0984,-89.5331,-0.003,-0.0525,6.1255,-0.0,-0.0273,6.6437,-0.0001,-1.8945
167103,-106.7323,-0.7457,-0.0103,-0.1135,-89.5357,-0.0023,-0.0564,6.9417,0.0,-0.0424,8.8352,0.0001,0.5119
167119,-106.7323,-0.7457,-0.0103,-0.1135,-89.5357,-0.0023,-0.0564,6.9417,0.0,-0.0424,8.8352,0.0001,0.5119
167135,-106.7323,-0.7457,-0.0103,-0.1135,-89.5357,-0.0023,-0.0564,6.9417,0.0,-0.0424,8.8352,0.0001,0.5119
167151,-106.7323,-0.7457,-0.0103,-0.1135,-89.5357,-0.0023,-0.0564,6.9417,0.0,-0.0424,8.8352,0.0001,0.5119
167167,-106.7323,-0.7457,-0.0103,-0.1135,-89.5357,-0.0023,-0.0564,6.9417,0.0,-0.0424,8.8352,0.0001,0.5119
167183,-106.7323,-0.7457,-0.0103,-0.1135,-89.5357,-0.0023,-0.0564,6.9417,0.0,-0.0424,8.8352,0.0001,0.5119
167200,-106.7382,-0.0223,-0.0103,-0.1166,-89.5409,-0.0015,-0.0616,7.5888,-0.0,-0.0522,6.5152,-0.0001,-1.0783
167215,-106.7382,-0.0223,-0.0103,-0.1166,-89.5409,-0.0015,-0.0616,7.5888,-0.0,-0.0522,6.5152,-0.0001,-1.0783
167231,-106.7382,-0.0223,-0.0103,-0.1166,-89.5409,-0.0015,-0.0616,7.5888,-0.0,-0.0522,6.5152,-0.0001,-1.0783
167247,-106.7382,-0.0223,-0.0103,-0.1166,-89.5409,-0.0015,-0.0616,7.5888,-0.0,-0.0522,6.5152,-0.0001,-1.0783
167263,-106.7382,-0.0223,-0.0103,-0.1166,-89.5409,-0.0015,-0.0616,7.5888,-0.0,-0.0522,6.5152,-0.0001,-1.0783
167279,-106.7382,-0.0223,-0.0103,-0.1166,-89.5409,-0.0015,-0.0616,7.5888,-0.0,-0.0522,6.5152,-0.0001,-1.0783
167295,-106.7441,0.7116,-0.0103,-0.1183,-89.5385,-0.0009,-0.0668,8.2954,-0.0,-0.0561,7.6506,0.0001,0.0329
167311,-106.7441,0.7116,-0.0103,-0.1183,-89.5385,-0.0009,-0.0668,8.2954,-0.0,-0.0561,7.6506,0.0001,0.0329
167327,-106.7441,0.7116,-0.0103,-0.1183,-89.5385,-0.0009,-0.0668,8.2954,-0.0,-0.0561,7.6506,0.0001,0.0329
167343,-106.7441,0.7116,-0.0103,-0.1183,-89.5385,-0.0009,-0.0668,8.2954,-0.0,-0.0561,7.6506,0.0001,0.0329
167359,-106.7441,0.7116,-0.0103,-0.1183,-89.5385,-0.0009,-0.0668,8.2954,-0.0,-0.0561,7.6506,0.0001,0.0329
167375,-106.7441,0.7116,-0.0103,-0.1183,-89.5385,-0.0009,-0.0668,8.2954,-0.0,-0.0561,7.6506,0.0001,0.0329
167393,-106.751,1.5662,-0.0103,-0.1118,-89.5384,-0.0005,-0.0712,8.8359,0.0,-0.0439,5.442,0.0001,0.0013
167407,-106.751,1.5662,-0.0103,-0.1118,-89.5384,-0.0005,-0.0712,8.8359,0.0,-0.0439,5.442,0.0001,0.0013
167423,-106.751,1.5662,-0.0103,-0.1118,-89.5384,-0.0005,-0.0712,8.8359,0.0,-0.0439,5.442,0.0001,0.0013
167439,-106.751,1.5662,-0.0103,-0.1118,-89.5384,-0.0005,-0.0712,8.8359,0.0,-0.0439,5.442,0.0001,0.0013
167455,-106.751,1.5662,-0.0103,-0.1118,-89.5384,-0.0005,-0.0712,8.8359,0.0,-0.0439,5.442,0.0001,0.0013
167471,-106.751,1.5662,-0.0103,-0.1118,-89.5384,-0.0005,-0.0712,8.8359,0.0,-0.0439,5.442,0.0001,0.0013
167487,-106.7576,2.3903,-0.0104,-0.1053,-89.5384,-0.0003,-0.0757,9.393,0.0,-0.0498,6.164,-0.0001,0.0001
167503,-106.7576,2.3903,-0.0104,-0.1053,-89.5384,-0.0003,-0.0757,9.393,0.0,-0.0498,6.164,-0.0001,0.0001
167519,-106.7576,2.3903,-0.0104,-0.1053,-89.5384,-0.0003,-0.0757,9.393,0.0,-0.0498,6.164,-0.0001,0.0001
167535,-106.7576,2.3903,-0.0104,-0.1053,-89.5384,-0.0003,-0.0757,9.393,0.0,-0.0498,6.164,-0.0001,0.0001
167551,-106.7576,2.3903,-0.0104,-0.1053,-89.5384,-0.0003,-0.0757,9.393,0.0,-0.0498,6.164,-0.0001,0.0001
167567,-106.7576,2.3903,-0.0104,-0.1053,-89.5384,-0.0003,-0.0757,9.393,0.0,-0.0498,6.164,-0.0001,0.0001
167583,-106.7649,3.2986,-0.0104,-0.1017,-89.5384,-0.0002,-0.0799,9.9175,0.0,-0.0451,5.5913,0.0,0.0002
167599,-106.7649,3.2986,-0.0104,-0.1017,-89.5384,-0.0002,-0.0799,9.9175,0.0,-0.0451,5.5913,0.0,0.0002
167615,-106.7649,3.2986,-0.0104,-0.1017,-89.5384,-0.0002,-0.0799,9.9175,0.0,-0.0451,5.5913,0.0,0.0002
167631,-106.7649,3.2986,-0.0104,-0.1017,-89.5384,-0.0002,-0.0799,9.9175,0.0,-0.0451,5.5913,0.0,0.0002
167647,-106.7649,3.2986,-0.0104,-0.1017,-89.5384,-0.0002,-0.0799,9.9175,0.0,-0.0451,5.5913,0.0,0.0002
167664,-106.7722,4.2026,-0.0105,-0.092,-89.5384,-0.0001,-0.0828,10.2818,0.0,-0.0329,4.0816,0.0,0.0
167679,-106.7722,4.2026,-0.0105,-0.092,-89.5384,-0.0001,-0.0828,10.2818,0.0,-0.0329,4.0816,0.0,0.0
167695,-106.7722,4.2026,-0.0105,-0.092,-89.5384,-0.0001,-0.0828,10.2818,0.0,-0.0329,4.0816,0.0,0.0
167711,-106.7722,4.2026,-0.0105,-0.092,-89.5384,-0.0001,-0.0828,10.2818,0.0,-0.0329,4.0816,0.0,0.0
167743,-106.7722,4.2026,-0.0105,-0.092,-89.5384,-0.0001,-0.0828,10.2818,0.0,-0.0329,4.0816,0.0,0.0
167759,-106.7798,5.1511,-0.0105,-0.0854,-89.5384,-0.0001,-0.0863,10.7175,-0.0,-0.039,4.8345,-0.0002,-0.0001
167775,-106.7798,5.1511,-0.0105,-0.0854,-89.5384,-0.0001,-0.0863,10.7175,-0.0,-0.039,4.8345,-0.0002,-0.0001
167791,-106.7798,5.1511,-0.0105,-0.0854,-89.5384,-0.0001,-0.0863,10.7175,-0.0,-0.039,4.8345,-0.0002,-0.0001
167807,-106.7798,5.1511,-0.0105,-0.0854,-89.5384,-0.0001,-0.0863,10.7175,-0.0,-0.039,4.8345,-0.0002,-0.0001
167823,-106.7798,5.1511,-0.0105,-0.0854,-89.5384,-0.0001,-0.0863,10.7175,-0.0,-0.039,4.8345,-0.0002,-0.0001
167841,-106.8105,6.1301,-0.0106,-0.074,-90.594,0.1021,-0.7965,10.947,0.0008,-7.8908,2.5507,0.0094,-25.6036
167855,-106.8105,6.1301,-0.0106,-0.074,-90.594,0.1021,-0.7965,10.947,0.0008,-7.8908,2.5507,0.0094,-25.6036
167871,-106.8105,6.1301,-0.0106,-0.074,-90.594,0.1021,-0.7965,10.947,0.0008,-7.8908,2.5507,0.0094,-25.6036
167887,-106.8105,6.1301,-0.0106,-0.074,-90.594,0.1021,-0.7965,10.947,0.0008,-7.8908,2.5507,0.0094,-25.6036
167903,-106.8105,6.1301,-0.0106,-0.074,-90.594,0.1021,-0.7965,10.947,0.0008,-7.8908,2.5507,0.0094,-25.6036
167919,-106.8105,6.1301,-0.0106,-0.074,-90.594,0.1021,-0.7965,10.947,0.0008,-7.8908,2.5507,0.0094,-25.6036
167937,-106.8949,7.1011,-0.0107,-0.0416,-94.8291,0.2364,-1.6565,10.8783,0.0012,-9.6612,-0.7727,0.0036,-66.7473
167951,-106.8949,7.1011,-0.0107,-0.0416,-94.8291,0.2364,-1.6565,10.8783,0.0012,-9.6612,-0.7727,0.0036,-66.7473
167967,-106.8949,7.1011,-0.0107,-0.0416,-94.8291,0.2364,-1.6565,10.8783,0.0012,-9.6612,-0.7727,0.0036,-66.7473
167983,-106.8949,7.1011,-0.0107,-0.0416,-94.8291,0.2364,-1.6565,10.8783,0.0012,-9.6612,-0.7727,0.0036,-66.7473
167999,-106.8949,7.1011,-0.0107,-0.0416,-94.8291,0.2364,-1.6565,10.8783,0.0012,-9.6612,-0.7727,0.0036,-66.7473
168015,-107.011,8.0464,-0.0109,-0.0085,-102.9417,0.2672,-2.1704,10.7309,0.0003,-5.8139,-1.6676,-0.0094,-111.8061
168031,-107.011,8.0464,-0.0109,-0.0085,-102.9417,0.2672,-2.1704,10.7309,0.0003,-5.8139,-1.6676,-0.0094,-111.8061
168047,-107.011,8.0464,-0.0109,-0.0085,-102.9417,0.2672,-2.1704,10.7309,0.0003,-5.8139,-1.6676,-0.0094,-111.8061
168063,-107.011,8.0464,-0.0109,-0.0085,-102.9417,0.2672,-2.1704,10.7309,0.0003,-5.8139,-1.6676,-0.0094,-111.8061
168079,-107.011,8.0464,-0.0109,-0.0085,-102.9417,0.2672,-2.1704,10.7309,0.0003,-5.8139,-1.6676,-0.0094,-111.8061
168095,-107.011,8.0464,-0.0109,-0.0085,-102.9417,0.2672,-2.1704,10.7309,0.0003,-5.8139,-1.6676,-0.0094,-111.8061
168113,-107.13,9.0303,-0.011,0.0012,-116.2413,0.1816,-2.1596,10.6385,-0.0008,0.1129,-0.9702,-0.0114,-161.5881
168127,-107.13,9.0303,-0.011,0.0012,-116.2413,0.1816,-2.1596,10.6385,-0.0008,0.1129,-0.9702,-0.0114,-161.5881
168143,-107.13,9.0303,-0.011,0.0012,-116.2413,0.1816,-2.1596,10.6385,-0.0008,0.1129,-0.9702,-0.0114,-161.5881
168159,-107.13,9.0303,-0.011,0.0012,-116.2413,0.1816,-2.1596,10.6385,-0.0008,0.1129,-0.9702,-0.0114,-161.5881
168175,-107.13,9.0303,-0.011,0.0012,-116.2413,0.1816,-2.1596,10.6385,-0.0008,0.1129,-0.9702,-0.0114,-161.5881
168191,-107.13,9.0303,-0.011,0.0012,-116.2413,0.1816,-2.1596,10.6385,-0.0008,0.1129,-0.9702,-0.0114,-161.5881
168207,-107.1791,9.9232,-0.0076,-0.2043,-132.17,-0.1583,-1.0711,10.7464,0.0196,12.148,1.2041,0.2278,-186.4027
168223,-107.1791,9.9232,-0.0076,-0.2043,-132.17,-0.1583,-1.0711,10.7464,0.0196,12.148,1.2041,0.2278,-186.4027
168239,-107.1791,9.9232,-0.0076,-0.2043,-132.17,-0.1583,-1.0711,10.7464,0.0196,12.148,1.2041,0.2278,-186.4027
168255,-107.1791,9.9232,-0.0076,-0.2043,-132.17,-0.1583,-1.0711,10.7464,0.0196,12.148,1.2041,0.2278,-186.4027
168271,-107.1791,9.9232,-0.0076,-0.2043,-132.17,-0.1583,-1.0711,10.7464,0.0196,12.148,1.2041,0.2278,-186.4027
168287,-107.1791,9.9232,-0.0076,-0.2043,-132.17,-0.1583,-1.0711,10.7464,0.0196,12.148,1.2041,0.2278,-186.4027
168303,-107.1054,10.79,-0.0072,-0.2589,-149.5119,-0.3271,0.8014,10.5825,-0.0183,20.7327,-1.8146,-0.4199,-196.1019
168324,-107.1054,10.79,-0.0072,-0.2589,-149.5119,-0.3271,0.8014,10.5825,-0.0183,20.7327,-1.8146,-0.4199,-196.1019
168356,-107.1054,10.79,-0.0072,-0.2589,-149.5119,-0.3271,0.8014,10.5825,-0.0183,20.7327,-1.8146,-0.4199,-196.1019
168372,-107.1054,10.79,-0.0072,-0.2589,-149.5119,-0.3271,0.8014,10.5825,-0.0183,20.7327,-1.8146,-0.4199,-196.1019
168388,-107.1054,10.79,-0.0072,-0.2589,-149.5119,-0.3271,0.8014,10.5825,-0.0183,20.7327,-1.8146,-0.4199,-196.1019
168404,-107.1054,10.79,-0.0072,-0.2589,-149.5119,-0.3271,0.8014,10.5825,-0.0183,20.7327,-1.8146,-0.4199,-196.1019
168421,-107.1054,10.79,-0.0072,-0.2589,-149.5119,-0.3271,0.8014,10.5825,-0.0183,20.7327,-1.8146,-0.4199,-196.1019
168436,-107.1054,10.79,-0.0072,-0.2589,-149.5119,-0.3271,0.8014,10.5825,-0.0183,20.7327,-1.8146,-0.4199,-196.1019
168452,-107.1054,10.79,-0.0072,-0.2589,-149.5119,-0.3271,0.8014,10.5825,-0.0183,20.7327,-1.8146,-0.4199,-196.1019
168468,-107.1054,10.79,-0.0072,-0.2589,-149.5119,-0.3271,0.8014,10.5825,-0.0183,20.7327,-1.8146,-0.4199,-196.1019
168484,-107.1054,10.79,-0.0072,-0.2589,-149.5119,-0.3271,0.8014,10.5825,-0.0183,20.7327,-1.8146,-0.4199,-196.1019
168500,-107.1054,10.79,-0.0072,-0.2589,-149.5119,-0.3271,0.8014,10.5825,-0.0183,20.7327,-1.8146,-0.4199,-196.1019
168516,-107.1054,10.79,-0.0072,-0.2589,-149.5119,-0.3271,0.8014,10.5825,-0.0183,20.7327,-1.8146,-0.4199,-196.1019
168532,-106.8629,11.6293,-0.0083,-0.2509,-169.2253,-0.5929,2.6643,8.8561,-0.0044,10.286,-9.5324,0.0765,-195.0443
168548,-106.6557,12.1342,-0.0089,-0.1906,176.5104,-0.7804,2.2208,7.0051,-0.0014,-5.6683,-23.6614,0.0389,-168.8896
168564,-106.6557,12.1342,-0.0089,-0.1906,176.5104,-0.7804,2.2208,7.0051,-0.0014,-5.6683,-23.6614,0.0389,-168.8896
168580,-106.6557,12.1342,-0.0089,-0.1906,176.5104,-0.7804,2.2208,7.0051,-0.0014,-5.6683,-23.6614,0.0389,-168.8896
168596,-106.6557,12.1342,-0.0089,-0.1906,176.5104,-0.7804,2.2208,7.0051,-0.0014,-5.6683,-23.6614,0.0389,-168.8896
168612,-106.6557,12.1342,-0.0089,-0.1906,176.5104,-0.7804,2.2208,7.0051,-0.0014,-5.6683,-23.6614,0.0389,-168.8896
168628,-106.6557,12.1342,-0.0089,-0.1906,176.5104,-0.7804,2.2208,7.0051,-0.0014,-5.6683,-23.6614,0.0389,-168.8896
168644,-106.5524,12.5577,-0.01,-0.0679,162.0845,-0.9078,0.6243,5.3295,-0.0028,-18.0761,-18.9712,-0.0162,-156.1578
168660,-106.5524,12.5577,-0.01,-0.0679,162.0845,-0.9078,0.6243,5.3295,-0.0028,-18.0761,-18.9712,-0.0162,-156.1578
168676,-106.5524,12.5577,-0.01,-0.0679,162.0845,-0.9078,0.6243,5.3295,-0.0028,-18.0761,-18.9712,-0.0162,-156.1578
168692,-106.5524,12.5577,-0.01,-0.0679,162.0845,-0.9078,0.6243,5.3295,-0.0028,-18.0761,-18.9712,-0.0162,-156.1578
168708,-106.5524,12.5577,-0.01,-0.0679,162.0845,-0.9078,0.6243,5.3295,-0.0028,-18.0761,-18.9712,-0.0162,-156.1578
168726,-106.6428,12.9266,-0.011,0.0904,150.1327,-0.8623,-1.63,5.042,0.0001,-25.4466,-3.2452,0.0324,-116.2226
168740,-106.6428,12.9266,-0.011,0.0904,150.1327,-0.8623,-1.63,5.042,0.0001,-25.4466,-3.2452,0.0324,-116.2226
168756,-106.6428,12.9266,-0.011,0.0904,150.1327,-0.8623,-1.63,5.042,0.0001,-25.4466,-3.2452,0.0324,-116.2226
168772,-106.6428,12.9266,-0.011,0.0904,150.1327,-0.8623,-1.63,5.042,0.0001,-25.4466,-3.2452,0.0324,-116.2226
168788,-106.6428,12.9266,-0.011,0.0904,150.1327,-0.8623,-1.63,5.042,0.0001,-25.4466,-3.2452,0.0324,-116.2226
168804,-106.6428,12.9266,-0.011,0.0904,150.1327,-0.8623,-1.63,5.042,0.0001,-25.4466,-3.2452,0.0324,-116.2226
168822,-106.9078,13.3315,-0.012,0.2089,141.9764,-0.6959,-3.3321,5.5096,-0.0013,-19.8136,5.4434,-0.0156,-81.5604
168836,-106.9078,13.3315,-0.012,0.2089,141.9764,-0.6959,-3.3321,5.5096,-0.0013,-19.8136,5.4434,-0.0156,-81.5604
168868,-106.9078,13.3315,-0.012,0.2089,141.9764,-0.6959,-3.3321,5.5096,-0.0013,-19.8136,5.4434,-0.0156,-81.5604
168884,-106.9078,13.3315,-0.012,0.2089,141.9764,-0.6959,-3.3321,5.5096,-0.0013,-19.8136,5.4434,-0.0156,-81.5604
168901,-107.2681,13.7853,-0.0123,0.2303,136.6999,-0.5438,-4.3813,5.5974,-0.0018,-12.2832,1.0269,-0.0062,-41.9144
168916,-107.2681,13.7853,-0.0123,0.2303,136.6999,-0.5438,-4.3813,5.5974,-0.0018,-12.2832,1.0269,-0.0062,-41.9144
168932,-107.2681,13.7853,-0.0123,0.2303,136.6999,-0.5438,-4.3813,5.5974,-0.0018,-12.2832,1.0269,-0.0062,-41.9144
168948,-107.2681,13.7853,-0.0123,0.2303,136.6999,-0.5438,-4.3813,5.5974,-0.0018,-12.2832,1.0269,-0.0062,-41.9144
168964,-107.2681,13.7853,-0.0123,0.2303,136.6999,-0.5438,-4.3813,5.5974,-0.0018,-12.2832,1.0269,-0.0062,-41.9144
168980,-107.2681,13.7853,-0.0123,0.2303,136.6999,-0.5438,-4.3813,5.5974,-0.0018,-12.2832,1.0269,-0.0062,-41.9144
168996,-107.6862,14.2381,-0.0121,0.1809,134.753,-0.4747,-5.0024,5.3443,-0.0011,-7.2759,-2.9644,0.0085,-13.0111
169012,-107.6862,14.2381,-0.0121,0.1809,134.753,-0.4747,-5.0024,5.3443,-0.0011,-7.2759,-2.9644,0.0085,-13.0111
169028,-107.6862,14.2381,-0.0121,0.1809,134.753,-0.4747,-5.0024,5.3443,-0.0011,-7.2759,-2.9644,0.0085,-13.0111
169044,-107.6862,14.2381,-0.0121,0.1809,134.753,-0.4747,-5.0024,5.3443,-0.0011,-7.2759,-2.9644,0.0085,-13.0111
169060,-107.6862,14.2381,-0.0121,0.1809,134.753,-0.4747,-5.0024,5.3443,-0.0011,-7.2759,-2.9644,0.0085,-13.0111
169077,-108.138,14.7051,-0.0118,0.1253,134.2202,-0.3365,-5.1968,5.3665,-0.0013,-2.2141,0.2528,-0.0028,-2.1327
169092,-108.138,14.7051,-0.0118,0.1253,134.2202,-0.3365,-5.1968,5.3665,-0.0013,-2.2141,0.2528,-0.0028,-2.1327
169108,-108.138,14.7051,-0.0118,0.1253,134.2202,-0.3365,-5.1968,5.3665,-0.0013,-2.2141,0.2528,-0.0028,-2.1327
169124,-108.138,14.7051,-0.0118,0.1253,134.2202,-0.3365,-5.1968,5.3665,-0.0013,-2.2141,0.2528,-0.0028,-2.1327
169140,-108.138,14.7051,-0.0118,0.1253,134.2202,-0.3365,-5.1968,5.3665,-0.0013,-2.2141,0.2528,-0.0028,-2.1327
169156,-108.138,14.7051,-0.0118,0.1253,134.2202,-0.3365,-5.1968,5.3665,-0.0013,-2.2141,0.2528,-0.0028,-2.1327
169172,-108.5955,15.1759,-0.0116,0.0859,134.0594,-0.2147,-5.2899,5.4476,-0.0012,-1.0695,0.9312,0.0015,-2.0223
169188,-108.5955,15.1759,-0.0116,0.0859,134.0594,-0.2147,-5.2899,5.4476,-0.0012,-1.0695,0.9312,0.0015,-2.0223
169204,-108.5955,15.1759,-0.0116,0.0859,134.0594,-0.2147,-5.2899,5.4476,-0.0012,-1.0695,0.9312,0.0015,-2.0223
169220,-108.5955,15.1759,-0.0116,0.0859,134.0594,-0.2147,-5.2899,5.4476,-0.0012,-1.0695,0.9312,0.0015,-2.0223
169236,-108.5955,15.1759,-0.0116,0.0859,134.0594,-0.2147,-5.2899,5.4476,-0.0012,-1.0695,0.9312,0.0015,-2.0223
169253,-109.082,15.6778,-0.0115,0.0605,134.0164,-0.1291,-5.3783,5.5492,-0.0008,-0.9697,1.114,0.0046,-1.1955
169268,-109.082,15.6778,-0.0115,0.0605,134.0164,-0.1291,-5.3783,5.5492,-0.0008,-0.9697,1.114,0.0046,-1.1955
169284,-109.082,15.6778,-0.0115,0.0605,134.0164,-0.1291,-5.3783,5.5492,-0.0008,-0.9697,1.114,0.0046,-1.1955
169300,-109.082,15.6778,-0.0115,0.0605,134.0164,-0.1291,-5.3783,5.5492,-0.0008,-0.9697,1.114,0.0046,-1.1955
169316,-109.082,15.6778,-0.0115,0.0605,134.0164,-0.1291,-5.3783,5.5492,-0.0008,-0.9697,1.114,0.0046,-1.1955
169332,-109.082,15.6778,-0.0115,0.0605,134.0164,-0.1291,-5.3783,5.5492,-0.0008,-0.9697,1.114,0.0046,-1.1955
169348,-109.5523,16.1639,-0.0114,0.0439,134.0148,-0.0781,-5.4346,5.6155,-0.0005,-0.647,0.7621,0.0039,0.98
169364,-109.5523,16.1639,-0.0114,0.0439,134.0148,-0.0781,-5.4346,5.6155,-0.0005,-0.647,0.7621,0.0039,0.98
169380,-109.5523,16.1639,-0.0114,0.0439,134.0148,-0.0781,-5.4346,5.6155,-0.0005,-0.647,0.7621,0.0039,0.98
169396,-109.5523,16.1639,-0.0114,0.0439,134.0148,-0.0781,-5.4346,5.6155,-0.0005,-0.647,0.7621,0.0039,0.98
169412,-109.5523,16.1639,-0.0114,0.0439,134.0148,-0.0781,-5.4346,5.6155,-0.0005,-0.647,0.7621,0.0039,0.98
169429,-110.0321,16.6601,-0.0114,0.0329,134.0008,-0.047,-5.4902,5.678,-0.0002,-0.6335,0.7123,0.0028,-1.0869
169444,-110.0321,16.6601,-0.0114,0.0329,134.0008,-0.047,-5.4902,5.678,-0.0002,-0.6335,0.7123,0.0028,-1.0869
169460,-110.0321,16.6601,-0.0114,0.0329,134.0008,-0.047,-5.4902,5.678,-0.0002,-0.6335,0.7123,0.0028,-1.0869
169476,-110.0321,16.6601,-0.0114,0.0329,134.0008,-0.047,-5.4902,5.678,-0.0002,-0.6335,0.7123,0.0028,-1.0869
169492,-110.0321,16.6601,-0.0114,0.0329,134.0008,-0.047,-5.4902,5.678,-0.0002,-0.6335,0.7123,0.0028,-1.0869
169508,-110.0321,16.6601,-0.0114,0.0329,134.0008,-0.047,-5.4902,5.678,-0.0002,-0.6335,0.7123,0.0028,-1.0869
169524,-110.5322,17.1778,-0.0114,0.0275,134.0001,-0.028,-5.5677,5.7612,-0.0001,-0.8566,0.9206,0.0013,-0.8997
169540,-110.5322,17.1778,-0.0114,0.0275,134.0001,-0.028,-5.5677,5.7612,-0.0001,-0.8566,0.9206,0.0013,-0.8997
169556,-110.5322,17.1778,-0.0114,0.0275,134.0001,-0.028,-5.5677,5.7612,-0.0001,-0.8566,0.9206,0.0013,-0.8997
169572,-110.5322,17.1778,-0.0114,0.0275,134.0001,-0.028,-5.5677,5.7612,-0.0001,-0.8566,0.9206,0.0013,-0.8997
169588,-110.5322,17.1778,-0.0114,0.0275,134.0001,-0.028,-5.5677,5.7612,-0.0001,-0.8566,0.9206,0.0013,-0.8997
169604,-111.0337,17.6969,-0.0113,0.0224,134.0099,-0.0167,-5.6127,5.8093,-0.0,-0.5019,0.5359,0.0006,1.0771
169620,-111.0337,17.6969,-0.0113,0.0224,134.0099,-0.0167,-5.6127,5.8093,-0.0,-0.5019,0.5359,0.0006,1.0771
169636,-111.0337,17.6969,-0.0113,0.0224,134.0099,-0.0167,-5.6127,5.8093,-0.0,-0.5019,0.5359,0.0006,1.0771
169652,-111.0337,17.6969,-0.0113,0.0224,134.0099,-0.0167,-5.6127,5.8093,-0.0,-0.5019,0.5359,0.0006,1.0771
169668,-111.0337,17.6969,-0.0113,0.0224,134.0099,-0.0167,-5.6127,5.8093,-0.0,-0.5019,0.5359,0.0006,1.0771
169684,-111.0337,17.6969,-0.0113,0.0224,134.0099,-0.0167,-5.6127,5.8093,-0.0,-0.5019,0.5359,0.0006,1.0771
169702,-111.5282,18.2087,-0.0113,0.0194,133.9995,-0.0101,-5.6678,5.8671,0.0,-0.6285,0.6592,0.0003,-1.0236
169716,-111.5282,18.2087,-0.0113,0.0194,133.9995,-0.0101,-5.6678,5.8671,0.0,-0.6285,0.6592,0.0003,-1.0236
169732,-111.5282,18.2087,-0.0113,0.0194,133.9995,-0.0101,-5.6678,5.8671,0.0,-0.6285,0.6592,0.0003,-1.0236
169748,-111.5282,18.2087,-0.0113,0.0194,133.9995,-0.0101,-5.6678,5.8671,0.0,-0.6285,0.6592,0.0003,-1.0236
169764,-111.5282,18.2087,-0.0113,0.0194,133.9995,-0.0101,-5.6678,5.8671,0.0,-0.6285,0.6592,0.0003,-1.0236
169780,-111.5282,18.2087,-0.0113,0.0194,133.9995,-0.0101,-5.6678,5.8671,0.0,-0.6285,0.6592,0.0003,-1.0236
169796,-112.0468,18.7456,-0.0113,0.0191,133.9999,-0.006,-5.7412,5.9437,-0.0,-0.8088,0.8437,-0.0001,-0.8665
169812,-112.0468,18.7456,-0.0113,0.0191,133.9999,-0.006,-5.7412,5.9437,-0.0,-0.8088,0.8437,-0.0001,-0.8665
169828,-112.0468,18.7456,-0.0113,0.0191,133.9999,-0.006,-5.7412,5.9437,-0.0,-0.8088,0.8437,-0.0001,-0.8665
169844,-112.0468,18.7456,-0.0113,0.0191,133.9999,-0.006,-5.7412,5.9437,-0.0,-0.8088,0.8437,-0.0001,-0.8665
169860,-112.0468,18.7456,-0.0113,0.0191,133.9999,-0.006,-5.7412,5.9437,-0.0,-0.8088,0.8437,-0.0001,-0.8665
169877,-112.5587,19.2757,-0.0113,0.0174,134.0094,-0.0036,-5.7863,5.9906,0.0,-0.5071,0.528,0.0002,1.0237
169892,-112.5587,19.2757,-0.0113,0.0174,134.0094,-0.0036,-5.7863,5.9906,0.0,-0.5071,0.528,0.0002,1.0237
169908,-112.5587,19.2757,-0.0113,0.0174,134.0094,-0.0036,-5.7863,5.9906,0.0,-0.5071,0.528,0.0002,1.0237
169924,-112.5587,19.2757,-0.0113,0.0174,134.0094,-0.0036,-5.7863,5.9906,0.0,-0.5071,0.528,0.0002,1.0237
169940,-112.5587,19.2757,-0.0113,0.0174,134.0094,-0.0036,-5.7863,5.9906,0.0,-0.5071,0.528,0.0002,1.0237
169956,-112.5587,19.2757,-0.0113,0.0174,134.0094,-0.0036,-5.7863,5.9906,0.0,-0.5071,0.528,0.0002,1.0237
169972,-113.0734,19.8085,-0.0113,0.0159,133.9994,-0.0022,-5.8358,6.042,0.0,-0.5599,0.5807,-0.0001,-1.0098
169988,-113.0734,19.8085,-0.0113,0.0159,133.9994,-0.0022,-5.8358,6.042,0.0,-0.5599,0.5807,-0.0001,-1.0098
170004,-113.0734,19.8085,-0.0113,0.0159,133.9994,-0.0022,-5.8358,6.042,0.0,-0.5599,0.5807,-0.0001,-1.0098
170020,-113.0734,19.8085,-0.0113,0.0159,133.9994,-0.0022,-5.8358,6.042,0.0,-0.5599,0.5807,-0.0001,-1.0098
170036,-113.0734,19.8085,-0.0113,0.0159,133.9994,-0.0022,-5.8358,6.042,0.0,-0.5599,0.5807,-0.0001,-1.0098
