timestamp,x,y,z,pitch,yaw,roll,vx,vy,vz,ax,ay,az,yaw_rate
129106,-106.6867,-4.8475,-0.0805,0.0,-89.3578,0.0,-0.0,0.0,0.011,-0.0,0.0,7.9833,0.0
129122,-106.6867,-4.8475,-0.0805,0.0,-89.3578,0.0,-0.0,0.0,0.011,-0.0,0.0,7.9833,0.0
129138,-106.6867,-4.8475,-0.0805,0.0,-89.3578,0.0,-0.0,0.0,0.011,-0.0,0.0,7.9833,0.0
129154,-106.6867,-4.8475,-0.0805,0.0,-89.3578,0.0,-0.0,0.0,0.011,-0.0,0.0,7.9833,0.0
129170,-106.6867,-4.8475,-0.0805,0.0,-89.3578,0.0,-0.0,0.0,0.011,-0.0,0.0,7.9833,0.0
129186,-106.6867,-4.8475,-0.0805,0.0,-89.3578,0.0,-0.0,0.0,0.011,-0.0,0.0,7.9833,0.0
129202,-106.6867,-4.8475,-0.0805,0.0,-89.3578,0.0,-0.0,0.0,0.011,-0.0,0.0,7.9833,0.0
129218,-106.6867,-4.8475,-0.0805,0.0,-89.3578,0.0,-0.0,0.0,0.011,-0.0,0.0,7.9833,0.0
129234,-106.6867,-4.8475,-0.0805,0.0,-89.3578,0.0,-0.0,0.0,0.011,-0.0,0.0,7.9833,0.0
129250,-106.6867,-4.8475,-0.0805,0.0,-89.3578,0.0,-0.0,0.0,0.011,-0.0,0.0,7.9833,0.0
129266,-106.6867,-4.8475,-0.0805,0.0,-89.3578,0.0,-0.0,0.0,0.011,-0.0,0.0,7.9833,0.0
129282,-106.6867,-4.8475,-0.0805,0.0,-89.3578,0.0,-0.0,0.0,0.011,-0.0,0.0,7.9833,0.0
129298,-106.6867,-4.8465,-0.0624,-0.001,-89.3578,0.0,-0.0004,0.0315,0.2373,-0.0017,0.1543,1.1075,-0.0
129314,-106.6867,-4.8465,-0.0624,-0.001,-89.3578,0.0,-0.0004,0.0315,0.2373,-0.0017,0.1543,1.1075,-0.0
129330,-106.6867,-4.8465,-0.0624,-0.001,-89.3578,0.0,-0.0004,0.0315,0.2373,-0.0017,0.1543,1.1075,-0.0
129346,-106.6867,-4.8465,-0.0624,-0.001,-89.3578,0.0,-0.0004,0.0315,0.2373,-0.0017,0.1543,1.1075,-0.0
129362,-106.6867,-4.8465,-0.0624,-0.001,-89.3578,0.0,-0.0004,0.0315,0.2373,-0.0017,0.1543,1.1075,-0.0
129378,-106.6867,-4.8465,-0.0624,-0.001,-89.3578,0.0,-0.0004,0.0315,0.2373,-0.0017,0.1543,1.1075,-0.0
129394,-106.6867,-4.8465,-0.0624,-0.001,-89.3578,0.0,-0.0004,0.0315,0.2373,-0.0017,0.1543,1.1075,-0.0
129410,-106.6867,-4.8465,-0.0624,-0.001,-89.3578,0.0,-0.0004,0.0315,0.2373,-0.0017,0.1543,1.1075,-0.0
129426,-106.6867,-4.8465,-0.0624,-0.001,-89.3578,0.0,-0.0004,0.0315,0.2373,-0.0017,0.1543,1.1075,-0.0
129442,-106.6868,-4.8419,-0.0408,-0.0049,-89.3578,0.0,-0.001,0.087,0.1855,-0.0046,0.4093,-0.3827,0.0006
129458,-106.6868,-4.8419,-0.0408,-0.0049,-89.3578,0.0,-0.001,0.087,0.1855,-0.0046,0.4093,-0.3827,0.0006
129474,-106.6868,-4.8419,-0.0408,-0.0049,-89.3578,0.0,-0.001,0.087,0.1855,-0.0046,0.4093,-0.3827,0.0006
129490,-106.6868,-4.8419,-0.0408,-0.0049,-89.3578,0.0,-0.001,0.087,0.1855,-0.0046,0.4093,-0.3827,0.0006
129506,-106.6868,-4.8419,-0.0408,-0.0049,-89.3578,0.0,-0.001,0.087,0.1855,-0.0046,0.4093,-0.3827,0.0006
129522,-106.6871,-4.8095,-0.0272,-0.0274,-89.3578,0.0,-0.0064,0.5684,0.1143,-0.0584,5.2139,-0.7712,-0.0878
129538,-106.6871,-4.8095,-0.0272,-0.0274,-89.3578,0.0,-0.0064,0.5684,0.1143,-0.0584,5.2139,-0.7712,-0.0878
129554,-106.6871,-4.8095,-0.0272,-0.0274,-89.3578,0.0,-0.0064,0.5684,0.1143,-0.0584,5.2139,-0.7712,-0.0878
129570,-106.6871,-4.8095,-0.0272,-0.0274,-89.3578,0.0,-0.0064,0.5684,0.1143,-0.0584,5.2139,-0.7712,-0.0878
129586,-106.6871,-4.8095,-0.0272,-0.0274,-89.3578,0.0,-0.0064,0.5684,0.1143,-0.0584,5.2139,-0.7712,-0.0878
129602,-106.6871,-4.8095,-0.0272,-0.0274,-89.3578,0.0,-0.0064,0.5684,0.1143,-0.0584,5.2139,-0.7712,-0.0878
129618,-106.6871,-4.8095,-0.0272,-0.0274,-89.3578,0.0,-0.0064,0.5684,0.1143,-0.0584,5.2139,-0.7712,-0.0878
129634,-106.6882,-4.7297,-0.0189,-0.0487,-89.3434,0.0003,-0.0113,0.9898,0.0608,-0.0501,4.2836,-0.5434,0.6413
129650,-106.6882,-4.7297,-0.0189,-0.0487,-89.3434,0.0003,-0.0113,0.9898,0.0608,-0.0501,4.2836,-0.5434,0.6413
129666,-106.6882,-4.7297,-0.0189,-0.0487,-89.3434,0.0003,-0.0113,0.9898,0.0608,-0.0501,4.2836,-0.5434,0.6413
129682,-106.6882,-4.7297,-0.0189,-0.0487,-89.3434,0.0003,-0.0113,0.9898,0.0608,-0.0501,4.2836,-0.5434,0.6413
129698,-106.6882,-4.7297,-0.0189,-0.0487,-89.3434,0.0003,-0.0113,0.9898,0.0608,-0.0501,4.2836,-0.5434,0.6413
129715,-106.6894,-4.6314,-0.0145,-0.0455,-89.3772,0.0012,-0.0214,1.1201,0.0341,-0.1077,1.3939,-0.286,5.6565
129730,-106.6894,-4.6314,-0.0145,-0.0455,-89.3772,0.0012,-0.0214,1.1201,0.0341,-0.1077,1.3939,-0.286,5.6565
129746,-106.6894,-4.6314,-0.0145,-0.0455,-89.3772,0.0012,-0.0214,1.1201,0.0341,-0.1077,1.3939,-0.286,5.6565
129762,-106.6894,-4.6314,-0.0145,-0.0455,-89.3772,0.0012,-0.0214,1.1201,0.0341,-0.1077,1.3939,-0.286,5.6565
129778,-106.6894,-4.6314,-0.0145,-0.0455,-89.3772,0.0012,-0.0214,1.1201,0.0341,-0.1077,1.3939,-0.286,5.6565
129794,-106.6894,-4.6314,-0.0145,-0.0455,-89.3772,0.0012,-0.0214,1.1201,0.0341,-0.1077,1.3939,-0.286,5.6565
129810,-106.6894,-4.6314,-0.0145,-0.0455,-89.3772,0.0012,-0.0214,1.1201,0.0341,-0.1077,1.3939,-0.286,5.6565
129826,-106.6927,-4.5208,-0.0125,-0.0289,-89.3003,0.0023,-0.0267,1.1086,0.0135,-0.0541,-0.1157,-0.2067,5.4428
129842,-106.6927,-4.5208,-0.0125,-0.0289,-89.3003,0.0023,-0.0267,1.1086,0.0135,-0.0541,-0.1157,-0.2067,5.4428
129858,-106.6927,-4.5208,-0.0125,-0.0289,-89.3003,0.0023,-0.0267,1.1086,0.0135,-0.0541,-0.1157,-0.2067,5.4428
129874,-106.6927,-4.5208,-0.0125,-0.0289,-89.3003,0.0023,-0.0267,1.1086,0.0135,-0.0541,-0.1157,-0.2067,5.4428
129890,-106.6927,-4.5208,-0.0125,-0.0289,-89.3003,0.0023,-0.0267,1.1086,0.0135,-0.0541,-0.1157,-0.2067,5.4428
129906,-106.6927,-4.5208,-0.0125,-0.0289,-89.3003,0.0023,-0.0267,1.1086,0.0135,-0.0541,-0.1157,-0.2067,5.4428
129922,-106.6966,-4.4135,-0.0118,-0.0167,-89.2179,0.0026,-0.0321,1.1139,0.0059,-0.0557,0.0549,-0.0792,5.3517
129938,-106.6966,-4.4135,-0.0118,-0.0167,-89.2179,0.0026,-0.0321,1.1139,0.0059,-0.0557,0.0549,-0.0792,5.3517
129954,-106.6966,-4.4135,-0.0118,-0.0167,-89.2179,0.0026,-0.0321,1.1139,0.0059,-0.0557,0.0549,-0.0792,5.3517
129970,-106.6966,-4.4135,-0.0118,-0.0167,-89.2179,0.0026,-0.0321,1.1139,0.0059,-0.0557,0.0549,-0.0792,5.3517
129986,-106.6966,-4.4135,-0.0118,-0.0167,-89.2179,0.0026,-0.0321,1.1139,0.0059,-0.0557,0.0549,-0.0792,5.3517
130004,-106.6992,-4.2917,-0.0113,-0.0323,-89.192,-0.0006,-0.0299,1.6048,0.0028,0.0239,5.2966,-0.0335,4.0629
130018,-106.6992,-4.2917,-0.0113,-0.0323,-89.192,-0.0006,-0.0299,1.6048,0.0028,0.0239,5.2966,-0.0335,4.0629
130034,-106.6992,-4.2917,-0.0113,-0.0323,-89.192,-0.0006,-0.0299,1.6048,0.0028,0.0239,5.2966,-0.0335,4.0629
130050,-106.6992,-4.2917,-0.0113,-0.0323,-89.192,-0.0006,-0.0299,1.6048,0.0028,0.0239,5.2966,-0.0335,4.0629
130066,-106.6992,-4.2917,-0.0113,-0.0323,-89.192,-0.0006,-0.0299,1.6048,0.0028,0.0239,5.2966,-0.0335,4.0629
130082,-106.6992,-4.2917,-0.0113,-0.0323,-89.192,-0.0006,-0.0299,1.6048,0.0028,0.0239,5.2966,-0.0335,4.0629
130099,-106.7033,-4.1004,-0.0108,-0.0695,-89.108,-0.0002,-0.0381,2.2371,0.0014,-0.0882,6.7801,-0.0152,-0.3812
130114,-106.7033,-4.1004,-0.0108,-0.0695,-89.108,-0.0002,-0.0381,2.2371,0.0014,-0.0882,6.7801,-0.0152,-0.3812
130130,-106.7033,-4.1004,-0.0108,-0.0695,-89.108,-0.0002,-0.0381,2.2371,0.0014,-0.0882,6.7801,-0.0152,-0.3812
130146,-106.7033,-4.1004,-0.0108,-0.0695,-89.108,-0.0002,-0.0381,2.2371,0.0014,-0.0882,6.7801,-0.0152,-0.3812
130162,-106.7033,-4.1004,-0.0108,-0.0695,-89.108,-0.0002,-0.0381,2.2371,0.0014,-0.0882,6.7801,-0.0152,-0.3812
130178,-106.7033,-4.1004,-0.0108,-0.0695,-89.108,-0.0002,-0.0381,2.2371,0.0014,-0.0882,6.7801,-0.0152,-0.3812
130194,-106.7033,-4.1004,-0.0108,-0.0695,-89.108,-0.0002,-0.0381,2.2371,0.0014,-0.0882,6.7801,-0.0152,-0.3812
130210,-106.7091,-3.8269,-0.0106,-0.0879,-88.9799,0.0007,-0.0494,2.8495,0.0006,-0.1125,6.1417,-0.0072,1.9379
130226,-106.7091,-3.8269,-0.0106,-0.0879,-88.9799,0.0007,-0.0494,2.8495,0.0006,-0.1125,6.1417,-0.0072,1.9379
130242,-106.7091,-3.8269,-0.0106,-0.0879,-88.9799,0.0007,-0.0494,2.8495,0.0006,-0.1125,6.1417,-0.0072,1.9379
130258,-106.7091,-3.8269,-0.0106,-0.0879,-88.9799,0.0007,-0.0494,2.8495,0.0006,-0.1125,6.1417,-0.0072,1.9379
130274,-106.7091,-3.8269,-0.0106,-0.0879,-88.9799,0.0007,-0.0494,2.8495,0.0006,-0.1125,6.1417,-0.0072,1.9379
130290,-106.7091,-3.8269,-0.0106,-0.0879,-88.9799,0.0007,-0.0494,2.8495,0.0006,-0.1125,6.1417,-0.0072,1.9379
130306,-106.7144,-3.5092,-0.0106,-0.0877,-89.0065,-0.0002,-0.0568,3.3496,0.0003,-0.076,5.1252,-0.0034,0.6003
130322,-106.7144,-3.5092,-0.0106,-0.0877,-89.0065,-0.0002,-0.0568,3.3496,0.0003,-0.076,5.1252,-0.0034,0.6003
130338,-106.7144,-3.5092,-0.0106,-0.0877,-89.0065,-0.0002,-0.0568,3.3496,0.0003,-0.076,5.1252,-0.0034,0.6003
130354,-106.7144,-3.5092,-0.0106,-0.0877,-89.0065,-0.0002,-0.0568,3.3496,0.0003,-0.076,5.1252,-0.0034,0.6003
130370,-106.7144,-3.5092,-0.0106,-0.0877,-89.0065,-0.0002,-0.0568,3.3496,0.0003,-0.076,5.1252,-0.0034,0.6003
130386,-106.7213,-3.1531,-0.0105,-0.0976,-88.9268,0.0007,-0.0763,4.2071,0.0002,-0.2106,9.2579,-0.0017,1.3667
130402,-106.7213,-3.1531,-0.0105,-0.0976,-88.9268,0.0007,-0.0763,4.2071,0.0002,-0.2106,9.2579,-0.0017,1.3667
130418,-106.7213,-3.1531,-0.0105,-0.0976,-88.9268,0.0007,-0.0763,4.2071,0.0002,-0.2106,9.2579,-0.0017,1.3667
130434,-106.7213,-3.1531,-0.0105,-0.0976,-88.9268,0.0007,-0.0763,4.2071,0.0002,-0.2106,9.2579,-0.0017,1.3667
130450,-106.7213,-3.1531,-0.0105,-0.0976,-88.9268,0.0007,-0.0763,4.2071,0.0002,-0.2106,9.2579,-0.0017,1.3667
130466,-106.7213,-3.1531,-0.0105,-0.0976,-88.9268,0.0007,-0.0763,4.2071,0.0002,-0.2106,9.2579,-0.0017,1.3667
130482,-106.7291,-2.7192,-0.0103,-0.1132,-88.9408,0.0003,-0.0906,5.008,0.0001,-0.1528,8.5747,-0.0009,0.7841
130498,-106.7291,-2.7192,-0.0103,-0.1132,-88.9408,0.0003,-0.0906,5.008,0.0001,-0.1528,8.5747,-0.0009,0.7841
130514,-106.7291,-2.7192,-0.0103,-0.1132,-88.9408,0.0003,-0.0906,5.008,0.0001,-0.1528,8.5747,-0.0009,0.7841
130530,-106.7291,-2.7192,-0.0103,-0.1132,-88.9408,0.0003,-0.0906,5.008,0.0001,-0.1528,8.5747,-0.0009,0.7841
130546,-106.7291,-2.7192,-0.0103,-0.1132,-88.9408,0.0003,-0.0906,5.008,0.0001,-0.1528,8.5747,-0.0009,0.7841
130562,-106.7291,-2.7192,-0.0103,-0.1132,-88.9408,0.0003,-0.0906,5.008,0.0001,-0.1528,8.5747,-0.0009,0.7841
130580,-106.7379,-2.2176,-0.0104,-0.1069,-88.9799,-0.0001,-0.0994,5.4945,0.0,-0.0925,5.074,-0.0005,-2.0652
130594,-106.7379,-2.2176,-0.0104,-0.1069,-88.9799,-0.0001,-0.0994,5.4945,0.0,-0.0925,5.074,-0.0005,-2.0652
130610,-106.7379,-2.2176,-0.0104,-0.1069,-88.9799,-0.0001,-0.0994,5.4945,0.0,-0.0925,5.074,-0.0005,-2.0652
130626,-106.7379,-2.2176,-0.0104,-0.1069,-88.9799,-0.0001,-0.0994,5.4945,0.0,-0.0925,5.074,-0.0005,-2.0652
130642,-106.7379,-2.2176,-0.0104,-0.1069,-88.9799,-0.0001,-0.0994,5.4945,0.0,-0.0925,5.074,-0.0005,-2.0652
130658,-106.7379,-2.2176,-0.0104,-0.1069,-88.9799,-0.0001,-0.0994,5.4945,0.0,-0.0925,5.074,-0.0005,-2.0652
130675,-106.7483,-1.6535,-0.0105,-0.0963,-88.944,0.0002,-0.1087,5.9889,0.0,-0.0939,5.0071,-0.0002,1.98
130690,-106.7483,-1.6535,-0.0105,-0.0963,-88.944,0.0002,-0.1087,5.9889,0.0,-0.0939,5.0071,-0.0002,1.98
130706,-106.7483,-1.6535,-0.0105,-0.0963,-88.944,0.0002,-0.1087,5.9889,0.0,-0.0939,5.0071,-0.0002,1.98
130722,-106.7483,-1.6535,-0.0105,-0.0963,-88.944,0.0002,-0.1087,5.9889,0.0,-0.0939,5.0071,-0.0002,1.98
130738,-106.7483,-1.6535,-0.0105,-0.0963,-88.944,0.0002,-0.1087,5.9889,0.0,-0.0939,5.0071,-0.0002,1.98
130754,-106.7483,-1.6535,-0.0105,-0.0963,-88.944,0.0002,-0.1087,5.9889,0.0,-0.0939,5.0071,-0.0002,1.98
130770,-106.7592,-1.072,-0.0104,-0.0987,-88.927,0.0006,-0.1237,6.613,0.0,-0.1618,6.7445,-0.0001,-1.0248
130786,-106.7592,-1.072,-0.0104,-0.0987,-88.927,0.0006,-0.1237,6.613,0.0,-0.1618,6.7445,-0.0001,-1.0248
130802,-106.7592,-1.072,-0.0104,-0.0987,-88.927,0.0006,-0.1237,6.613,0.0,-0.1618,6.7445,-0.0001,-1.0248
130818,-106.7592,-1.072,-0.0104,-0.0987,-88.927,0.0006,-0.1237,6.613,0.0,-0.1618,6.7445,-0.0001,-1.0248
130834,-106.7592,-1.072,-0.0104,-0.0987,-88.927,0.0006,-0.1237,6.613,0.0,-0.1618,6.7445,-0.0001,-1.0248
130850,-106.7592,-1.072,-0.0104,-0.0987,-88.927,0.0006,-0.1237,6.613,0.0,-0.1618,6.7445,-0.0001,-1.0248
130868,-106.7714,-0.4271,-0.0104,-0.1064,-88.9164,0.0006,-0.1366,7.2764,-0.0,-0.1398,7.1483,-0.0001,0.8791
130882,-106.7714,-0.4271,-0.0104,-0.1064,-88.9164,0.0006,-0.1366,7.2764,-0.0,-0.1398,7.1483,-0.0001,0.8791
130898,-106.7714,-0.4271,-0.0104,-0.1064,-88.9164,0.0006,-0.1366,7.2764,-0.0,-0.1398,7.1483,-0.0001,0.8791
130914,-106.7714,-0.4271,-0.0104,-0.1064,-88.9164,0.0006,-0.1366,7.2764,-0.0,-0.1398,7.1483,-0.0001,0.8791
130930,-106.7714,-0.4271,-0.0104,-0.1064,-88.9164,0.0006,-0.1366,7.2764,-0.0,-0.1398,7.1483,-0.0001,0.8791
130946,-106.7714,-0.4271,-0.0104,-0.1064,-88.9164,0.0006,-0.1366,7.2764,-0.0,-0.1398,7.1483,-0.0001,0.8791
130964,-106.7855,0.3214,-0.0104,-0.1057,-88.9197,0.0005,-0.1488,7.869,-0.0,-0.1236,5.9991,-0.0,-0.9359
130978,-106.7855,0.3214,-0.0104,-0.1057,-88.9197,0.0005,-0.1488,7.869,-0.0,-0.1236,5.9991,-0.0,-0.9359
130994,-106.7855,0.3214,-0.0104,-0.1057,-88.9197,0.0005,-0.1488,7.869,-0.0,-0.1236,5.9991,-0.0,-0.9359
131010,-106.7855,0.3214,-0.0104,-0.1057,-88.9197,0.0005,-0.1488,7.869,-0.0,-0.1236,5.9991,-0.0,-0.9359
131026,-106.7855,0.3214,-0.0104,-0.1057,-88.9197,0.0005,-0.1488,7.869,-0.0,-0.1236,5.9991,-0.0,-0.9359
131042,-106.7855,0.3214,-0.0104,-0.1057,-88.9197,0.0005,-0.1488,7.869,-0.0,-0.1236,5.9991,-0.0,-0.9359
131060,-106.8007,1.1269,-0.0104,-0.1028,-88.9158,0.0003,-0.1595,8.4538,-0.0,-0.108,5.9284,-0.0001,0.691
131074,-106.8007,1.1269,-0.0104,-0.1028,-88.9158,0.0003,-0.1595,8.4538,-0.0,-0.108,5.9284,-0.0001,0.691
131090,-106.8007,1.1269,-0.0104,-0.1028,-88.9158,0.0003,-0.1595,8.4538,-0.0,-0.108,5.9284,-0.0001,0.691
131106,-106.8007,1.1269,-0.0104,-0.1028,-88.9158,0.0003,-0.1595,8.4538,-0.0,-0.108,5.9284,-0.0001,0.691
131122,-106.8007,1.1269,-0.0104,-0.1028,-88.9158,0.0003,-0.1595,8.4538,-0.0,-0.108,5.9284,-0.0001,0.691
131138,-106.8007,1.1269,-0.0104,-0.1028,-88.9158,0.0003,-0.1595,8.4538,-0.0,-0.108,5.9284,-0.0001,0.691
131156,-106.8163,1.9539,-0.0104,-0.1038,-88.9175,0.0002,-0.1713,9.0672,0.0,-0.1254,6.5035,0.0002,-0.0129
131170,-106.8163,1.9539,-0.0104,-0.1038,-88.9175,0.0002,-0.1713,9.0672,0.0,-0.1254,6.5035,0.0002,-0.0129
131186,-106.8163,1.9539,-0.0104,-0.1038,-88.9175,0.0002,-0.1713,9.0672,0.0,-0.1254,6.5035,0.0002,-0.0129
131202,-106.8163,1.9539,-0.0104,-0.1038,-88.9175,0.0002,-0.1713,9.0672,0.0,-0.1254,6.5035,0.0002,-0.0129
131218,-106.8163,1.9539,-0.0104,-0.1038,-88.9175,0.0002,-0.1713,9.0672,0.0,-0.1254,6.5035,0.0002,-0.0129
131234,-106.8163,1.9539,-0.0104,-0.1038,-88.9175,0.0002,-0.1713,9.0672,0.0,-0.1254,6.5035,0.0002,-0.0129
131251,-106.8334,2.8582,-0.0104,-0.102,-88.9175,0.0001,-0.1816,9.6105,-0.0,-0.1064,5.627,-0.0001,-0.0
131266,-106.8334,2.8582,-0.0104,-0.102,-88.9175,0.0001,-0.1816,9.6105,-0.0,-0.1064,5.627,-0.0001,-0.0
131282,-106.8334,2.8582,-0.0104,-0.102,-88.9175,0.0001,-0.1816,9.6105,-0.0,-0.1064,5.627,-0.0001,-0.0
131298,-106.8334,2.8582,-0.0104,-0.102,-88.9175,0.0001,-0.1816,9.6105,-0.0,-0.1064,5.627,-0.0001,-0.0
131314,-106.8334,2.8582,-0.0104,-0.102,-88.9175,0.0001,-0.1816,9.6105,-0.0,-0.1064,5.627,-0.0001,-0.0
131330,-106.8334,2.8582,-0.0104,-0.102,-88.9175,0.0001,-0.1816,9.6105,-0.0,-0.1064,5.627,-0.0001,-0.0
131346,-106.8518,3.8303,-0.0105,-0.0927,-88.9175,0.0001,-0.1901,10.0625,0.0,-0.0865,4.5798,0.0,-0.0
131362,-106.8518,3.8303,-0.0105,-0.0927,-88.9175,0.0001,-0.1901,10.0625,0.0,-0.0865,4.5798,0.0,-0.0
131378,-106.8518,3.8303,-0.0105,-0.0927,-88.9175,0.0001,-0.1901,10.0625,0.0,-0.0865,4.5798,0.0,-0.0
131394,-106.8518,3.8303,-0.0105,-0.0927,-88.9175,0.0001,-0.1901,10.0625,0.0,-0.0865,4.5798,0.0,-0.0
131410,-106.8518,3.8303,-0.0105,-0.0927,-88.9175,0.0001,-0.1901,10.0625,0.0,-0.0865,4.5798,0.0,-0.0
131426,-106.8518,3.8303,-0.0105,-0.0927,-88.9175,0.0001,-0.1901,10.0625,0.0,-0.0865,4.5798,0.0,-0.0
131442,-106.8518,3.8303,-0.0105,-0.0927,-88.9175,0.0001,-0.1901,10.0625,0.0,-0.0865,4.5798,0.0,-0.0
131458,-106.8709,4.8416,-0.0105,-0.0855,-88.9175,0.0001,-0.1986,10.5118,0.0,-0.0864,4.5747,0.0,-0.0
131474,-106.8709,4.8416,-0.0105,-0.0855,-88.9175,0.0001,-0.1986,10.5118,0.0,-0.0864,4.5747,0.0,-0.0
131490,-106.8709,4.8416,-0.0105,-0.0855,-88.9175,0.0001,-0.1986,10.5118,0.0,-0.0864,4.5747,0.0,-0.0
131506,-106.8709,4.8416,-0.0105,-0.0855,-88.9175,0.0001,-0.1986,10.5118,0.0,-0.0864,4.5747,0.0,-0.0
131522,-106.8709,4.8416,-0.0105,-0.0855,-88.9175,0.0001,-0.1986,10.5118,0.0,-0.0864,4.5747,0.0,-0.0
131538,-106.8709,4.8416,-0.0105,-0.0855,-88.9175,0.0001,-0.1986,10.5118,0.0,-0.0864,4.5747,0.0,-0.0
131554,-106.8908,5.8929,-0.0106,-0.0808,-88.9175,0.0,-0.2068,10.9442,-0.0,-0.0835,4.4191,-0.0002,0.0
131570,-106.8908,5.8929,-0.0106,-0.0808,-88.9175,0.0,-0.2068,10.9442,-0.0,-0.0835,4.4191,-0.0002,0.0
131586,-106.8908,5.8929,-0.0106,-0.0808,-88.9175,0.0,-0.2068,10.9442,-0.0,-0.0835,4.4191,-0.0002,0.0
131602,-106.8908,5.8929,-0.0106,-0.0808,-88.9175,0.0,-0.2068,10.9442,-0.0,-0.0835,4.4191,-0.0002,0.0
131618,-106.8908,5.8929,-0.0106,-0.0808,-88.9175,0.0,-0.2068,10.9442,-0.0,-0.0835,4.4191,-0.0002,0.0
131634,-106.8908,5.8929,-0.0106,-0.0808,-88.9175,0.0,-0.2068,10.9442,-0.0,-0.0835,4.4191,-0.0002,0.0
131651,-106.9118,7.0088,-0.0106,-0.0755,-88.9175,0.0,-0.2143,11.3419,-0.0,-0.0751,3.9752,0.0001,-0.0
131666,-106.9118,7.0088,-0.0106,-0.0755,-88.9175,0.0,-0.2143,11.3419,-0.0,-0.0751,3.9752,0.0001,-0.0
131682,-106.9118,7.0088,-0.0106,-0.0755,-88.9175,0.0,-0.2143,11.3419,-0.0,-0.0751,3.9752,0.0001,-0.0
131698,-106.9118,7.0088,-0.0106,-0.0755,-88.9175,0.0,-0.2143,11.3419,-0.0,-0.0751,3.9752,0.0001,-0.0
131714,-106.9118,7.0088,-0.0106,-0.0755,-88.9175,0.0,-0.2143,11.3419,-0.0,-0.0751,3.9752,0.0001,-0.0
131730,-106.9118,7.0088,-0.0106,-0.0755,-88.9175,0.0,-0.2143,11.3419,-0.0,-0.0751,3.9752,0.0001,-0.0
131747,-106.9329,8.1243,-0.0106,-0.071,-88.9175,0.0,-0.2213,11.7131,0.0,-0.0726,3.8401,0.0002,-0.0
131762,-106.9329,8.1243,-0.0106,-0.071,-88.9175,0.0,-0.2213,11.7131,0.0,-0.0726,3.8401,0.0002,-0.0
131778,-106.9329,8.1243,-0.0106,-0.071,-88.9175,0.0,-0.2213,11.7131,0.0,-0.0726,3.8401,0.0002,-0.0
131794,-106.9329,8.1243,-0.0106,-0.071,-88.9175,0.0,-0.2213,11.7131,0.0,-0.0726,3.8401,0.0002,-0.0
131810,-106.9329,8.1243,-0.0106,-0.071,-88.9175,0.0,-0.2213,11.7131,0.0,-0.0726,3.8401,0.0002,-0.0
131826,-106.9329,8.1243,-0.0106,-0.071,-88.9175,0.0,-0.2213,11.7131,0.0,-0.0726,3.8401,0.0002,-0.0
131844,-106.9549,9.2866,-0.0107,-0.0671,-88.9175,0.0,-0.228,12.0661,-0.0,-0.0683,3.6161,-0.0001,0.0
131858,-106.9549,9.2866,-0.0107,-0.0671,-88.9175,0.0,-0.228,12.0661,-0.0,-0.0683,3.6161,-0.0001,0.0
131874,-106.9549,9.2866,-0.0107,-0.0671,-88.9175,0.0,-0.228,12.0661,-0.0,-0.0683,3.6161,-0.0001,0.0
131890,-106.9549,9.2866,-0.0107,-0.0671,-88.9175,0.0,-0.228,12.0661,-0.0,-0.0683,3.6161,-0.0001,0.0
131906,-106.9549,9.2866,-0.0107,-0.0671,-88.9175,0.0,-0.228,12.0661,-0.0,-0.0683,3.6161,-0.0001,0.0
131922,-106.9549,9.2866,-0.0107,-0.0671,-88.9175,0.0,-0.228,12.0661,-0.0,-0.0683,3.6161,-0.0001,0.0
131940,-106.9773,10.4727,-0.0107,-0.063,-88.9175,0.0,-0.2341,12.3887,0.0,-0.0629,3.3302,0.0,0.0001
131954,-106.9773,10.4727,-0.0107,-0.063,-88.9175,0.0,-0.2341,12.3887,0.0,-0.0629,3.3302,0.0,0.0001
131970,-106.9773,10.4727,-0.0107,-0.063,-88.9175,0.0,-0.2341,12.3887,0.0,-0.0629,3.3302,0.0,0.0001
131986,-106.9773,10.4727,-0.0107,-0.063,-88.9175,0.0,-0.2341,12.3887,0.0,-0.0629,3.3302,0.0,0.0001
132002,-106.9773,10.4727,-0.0107,-0.063,-88.9175,0.0,-0.2341,12.3887,0.0,-0.0629,3.3302,0.0,0.0001
132018,-106.9773,10.4727,-0.0107,-0.063,-88.9175,0.0,-0.2341,12.3887,0.0,-0.0629,3.3302,0.0,0.0001
132034,-106.9773,10.4727,-0.0107,-0.063,-88.9175,0.0,-0.2341,12.3887,0.0,-0.0629,3.3302,0.0,0.0001
132050,-107.001,11.7284,-0.0107,-0.0585,-88.9175,0.0,-0.2398,12.6901,0.0,-0.0548,2.9018,0.0001,0.0002
132066,-107.001,11.7284,-0.0107,-0.0585,-88.9175,0.0,-0.2398,12.6901,0.0,-0.0548,2.9018,0.0001,0.0002
132082,-107.001,11.7284,-0.0107,-0.0585,-88.9175,0.0,-0.2398,12.6901,0.0,-0.0548,2.9018,0.0001,0.0002
132114,-107.001,11.7284,-0.0107,-0.0585,-88.9175,0.0,-0.2398,12.6901,0.0,-0.0548,2.9018,0.0001,0.0002
132133,-107.001,11.7284,-0.0107,-0.0585,-88.9175,0.0,-0.2398,12.6901,0.0,-0.0548,2.9018,0.0001,0.0002
132146,-107.053,12.9699,-0.0108,-0.043,-90.2584,0.1207,-1.0561,12.7188,0.001,-8.3767,0.2938,0.0102,-30.0099
132162,-107.053,12.9699,-0.0108,-0.043,-90.2584,0.1207,-1.0561,12.7188,0.001,-8.3767,0.2938,0.0102,-30.0099
132178,-107.053,12.9699,-0.0108,-0.043,-90.2584,0.1207,-1.0561,12.7188,0.001,-8.3767,0.2938,0.0102,-30.0099
132194,-107.053,12.9699,-0.0108,-0.043,-90.2584,0.1207,-1.0561,12.7188,0.001,-8.3767,0.2938,0.0102,-30.0099
132210,-107.053,12.9699,-0.0108,-0.043,-90.2584,0.1207,-1.0561,12.7188,0.001,-8.3767,0.2938,0.0102,-30.0099
132226,-107.053,12.9699,-0.0108,-0.043,-90.2584,0.1207,-1.0561,12.7188,0.001,-8.3767,0.2938,0.0102,-30.0099
132244,-107.17,14.2044,-0.0109,-0.0065,-95.764,0.2578,-1.9952,12.4642,0.0011,-9.5625,-2.5921,0.0012,-79.4447
132258,-107.17,14.2044,-0.0109,-0.0065,-95.764,0.2578,-1.9952,12.4642,0.0011,-9.5625,-2.5921,0.0012,-79.4447
132274,-107.17,14.2044,-0.0109,-0.0065,-95.764,0.2578,-1.9952,12.4642,0.0011,-9.5625,-2.5921,0.0012,-79.4447
132290,-107.17,14.2044,-0.0109,-0.0065,-95.764,0.2578,-1.9952,12.4642,0.0011,-9.5625,-2.5921,0.0012,-79.4447
132306,-107.17,14.2044,-0.0109,-0.0065,-95.764,0.2578,-1.9952,12.4642,0.0011,-9.5625,-2.5921,0.0012,-79.4447
132322,-107.17,14.2044,-0.0109,-0.0065,-95.764,0.2578,-1.9952,12.4642,0.0011,-9.5625,-2.5921,0.0012,-79.4447
132338,-107.317,15.4009,-0.0111,0.0225,-106.6372,0.2546,-2.4324,12.1945,-0.0,-4.4413,-2.7401,-0.0118,-136.7378
132354,-107.317,15.4009,-0.0111,0.0225,-106.6372,0.2546,-2.4324,12.1945,-0.0,-4.4413,-2.7401,-0.0118,-136.7378
132370,-107.317,15.4009,-0.0111,0.0225,-106.6372,0.2546,-2.4324,12.1945,-0.0,-4.4413,-2.7401,-0.0118,-136.7378
132386,-107.317,15.4009,-0.0111,0.0225,-106.6372,0.2546,-2.4324,12.1945,-0.0,-4.4413,-2.7401,-0.0118,-136.7378
132402,-107.317,15.4009,-0.0111,0.0225,-106.6372,0.2546,-2.4324,12.1945,-0.0,-4.4413,-2.7401,-0.0118,-136.7378
132418,-107.317,15.4009,-0.0111,0.0225,-106.6372,0.2546,-2.4324,12.1945,-0.0,-4.4413,-2.7401,-0.0118,-136.7378
132436,-107.431,16.5337,-0.0111,0.0066,-122.9494,0.1069,-1.9851,12.1101,-0.0012,4.5853,-0.865,-0.0119,-189.3596
132450,-107.431,16.5337,-0.0111,0.0066,-122.9494,0.1069,-1.9851,12.1101,-0.0012,4.5853,-0.865,-0.0119,-189.3596
132466,-107.431,16.5337,-0.0111,0.0066,-122.9494,0.1069,-1.9851,12.1101,-0.0012,4.5853,-0.865,-0.0119,-189.3596
132482,-107.431,16.5337,-0.0111,0.0066,-122.9494,0.1069,-1.9851,12.1101,-0.0012,4.5853,-0.865,-0.0119,-189.3596
132498,-107.431,16.5337,-0.0111,0.0066,-122.9494,0.1069,-1.9851,12.1101,-0.0012,4.5853,-0.865,-0.0119,-189.3596
132514,-107.431,16.5337,-0.0111,0.0066,-122.9494,0.1069,-1.9851,12.1101,-0.0012,4.5853,-0.865,-0.0119,-189.3596
132532,-107.4259,17.6157,-0.0104,-0.0912,-142.8221,-0.1648,-0.1566,12.0501,0.0009,18.7451,-0.6146,0.0216,-212.2958
132546,-107.4259,17.6157,-0.0104,-0.0912,-142.8221,-0.1648,-0.1566,12.0501,0.0009,18.7451,-0.6146,0.0216,-212.2958
132562,-107.4259,17.6157,-0.0104,-0.0912,-142.8221,-0.1648,-0.1566,12.0501,0.0009,18.7451,-0.6146,0.0216,-212.2958
132578,-107.4259,17.6157,-0.0104,-0.0912,-142.8221,-0.1648,-0.1566,12.0501,0.0009,18.7451,-0.6146,0.0216,-212.2958
132594,-107.4259,17.6157,-0.0104,-0.0912,-142.8221,-0.1648,-0.1566,12.0501,0.0009,18.7451,-0.6146,0.0216,-212.2958
132610,-107.4259,17.6157,-0.0104,-0.0912,-142.8221,-0.1648,-0.1566,12.0501,0.0009,18.7451,-0.6146,0.0216,-212.2958
132628,-107.2581,18.5824,-0.0094,-0.203,-163.3111,-0.4049,2.0591,11.3547,0.0021,23.5918,-7.4048,0.0129,-222.2592
132642,-107.2581,18.5824,-0.0094,-0.203,-163.3111,-0.4049,2.0591,11.3547,0.0021,23.5918,-7.4048,0.0129,-222.2592
132658,-107.2581,18.5824,-0.0094,-0.203,-163.3111,-0.4049,2.0591,11.3547,0.0021,23.5918,-7.4048,0.0129,-222.2592
132674,-107.2581,18.5824,-0.0094,-0.203,-163.3111,-0.4049,2.0591,11.3547,0.0021,23.5918,-7.4048,0.0129,-222.2592
132690,-107.2581,18.5824,-0.0094,-0.203,-163.3111,-0.4049,2.0591,11.3547,0.0021,23.5918,-7.4048,0.0129,-222.2592
132724,-106.9417,19.4209,-0.0086,-0.286,175.3738,-0.5765,4.0796,9.8984,0.0016,21.5552,-15.5358,-0.0056,-232.2347
132738,-106.9417,19.4209,-0.0086,-0.286,175.3738,-0.5765,4.0796,9.8984,0.0016,21.5552,-15.5358,-0.0056,-232.2347
132754,-106.9417,19.4209,-0.0086,-0.286,175.3738,-0.5765,4.0796,9.8984,0.0016,21.5552,-15.5358,-0.0056,-232.2347
132770,-106.9417,19.4209,-0.0086,-0.286,175.3738,-0.5765,4.0796,9.8984,0.0016,21.5552,-15.5358,-0.0056,-232.2347
132786,-106.9417,19.4209,-0.0086,-0.286,175.3738,-0.5765,4.0796,9.8984,0.0016,21.5552,-15.5358,-0.0056,-232.2347
132802,-106.9417,19.4209,-0.0086,-0.286,175.3738,-0.5765,4.0796,9.8984,0.0016,21.5552,-15.5358,-0.0056,-232.2347
132818,-106.5686,20.057,-0.0083,-0.3121,154.2591,-0.7444,4.7468,7.6537,0.0017,7.3878,-24.8575,0.0011,-232.734
132834,-106.5686,20.057,-0.0083,-0.3121,154.2591,-0.7444,4.7468,7.6537,0.0017,7.3878,-24.8575,0.0011,-232.734
132850,-106.5686,20.057,-0.0083,-0.3121,154.2591,-0.7444,4.7468,7.6537,0.0017,7.3878,-24.8575,0.0011,-232.734
132866,-106.5686,20.057,-0.0083,-0.3121,154.2591,-0.7444,4.7468,7.6537,0.0017,7.3878,-24.8575,0.0011,-232.734
132882,-106.5686,20.057,-0.0083,-0.3121,154.2591,-0.7444,4.7468,7.6537,0.0017,7.3878,-24.8575,0.0011,-232.734
132900,-106.2957,20.5384,-0.0089,-0.2272,135.561,-0.8705,3.2098,6.4754,0.004,-17.7082,-13.5754,0.0263,-195.7669
132914,-106.2957,20.5384,-0.0089,-0.2272,135.561,-0.8705,3.2098,6.4754,0.004,-17.7082,-13.5754,0.0263,-195.7669
132930,-106.2957,20.5384,-0.0089,-0.2272,135.561,-0.8705,3.2098,6.4754,0.004,-17.7082,-13.5754,0.0263,-195.7669
132946,-106.2957,20.5384,-0.0089,-0.2272,135.561,-0.8705,3.2098,6.4754,0.004,-17.7082,-13.5754,0.0263,-195.7669
132962,-106.2957,20.5384,-0.0089,-0.2272,135.561,-0.8705,3.2098,6.4754,0.004,-17.7082,-13.5754,0.0263,-195.7669
132978,-106.2957,20.5384,-0.0089,-0.2272,135.561,-0.8705,3.2098,6.4754,0.004,-17.7082,-13.5754,0.0263,-195.7669
132996,-106.2064,21.0867,-0.0101,-0.0461,119.5506,-0.8914,0.9597,6.847,0.0003,-23.8081,3.9312,-0.0391,-142.9938
133010,-106.2064,21.0867,-0.0101,-0.0461,119.5506,-0.8914,0.9597,6.847,0.0003,-23.8081,3.9312,-0.0391,-142.9938
133026,-106.2064,21.0867,-0.0101,-0.0461,119.5506,-0.8914,0.9597,6.847,0.0003,-23.8081,3.9312,-0.0391,-142.9938
133042,-106.2064,21.0867,-0.0101,-0.0461,119.5506,-0.8914,0.9597,6.847,0.0003,-23.8081,3.9312,-0.0391,-142.9938
133058,-106.2064,21.0867,-0.0101,-0.0461,119.5506,-0.8914,0.9597,6.847,0.0003,-23.8081,3.9312,-0.0391,-142.9938
133074,-106.2608,21.7331,-0.0112,0.1016,109.2963,-0.7312,-0.1814,7.9442,-0.0014,-12.5878,12.1048,-0.0188,-96.5947
133090,-106.2608,21.7331,-0.0112,0.1016,109.2963,-0.7312,-0.1814,7.9442,-0.0014,-12.5878,12.1048,-0.0188,-96.5947
133106,-106.2608,21.7331,-0.0112,0.1016,109.2963,-0.7312,-0.1814,7.9442,-0.0014,-12.5878,12.1048,-0.0188,-96.5947
133122,-106.2608,21.7331,-0.0112,0.1016,109.2963,-0.7312,-0.1814,7.9442,-0.0014,-12.5878,12.1048,-0.0188,-96.5947
133138,-106.2608,21.7331,-0.0112,0.1016,109.2963,-0.7312,-0.1814,7.9442,-0.0014,-12.5878,12.1048,-0.0188,-96.5947
133154,-106.2608,21.7331,-0.0112,0.1016,109.2963,-0.7312,-0.1814,7.9442,-0.0014,-12.5878,12.1048,-0.0188,-96.5947
133170,-106.3128,22.5133,-0.0118,0.1516,100.512,-0.3331,0.4342,8.7062,-0.0031,6.5049,8.0521,-0.018,-92.0003
133186,-106.3128,22.5133,-0.0118,0.1516,100.512,-0.3331,0.4342,8.7062,-0.0031,6.5049,8.0521,-0.018,-92.0003
133202,-106.3128,22.5133,-0.0118,0.1516,100.512,-0.3331,0.4342,8.7062,-0.0031,6.5049,8.0521,-0.018,-92.0003
133234,-106.3128,22.5133,-0.0118,0.1516,100.512,-0.3331,0.4342,8.7062,-0.0031,6.5049,8.0521,-0.018,-92.0003
133250,-106.3128,22.5133,-0.0118,0.1516,100.512,-0.3331,0.4342,8.7062,-0.0031,6.5049,8.0521,-0.018,-92.0003
133266,-106.3207,23.3604,-0.0121,0.1503,93.6917,-0.1683,0.1738,9.2363,-0.0019,-2.7573,5.6122,0.0132,-46.972
133282,-106.3207,23.3604,-0.0121,0.1503,93.6917,-0.1683,0.1738,9.2363,-0.0019,-2.7573,5.6122,0.0132,-46.972
133298,-106.3207,23.3604,-0.0121,0.1503,93.6917,-0.1683,0.1738,9.2363,-0.0019,-2.7573,5.6122,0.0132,-46.972
133314,-106.3207,23.3604,-0.0121,0.1503,93.6917,-0.1683,0.1738,9.2363,-0.0019,-2.7573,5.6122,0.0132,-46.972
133330,-106.3207,23.3604,-0.0121,0.1503,93.6917,-0.1683,0.1738,9.2363,-0.0019,-2.7573,5.6122,0.0132,-46.972
133346,-106.3207,23.3604,-0.0121,0.1503,93.6917,-0.1683,0.1738,9.2363,-0.0019,-2.7573,5.6122,0.0132,-46.972
133362,-106.3466,24.2585,-0.0119,0.1127,91.3589,-0.1765,-0.1856,9.4362,-0.0001,-3.7414,2.081,0.0184,-11.163
133378,-106.3466,24.2585,-0.0119,0.1127,91.3589,-0.1765,-0.1856,9.4362,-0.0001,-3.7414,2.081,0.0184,-11.163
133394,-106.3466,24.2585,-0.0119,0.1127,91.3589,-0.1765,-0.1856,9.4362,-0.0001,-3.7414,2.081,0.0184,-11.163
133410,-106.3466,24.2585,-0.0119,0.1127,91.3589,-0.1765,-0.1856,9.4362,-0.0001,-3.7414,2.081,0.0184,-11.163
133426,-106.3466,24.2585,-0.0119,0.1127,91.3589,-0.1765,-0.1856,9.4362,-0.0001,-3.7414,2.081,0.0184,-11.163
133442,-106.3466,24.2585,-0.0119,0.1127,91.3589,-0.1765,-0.1856,9.4362,-0.0001,-3.7414,2.081,0.0184,-11.163
133458,-106.3686,25.1774,-0.0116,0.0749,90.7508,-0.11,-0.1714,9.5407,-0.0004,0.1462,1.0798,-0.0026,-2.4475
133474,-106.3686,25.1774,-0.0116,0.0749,90.7508,-0.11,-0.1714,9.5407,-0.0004,0.1462,1.0798,-0.0026,-2.4475
133490,-106.3686,25.1774,-0.0116,0.0749,90.7508,-0.11,-0.1714,9.5407,-0.0004,0.1462,1.0798,-0.0026,-2.4475
133506,-106.3686,25.1774,-0.0116,0.0749,90.7508,-0.11,-0.1714,9.5407,-0.0004,0.1462,1.0798,-0.0026,-2.4475
133522,-106.3686,25.1774,-0.0116,0.0749,90.7508,-0.11,-0.1714,9.5407,-0.0004,0.1462,1.0798,-0.0026,-2.4475
133538,-106.3686,25.1774,-0.0116,0.0749,90.7508,-0.11,-0.1714,9.5407,-0.0004,0.1462,1.0798,-0.0026,-2.4475
133554,-106.3686,25.1774,-0.0116,0.0749,90.7508,-0.11,-0.1714,9.5407,-0.0004,0.1462,1.0798,-0.0026,-2.4475
133570,-106.3839,26.1199,-0.0115,0.0484,90.581,-0.0557,-0.1295,9.6154,-0.0004,0.4258,0.7601,0.0002,-0.0665
133586,-106.3839,26.1199,-0.0115,0.0484,90.581,-0.0557,-0.1295,9.6154,-0.0004,0.4258,0.7601,0.0002,-0.0665
133602,-106.3839,26.1199,-0.0115,0.0484,90.581,-0.0557,-0.1295,9.6154,-0.0004,0.4258,0.7601,0.0002,-0.0665
133618,-106.3839,26.1199,-0.0115,0.0484,90.581,-0.0557,-0.1295,9.6154,-0.0004,0.4258,0.7601,0.0002,-0.0665
133634,-106.3839,26.1199,-0.0115,0.0484,90.581,-0.0557,-0.1295,9.6154,-0.0004,0.4258,0.7601,0.0002,-0.0665
133650,-106.3839,26.1199,-0.0115,0.0484,90.581,-0.0557,-0.1295,9.6154,-0.0004,0.4258,0.7601,0.0002,-0.0665
133668,-106.3955,27.0836,-0.0114,0.0318,90.5328,-0.0262,-0.1051,9.6771,-0.0002,0.2445,0.6169,0.0018,0.6083
133682,-106.3955,27.0836,-0.0114,0.0318,90.5328,-0.0262,-0.1051,9.6771,-0.0002,0.2445,0.6169,0.0018,0.6083
133698,-106.3955,27.0836,-0.0114,0.0318,90.5328,-0.0262,-0.1051,9.6771,-0.0002,0.2445,0.6169,0.0018,0.6083
133714,-106.3955,27.0836,-0.0114,0.0318,90.5328,-0.0262,-0.1051,9.6771,-0.0002,0.2445,0.6169,0.0018,0.6083
133730,-106.3955,27.0836,-0.0114,0.0318,90.5328,-0.0262,-0.1051,9.6771,-0.0002,0.2445,0.6169,0.0018,0.6083
133746,-106.3955,27.0836,-0.0114,0.0318,90.5328,-0.0262,-0.1051,9.6771,-0.0002,0.2445,0.6169,0.0018,0.6083
133764,-106.4049,28.0049,-0.0113,0.0234,90.5191,-0.0127,-0.0946,9.7472,-0.0001,0.1113,0.7401,0.0013,0.6681
133778,-106.4049,28.0049,-0.0113,0.0234,90.5191,-0.0127,-0.0946,9.7472,-0.0001,0.1113,0.7401,0.0013,0.6681
133794,-106.4049,28.0049,-0.0113,0.0234,90.5191,-0.0127,-0.0946,9.7472,-0.0001,0.1113,0.7401,0.0013,0.6681
133810,-106.4049,28.0049,-0.0113,0.0234,90.5191,-0.0127,-0.0946,9.7472,-0.0001,0.1113,0.7401,0.0013,0.6681
133826,-106.4049,28.0049,-0.0113,0.0234,90.5191,-0.0127,-0.0946,9.7472,-0.0001,0.1113,0.7401,0.0013,0.6681
133842,-106.4133,28.9026,-0.011,0.0283,90.514,-0.0253,-0.0909,9.8252,-0.0025,0.0396,0.8507,-0.0264,0.6969
133858,-106.4133,28.9026,-0.011,0.0283,90.514,-0.0253,-0.0909,9.8252,-0.0025,0.0396,0.8507,-0.0264,0.6969
133874,-106.4133,28.9026,-0.011,0.0283,90.514,-0.0253,-0.0909,9.8252,-0.0025,0.0396,0.8507,-0.0264,0.6969
133890,-106.4133,28.9026,-0.011,0.0283,90.514,-0.0253,-0.0909,9.8252,-0.0025,0.0396,0.8507,-0.0264,0.6969
133906,-106.4133,28.9026,-0.011,0.0283,90.514,-0.0253,-0.0909,9.8252,-0.0025,0.0396,0.8507,-0.0264,0.6969
133922,-106.4133,28.9026,-0.011,0.0283,90.514,-0.0253,-0.0909,9.8252,-0.0025,0.0396,0.8507,-0.0264,0.6969
133938,-106.4133,28.9026,-0.011,0.0283,90.514,-0.0253,-0.0909,9.8252,-0.0025,0.0396,0.8507,-0.0264,0.6969
133954,-106.4221,29.8699,-0.0111,0.0188,90.5173,-0.012,-0.0898,9.8658,-0.0012,0.0118,0.4129,0.013,0.8136
133970,-106.4221,29.8699,-0.0111,0.0188,90.5173,-0.012,-0.0898,9.8658,-0.0012,0.0118,0.4129,0.013,0.8136
133986,-106.4221,29.8699,-0.0111,0.0188,90.5173,-0.012,-0.0898,9.8658,-0.0012,0.0118,0.4129,0.013,0.8136
134002,-106.4221,29.8699,-0.0111,0.0188,90.5173,-0.012,-0.0898,9.8658,-0.0012,0.0118,0.4129,0.013,0.8136
134018,-106.4221,29.8699,-0.0111,0.0188,90.5173,-0.012,-0.0898,9.8658,-0.0012,0.0118,0.4129,0.013,0.8136
134034,-106.4221,29.8699,-0.0111,0.0188,90.5173,-0.012,-0.0898,9.8658,-0.0012,0.0118,0.4129,0.013,0.8136
134051,-106.4312,30.8497,-0.0105,-0.022,90.5189,-0.0528,-0.088,9.91,0.0209,0.018,0.4466,0.2234,0.8031
134066,-106.4312,30.8497,-0.0105,-0.022,90.5189,-0.0528,-0.088,9.91,0.0209,0.018,0.4466,0.2234,0.8031
134082,-106.4312,30.8497,-0.0105,-0.022,90.5189,-0.0528,-0.088,9.91,0.0209,0.018,0.4466,0.2234,0.8031
134098,-106.4312,30.8497,-0.0105,-0.022,90.5189,-0.0528,-0.088,9.91,0.0209,0.018,0.4466,0.2234,0.8031
134114,-106.4312,30.8497,-0.0105,-0.022,90.5189,-0.0528,-0.088,9.91,0.0209,0.018,0.4466,0.2234,0.8031
134130,-106.4312,30.8497,-0.0105,-0.022,90.5189,-0.0528,-0.088,9.91,0.0209,0.018,0.4466,0.2234,0.8031
134148,-106.4395,31.807,-0.0111,0.0092,90.5198,-0.0052,-0.0904,9.9697,-0.0021,-0.025,0.6205,-0.2391,0.78
134162,-106.4395,31.807,-0.0111,0.0092,90.5198,-0.0052,-0.0904,9.9697,-0.0021,-0.025,0.6205,-0.2391,0.78
134178,-106.4395,31.807,-0.0111,0.0092,90.5198,-0.0052,-0.0904,9.9697,-0.0021,-0.025,0.6205,-0.2391,0.78
134194,-106.4395,31.807,-0.0111,0.0092,90.5198,-0.0052,-0.0904,9.9697,-0.0021,-0.025,0.6205,-0.2391,0.78
134210,-106.4395,31.807,-0.0111,0.0092,90.5198,-0.0052,-0.0904,9.9697,-0.0021,-0.025,0.6205,-0.2391,0.78
134226,-106.4395,31.807,-0.0111,0.0092,90.5198,-0.0052,-0.0904,9.9697,-0.0021,-0.025,0.6205,-0.2391,0.78
134242,-106.4478,32.7325,-0.0112,0.0119,90.5218,-0.0019,-0.0909,10.0266,-0.0005,-0.0052,0.6148,0.017,0.658
134258,-106.4478,32.7325,-0.0112,0.0119,90.5218,-0.0019,-0.0909,10.0266,-0.0005,-0.0052,0.6148,0.017,0.658
134274,-106.4478,32.7325,-0.0112,0.0119,90.5218,-0.0019,-0.0909,10.0266,-0.0005,-0.0052,0.6148,0.017,0.658
134290,-106.4478,32.7325,-0.0112,0.0119,90.5218,-0.0019,-0.0909,10.0266,-0.0005,-0.0052,0.6148,0.017,0.658
134306,-106.4478,32.7325,-0.0112,0.0119,90.5218,-0.0019,-0.0909,10.0266,-0.0005,-0.0052,0.6148,0.017,0.658
134322,-106.4563,33.672,-0.0112,0.0114,90.5224,-0.001,-0.0913,10.0773,-0.0001,-0.0049,0.542,0.0045,0.6619
134338,-106.4563,33.672,-0.0112,0.0114,90.5224,-0.001,-0.0913,10.0773,-0.0001,-0.0049,0.542,0.0045,0.6619
134354,-106.4563,33.672,-0.0112,0.0114,90.5224,-0.001,-0.0913,10.0773,-0.0001,-0.0049,0.542,0.0045,0.6619
134370,-106.4563,33.672,-0.0112,0.0114,90.5224,-0.001,-0.0913,10.0773,-0.0001,-0.0049,0.542,0.0045,0.6619
134386,-106.4563,33.672,-0.0112,0.0114,90.5224,-0.001,-0.0913,10.0773,-0.0001,-0.0049,0.542,0.0045,0.6619
134402,-106.4563,33.672,-0.0112,0.0114,90.5224,-0.001,-0.0913,10.0773,-0.0001,-0.0049,0.542,0.0045,0.6619
