timestamp,x,y,z,pitch,yaw,roll,vx,vy,vz,ax,ay,az,yaw_rate
102825,-106.6867,-4.8475,-0.0783,0.0,-89.3578,0.0,-0.0,0.0,0.1051,0.0,-0.0,5.5224,-0.0
102841,-106.6867,-4.8475,-0.0783,0.0,-89.3578,0.0,-0.0,0.0,0.1051,0.0,-0.0,5.5224,-0.0
102857,-106.6867,-4.8475,-0.0783,0.0,-89.3578,0.0,-0.0,0.0,0.1051,0.0,-0.0,5.5224,-0.0
102873,-106.6867,-4.8475,-0.0783,0.0,-89.3578,0.0,-0.0,0.0,0.1051,0.0,-0.0,5.5224,-0.0
102889,-106.6867,-4.8475,-0.0783,0.0,-89.3578,0.0,-0.0,0.0,0.1051,0.0,-0.0,5.5224,-0.0
102905,-106.6867,-4.8475,-0.0783,0.0,-89.3578,0.0,-0.0,0.0,0.1051,0.0,-0.0,5.5224,-0.0
102921,-106.6867,-4.8475,-0.0783,0.0,-89.3578,0.0,-0.0,0.0,0.1051,0.0,-0.0,5.5224,-0.0
102937,-106.6867,-4.8475,-0.0783,0.0,-89.3578,0.0,-0.0,0.0,0.1051,0.0,-0.0,5.5224,-0.0
102953,-106.6867,-4.8475,-0.0783,0.0,-89.3578,0.0,-0.0,0.0,0.1051,0.0,-0.0,5.5224,-0.0
102969,-106.6867,-4.8475,-0.0783,0.0,-89.3578,0.0,-0.0,0.0,0.1051,0.0,-0.0,5.5224,-0.0
102985,-106.6867,-4.8475,-0.0783,0.0,-89.3578,0.0,-0.0,0.0,0.1051,0.0,-0.0,5.5224,-0.0
103001,-106.6867,-4.8475,-0.0783,0.0,-89.3578,0.0,-0.0,0.0,0.1051,0.0,-0.0,5.5224,-0.0
103017,-106.6867,-4.8475,-0.0783,0.0,-89.3578,0.0,-0.0,0.0,0.1051,0.0,-0.0,5.5224,-0.0
103033,-106.6868,-4.8454,-0.0574,-0.0018,-89.3578,0.0,-0.0005,0.0439,0.234,-0.0024,0.2122,0.6231,-0.0001
103049,-106.6868,-4.8454,-0.0574,-0.0018,-89.3578,0.0,-0.0005,0.0439,0.234,-0.0024,0.2122,0.6231,-0.0001
103065,-106.6868,-4.8454,-0.0574,-0.0018,-89.3578,0.0,-0.0005,0.0439,0.234,-0.0024,0.2122,0.6231,-0.0001
103081,-106.6868,-4.8454,-0.0574,-0.0018,-89.3578,0.0,-0.0005,0.0439,0.234,-0.0024,0.2122,0.6231,-0.0001
103097,-106.6868,-4.8454,-0.0574,-0.0018,-89.3578,0.0,-0.0005,0.0439,0.234,-0.0024,0.2122,0.6231,-0.0001
103113,-106.6868,-4.8454,-0.0574,-0.0018,-89.3578,0.0,-0.0005,0.0439,0.234,-0.0024,0.2122,0.6231,-0.0001
103129,-106.6868,-4.8454,-0.0574,-0.0018,-89.3578,0.0,-0.0005,0.0439,0.234,-0.0024,0.2122,0.6231,-0.0001
103145,-106.6868,-4.8454,-0.0574,-0.0018,-89.3578,0.0,-0.0005,0.0439,0.234,-0.0024,0.2122,0.6231,-0.0001
103161,-106.6868,-4.8454,-0.0574,-0.0018,-89.3578,0.0,-0.0005,0.0439,0.234,-0.0024,0.2122,0.6231,-0.0001
103178,-106.6868,-4.8401,-0.0372,-0.0053,-89.3577,0.0,-0.0013,0.1197,0.1681,-0.0061,0.5459,-0.4749,0.0027
103193,-106.6868,-4.8401,-0.0372,-0.0053,-89.3577,0.0,-0.0013,0.1197,0.1681,-0.0061,0.5459,-0.4749,0.0027
103209,-106.6868,-4.8401,-0.0372,-0.0053,-89.3577,0.0,-0.0013,0.1197,0.1681,-0.0061,0.5459,-0.4749,0.0027
103225,-106.6868,-4.8401,-0.0372,-0.0053,-89.3577,0.0,-0.0013,0.1197,0.1681,-0.0061,0.5459,-0.4749,0.0027
103241,-106.6868,-4.8401,-0.0372,-0.0053,-89.3577,0.0,-0.0013,0.1197,0.1681,-0.0061,0.5459,-0.4749,0.0027
103257,-106.6868,-4.8401,-0.0372,-0.0053,-89.3577,0.0,-0.0013,0.1197,0.1681,-0.0061,0.5459,-0.4749,0.0027
103273,-106.6871,-4.8067,-0.0253,-0.0274,-89.3646,-0.0,-0.0065,0.5729,0.1021,-0.0574,5.0323,-0.7336,-0.0257
103289,-106.6871,-4.8067,-0.0253,-0.0274,-89.3646,-0.0,-0.0065,0.5729,0.1021,-0.0574,5.0323,-0.7336,-0.0257
103305,-106.6871,-4.8067,-0.0253,-0.0274,-89.3646,-0.0,-0.0065,0.5729,0.1021,-0.0574,5.0323,-0.7336,-0.0257
103321,-106.6871,-4.8067,-0.0253,-0.0274,-89.3646,-0.0,-0.0065,0.5729,0.1021,-0.0574,5.0323,-0.7336,-0.0257
103337,-106.6871,-4.8067,-0.0253,-0.0274,-89.3646,-0.0,-0.0065,0.5729,0.1021,-0.0574,5.0323,-0.7336,-0.0257
103356,-106.6882,-4.7358,-0.0182,-0.0451,-89.3345,0.0002,-0.0108,0.9419,0.0555,-0.0456,3.9642,-0.5006,0.1056
103369,-106.6882,-4.7358,-0.0182,-0.0451,-89.3345,0.0002,-0.0108,0.9419,0.0555,-0.0456,3.9642,-0.5006,0.1056
103385,-106.6882,-4.7358,-0.0182,-0.0451,-89.3345,0.0002,-0.0108,0.9419,0.0555,-0.0456,3.9642,-0.5006,0.1056
103401,-106.6882,-4.7358,-0.0182,-0.0451,-89.3345,0.0002,-0.0108,0.9419,0.0555,-0.0456,3.9642,-0.5006,0.1056
103417,-106.6882,-4.7358,-0.0182,-0.0451,-89.3345,0.0002,-0.0108,0.9419,0.0555,-0.0456,3.9642,-0.5006,0.1056
103433,-106.6882,-4.7358,-0.0182,-0.0451,-89.3345,0.0002,-0.0108,0.9419,0.0555,-0.0456,3.9642,-0.5006,0.1056
103451,-106.6898,-4.6396,-0.0142,-0.0479,-89.3044,0.0015,-0.0206,1.0949,0.0316,-0.1083,1.6913,-0.2639,3.2953
103465,-106.6898,-4.6396,-0.0142,-0.0479,-89.3044,0.0015,-0.0206,1.0949,0.0316,-0.1083,1.6913,-0.2639,3.2953
103481,-106.6898,-4.6396,-0.0142,-0.0479,-89.3044,0.0015,-0.0206,1.0949,0.0316,-0.1083,1.6913,-0.2639,3.2953
103497,-106.6898,-4.6396,-0.0142,-0.0479,-89.3044,0.0015,-0.0206,1.0949,0.0316,-0.1083,1.6913,-0.2639,3.2953
103513,-106.6898,-4.6396,-0.0142,-0.0479,-89.3044,0.0015,-0.0206,1.0949,0.0316,-0.1083,1.6913,-0.2639,3.2953
103529,-106.6898,-4.6396,-0.0142,-0.0479,-89.3044,0.0015,-0.0206,1.0949,0.0316,-0.1083,1.6913,-0.2639,3.2953
103545,-106.6913,-4.5379,-0.0125,-0.0321,-89.2995,0.0001,-0.0134,1.0771,0.0135,0.0788,-0.1965,-0.1993,2.9836
103561,-106.6913,-4.5379,-0.0125,-0.0321,-89.2995,0.0001,-0.0134,1.0771,0.0135,0.0788,-0.1965,-0.1993,2.9836
103577,-106.6913,-4.5379,-0.0125,-0.0321,-89.2995,0.0001,-0.0134,1.0771,0.0135,0.0788,-0.1965,-0.1993,2.9836
103593,-106.6913,-4.5379,-0.0125,-0.0321,-89.2995,0.0001,-0.0134,1.0771,0.0135,0.0788,-0.1965,-0.1993,2.9836
103609,-106.6913,-4.5379,-0.0125,-0.0321,-89.2995,0.0001,-0.0134,1.0771,0.0135,0.0788,-0.1965,-0.1993,2.9836
103627,-106.693,-4.4293,-0.0117,-0.0304,-89.2624,-0.0005,-0.0086,1.3976,0.0062,0.0535,3.5602,-0.0815,-0.3626
103641,-106.693,-4.4293,-0.0117,-0.0304,-89.2624,-0.0005,-0.0086,1.3976,0.0062,0.0535,3.5602,-0.0815,-0.3626
103657,-106.693,-4.4293,-0.0117,-0.0304,-89.2624,-0.0005,-0.0086,1.3976,0.0062,0.0535,3.5602,-0.0815,-0.3626
103673,-106.693,-4.4293,-0.0117,-0.0304,-89.2624,-0.0005,-0.0086,1.3976,0.0062,0.0535,3.5602,-0.0815,-0.3626
103689,-106.693,-4.4293,-0.0117,-0.0304,-89.2624,-0.0005,-0.0086,1.3976,0.0062,0.0535,3.5602,-0.0815,-0.3626
103705,-106.693,-4.4293,-0.0117,-0.0304,-89.2624,-0.0005,-0.0086,1.3976,0.0062,0.0535,3.5602,-0.0815,-0.3626
103723,-106.6958,-4.2807,-0.0112,-0.0446,-89.1811,0.0015,-0.0285,1.7095,0.0029,-0.217,3.3952,-0.0353,5.1481
103737,-106.6958,-4.2807,-0.0112,-0.0446,-89.1811,0.0015,-0.0285,1.7095,0.0029,-0.217,3.3952,-0.0353,5.1481
103753,-106.6958,-4.2807,-0.0112,-0.0446,-89.1811,0.0015,-0.0285,1.7095,0.0029,-0.217,3.3952,-0.0353,5.1481
103769,-106.6958,-4.2807,-0.0112,-0.0446,-89.1811,0.0015,-0.0285,1.7095,0.0029,-0.217,3.3952,-0.0353,5.1481
103785,-106.6958,-4.2807,-0.0112,-0.0446,-89.1811,0.0015,-0.0285,1.7095,0.0029,-0.217,3.3952,-0.0353,5.1481
103801,-106.6958,-4.2807,-0.0112,-0.0446,-89.1811,0.0015,-0.0285,1.7095,0.0029,-0.217,3.3952,-0.0353,5.1481
103817,-106.6982,-4.1215,-0.011,-0.0403,-89.1821,-0.0001,-0.0188,1.8347,0.0014,0.1084,1.3952,-0.0168,2.5977
103833,-106.6982,-4.1215,-0.011,-0.0403,-89.1821,-0.0001,-0.0188,1.8347,0.0014,0.1084,1.3952,-0.0168,2.5977
103849,-106.6982,-4.1215,-0.011,-0.0403,-89.1821,-0.0001,-0.0188,1.8347,0.0014,0.1084,1.3952,-0.0168,2.5977
103865,-106.6982,-4.1215,-0.011,-0.0403,-89.1821,-0.0001,-0.0188,1.8347,0.0014,0.1084,1.3952,-0.0168,2.5977
103881,-106.6982,-4.1215,-0.011,-0.0403,-89.1821,-0.0001,-0.0188,1.8347,0.0014,0.1084,1.3952,-0.0168,2.5977
103897,-106.7007,-3.9113,-0.0108,-0.0605,-89.1918,-0.0006,-0.0317,2.5261,0.0007,-0.139,7.4608,-0.0078,1.1703
103913,-106.7007,-3.9113,-0.0108,-0.0605,-89.1918,-0.0006,-0.0317,2.5261,0.0007,-0.139,7.4608,-0.0078,1.1703
103929,-106.7007,-3.9113,-0.0108,-0.0605,-89.1918,-0.0006,-0.0317,2.5261,0.0007,-0.139,7.4608,-0.0078,1.1703
103945,-106.7007,-3.9113,-0.0108,-0.0605,-89.1918,-0.0006,-0.0317,2.5261,0.0007,-0.139,7.4608,-0.0078,1.1703
103961,-106.7007,-3.9113,-0.0108,-0.0605,-89.1918,-0.0006,-0.0317,2.5261,0.0007,-0.139,7.4608,-0.0078,1.1703
103977,-106.7007,-3.9113,-0.0108,-0.0605,-89.1918,-0.0006,-0.0317,2.5261,0.0007,-0.139,7.4608,-0.0078,1.1703
103995,-106.7048,-3.6408,-0.0106,-0.0875,-89.1746,0.0009,-0.0505,3.3093,0.0004,-0.2044,8.5001,-0.0037,-0.8218
104009,-106.7048,-3.6408,-0.0106,-0.0875,-89.1746,0.0009,-0.0505,3.3093,0.0004,-0.2044,8.5001,-0.0037,-0.8218
104025,-106.7048,-3.6408,-0.0106,-0.0875,-89.1746,0.0009,-0.0505,3.3093,0.0004,-0.2044,8.5001,-0.0037,-0.8218
104041,-106.7048,-3.6408,-0.0106,-0.0875,-89.1746,0.0009,-0.0505,3.3093,0.0004,-0.2044,8.5001,-0.0037,-0.8218
104057,-106.7048,-3.6408,-0.0106,-0.0875,-89.1746,0.0009,-0.0505,3.3093,0.0004,-0.2044,8.5001,-0.0037,-0.8218
104073,-106.7048,-3.6408,-0.0106,-0.0875,-89.1746,0.0009,-0.0505,3.3093,0.0004,-0.2044,8.5001,-0.0037,-0.8218
104091,-106.7102,-3.3168,-0.0105,-0.0927,-89.1057,0.0013,-0.0605,3.7879,0.0002,-0.1088,5.2066,-0.0019,-0.8106
104105,-106.7102,-3.3168,-0.0105,-0.0927,-89.1057,0.0013,-0.0605,3.7879,0.0002,-0.1088,5.2066,-0.0019,-0.8106
104121,-106.7102,-3.3168,-0.0105,-0.0927,-89.1057,0.0013,-0.0605,3.7879,0.0002,-0.1088,5.2066,-0.0019,-0.8106
104137,-106.7102,-3.3168,-0.0105,-0.0927,-89.1057,0.0013,-0.0605,3.7879,0.0002,-0.1088,5.2066,-0.0019,-0.8106
104153,-106.7102,-3.3168,-0.0105,-0.0927,-89.1057,0.0013,-0.0605,3.7879,0.0002,-0.1088,5.2066,-0.0019,-0.8106
104171,-106.7168,-2.9558,-0.0105,-0.0901,-89.02,0.002,-0.0719,4.2657,0.0001,-0.1254,5.2662,-0.001,2.2841
104185,-106.7168,-2.9558,-0.0105,-0.0901,-89.02,0.002,-0.0719,4.2657,0.0001,-0.1254,5.2662,-0.001,2.2841
104201,-106.7168,-2.9558,-0.0105,-0.0901,-89.02,0.002,-0.0719,4.2657,0.0001,-0.1254,5.2662,-0.001,2.2841
104217,-106.7168,-2.9558,-0.0105,-0.0901,-89.02,0.002,-0.0719,4.2657,0.0001,-0.1254,5.2662,-0.001,2.2841
104233,-106.7168,-2.9558,-0.0105,-0.0901,-89.02,0.002,-0.0719,4.2657,0.0001,-0.1254,5.2662,-0.001,2.2841
104249,-106.7168,-2.9558,-0.0105,-0.0901,-89.02,0.002,-0.0719,4.2657,0.0001,-0.1254,5.2662,-0.001,2.2841
104265,-106.7168,-2.9558,-0.0105,-0.0901,-89.02,0.002,-0.0719,4.2657,0.0001,-0.1254,5.2662,-0.001,2.2841
104282,-106.7252,-2.5121,-0.0105,-0.0913,-88.9622,0.0024,-0.0888,4.8672,0.0,-0.1718,6.1113,-0.0007,-0.7199
104297,-106.7252,-2.5121,-0.0105,-0.0913,-88.9622,0.0024,-0.0888,4.8672,0.0,-0.1718,6.1113,-0.0007,-0.7199
104313,-106.7252,-2.5121,-0.0105,-0.0913,-88.9622,0.0024,-0.0888,4.8672,0.0,-0.1718,6.1113,-0.0007,-0.7199
104329,-106.7252,-2.5121,-0.0105,-0.0913,-88.9622,0.0024,-0.0888,4.8672,0.0,-0.1718,6.1113,-0.0007,-0.7199
104345,-106.7252,-2.5121,-0.0105,-0.0913,-88.9622,0.0024,-0.0888,4.8672,0.0,-0.1718,6.1113,-0.0007,-0.7199
104361,-106.7252,-2.5121,-0.0105,-0.0913,-88.9622,0.0024,-0.0888,4.8672,0.0,-0.1718,6.1113,-0.0007,-0.7199
104377,-106.7339,-2.0364,-0.0104,-0.0982,-88.9492,0.0016,-0.0986,5.4552,-0.0,-0.1059,6.3503,-0.0004,1.5413
104393,-106.7339,-2.0364,-0.0104,-0.0982,-88.9492,0.0016,-0.0986,5.4552,-0.0,-0.1059,6.3503,-0.0004,1.5413
104409,-106.7339,-2.0364,-0.0104,-0.0982,-88.9492,0.0016,-0.0986,5.4552,-0.0,-0.1059,6.3503,-0.0004,1.5413
104425,-106.7339,-2.0364,-0.0104,-0.0982,-88.9492,0.0016,-0.0986,5.4552,-0.0,-0.1059,6.3503,-0.0004,1.5413
104441,-106.7339,-2.0364,-0.0104,-0.0982,-88.9492,0.0016,-0.0986,5.4552,-0.0,-0.1059,6.3503,-0.0004,1.5413
104459,-106.7432,-1.5144,-0.0104,-0.1075,-88.9708,0.0008,-0.1117,6.1498,0.0,-0.1453,7.7062,0.0001,-1.2138
104473,-106.7432,-1.5144,-0.0104,-0.1075,-88.9708,0.0008,-0.1117,6.1498,0.0,-0.1453,7.7062,0.0001,-1.2138
104489,-106.7432,-1.5144,-0.0104,-0.1075,-88.9708,0.0008,-0.1117,6.1498,0.0,-0.1453,7.7062,0.0001,-1.2138
104505,-106.7432,-1.5144,-0.0104,-0.1075,-88.9708,0.0008,-0.1117,6.1498,0.0,-0.1453,7.7062,0.0001,-1.2138
104521,-106.7432,-1.5144,-0.0104,-0.1075,-88.9708,0.0008,-0.1117,6.1498,0.0,-0.1453,7.7062,0.0001,-1.2138
104537,-106.7432,-1.5144,-0.0104,-0.1075,-88.9708,0.0008,-0.1117,6.1498,0.0,-0.1453,7.7062,0.0001,-1.2138
104554,-106.7542,-0.9083,-0.0103,-0.1145,-88.9647,0.0004,-0.1228,6.8322,0.0,-0.1192,7.3191,-0.0001,1.0607
104569,-106.7542,-0.9083,-0.0103,-0.1145,-88.9647,0.0004,-0.1228,6.8322,0.0,-0.1192,7.3191,-0.0001,1.0607
104585,-106.7542,-0.9083,-0.0103,-0.1145,-88.9647,0.0004,-0.1228,6.8322,0.0,-0.1192,7.3191,-0.0001,1.0607
104601,-106.7542,-0.9083,-0.0103,-0.1145,-88.9647,0.0004,-0.1228,6.8322,0.0,-0.1192,7.3191,-0.0001,1.0607
104617,-106.7542,-0.9083,-0.0103,-0.1145,-88.9647,0.0004,-0.1228,6.8322,0.0,-0.1192,7.3191,-0.0001,1.0607
104633,-106.7542,-0.9083,-0.0103,-0.1145,-88.9647,0.0004,-0.1228,6.8322,0.0,-0.1192,7.3191,-0.0001,1.0607
104651,-106.7665,-0.2208,-0.0103,-0.1141,-88.9715,0.0002,-0.1349,7.4732,0.0,-0.1256,6.6734,0.0001,-0.9544
104665,-106.7665,-0.2208,-0.0103,-0.1141,-88.9715,0.0002,-0.1349,7.4732,0.0,-0.1256,6.6734,0.0001,-0.9544
104681,-106.7665,-0.2208,-0.0103,-0.1141,-88.9715,0.0002,-0.1349,7.4732,0.0,-0.1256,6.6734,0.0001,-0.9544
104697,-106.7665,-0.2208,-0.0103,-0.1141,-88.9715,0.0002,-0.1349,7.4732,0.0,-0.1256,6.6734,0.0001,-0.9544
104713,-106.7665,-0.2208,-0.0103,-0.1141,-88.9715,0.0002,-0.1349,7.4732,0.0,-0.1256,6.6734,0.0001,-0.9544
104729,-106.7665,-0.2208,-0.0103,-0.1141,-88.9715,0.0002,-0.1349,7.4732,0.0,-0.1256,6.6734,0.0001,-0.9544
104745,-106.7793,0.4876,-0.0103,-0.1172,-88.97,0.0001,-0.1469,8.1666,-0.0,-0.1324,7.6595,-0.0002,0.0288
104761,-106.7793,0.4876,-0.0103,-0.1172,-88.97,0.0001,-0.1469,8.1666,-0.0,-0.1324,7.6595,-0.0002,0.0288
104777,-106.7793,0.4876,-0.0103,-0.1172,-88.97,0.0001,-0.1469,8.1666,-0.0,-0.1324,7.6595,-0.0002,0.0288
104793,-106.7793,0.4876,-0.0103,-0.1172,-88.97,0.0001,-0.1469,8.1666,-0.0,-0.1324,7.6595,-0.0002,0.0288
104809,-106.7793,0.4876,-0.0103,-0.1172,-88.97,0.0001,-0.1469,8.1666,-0.0,-0.1324,7.6595,-0.0002,0.0288
104825,-106.7931,1.257,-0.0103,-0.1185,-88.97,0.0,-0.1581,8.7905,-0.0,-0.1237,6.9004,0.0,0.0001
104841,-106.7931,1.257,-0.0103,-0.1185,-88.97,0.0,-0.1581,8.7905,-0.0,-0.1237,6.9004,0.0,0.0001
104857,-106.7931,1.257,-0.0103,-0.1185,-88.97,0.0,-0.1581,8.7905,-0.0,-0.1237,6.9004,0.0,0.0001
104873,-106.7931,1.257,-0.0103,-0.1185,-88.97,0.0,-0.1581,8.7905,-0.0,-0.1237,6.9004,0.0,0.0001
104889,-106.7931,1.257,-0.0103,-0.1185,-88.97,0.0,-0.1581,8.7905,-0.0,-0.1237,6.9004,0.0,0.0001
104905,-106.7931,1.257,-0.0103,-0.1185,-88.97,0.0,-0.1581,8.7905,-0.0,-0.1237,6.9004,0.0,0.0001
104923,-106.8087,2.1245,-0.0104,-0.1072,-88.97,0.0,-0.1665,9.2628,0.0,-0.0884,4.9272,0.0001,0.0
104937,-106.8087,2.1245,-0.0104,-0.1072,-88.97,0.0,-0.1665,9.2628,0.0,-0.0884,4.9272,0.0001,0.0
104953,-106.8087,2.1245,-0.0104,-0.1072,-88.97,0.0,-0.1665,9.2628,0.0,-0.0884,4.9272,0.0001,0.0
104969,-106.8087,2.1245,-0.0104,-0.1072,-88.97,0.0,-0.1665,9.2628,0.0,-0.0884,4.9272,0.0001,0.0
104985,-106.8087,2.1245,-0.0104,-0.1072,-88.97,0.0,-0.1665,9.2628,0.0,-0.0884,4.9272,0.0001,0.0
105001,-106.8087,2.1245,-0.0104,-0.1072,-88.97,0.0,-0.1665,9.2628,0.0,-0.0884,4.9272,0.0001,0.0
105017,-106.8248,3.0202,-0.0105,-0.0959,-88.97,0.0,-0.1749,9.7282,0.0,-0.0887,4.9348,-0.0,-0.0001
105033,-106.8248,3.0202,-0.0105,-0.0959,-88.97,0.0,-0.1749,9.7282,0.0,-0.0887,4.9348,-0.0,-0.0001
105049,-106.8248,3.0202,-0.0105,-0.0959,-88.97,0.0,-0.1749,9.7282,0.0,-0.0887,4.9348,-0.0,-0.0001
105065,-106.8248,3.0202,-0.0105,-0.0959,-88.97,0.0,-0.1749,9.7282,0.0,-0.0887,4.9348,-0.0,-0.0001
105081,-106.8248,3.0202,-0.0105,-0.0959,-88.97,0.0,-0.1749,9.7282,0.0,-0.0887,4.9348,-0.0,-0.0001
105097,-106.8248,3.0202,-0.0105,-0.0959,-88.97,0.0,-0.1749,9.7282,0.0,-0.0887,4.9348,-0.0,-0.0001
105115,-106.8412,3.9317,-0.0105,-0.092,-88.97,-0.0,-0.1836,10.2094,-0.0,-0.0948,5.2722,-0.0001,0.0002
105129,-106.8412,3.9317,-0.0105,-0.092,-88.97,-0.0,-0.1836,10.2094,-0.0,-0.0948,5.2722,-0.0001,0.0002
105145,-106.8412,3.9317,-0.0105,-0.092,-88.97,-0.0,-0.1836,10.2094,-0.0,-0.0948,5.2722,-0.0001,0.0002
105161,-106.8412,3.9317,-0.0105,-0.092,-88.97,-0.0,-0.1836,10.2094,-0.0,-0.0948,5.2722,-0.0001,0.0002
105177,-106.8412,3.9317,-0.0105,-0.092,-88.97,-0.0,-0.1836,10.2094,-0.0,-0.0948,5.2722,-0.0001,0.0002
105193,-106.8412,3.9317,-0.0105,-0.092,-88.97,-0.0,-0.1836,10.2094,-0.0,-0.0948,5.2722,-0.0001,0.0002
105209,-106.8588,4.9109,-0.0105,-0.0878,-88.97,0.0,-0.1915,10.6534,-0.0,-0.0852,4.7392,-0.0001,0.0002
105225,-106.8588,4.9109,-0.0105,-0.0878,-88.97,0.0,-0.1915,10.6534,-0.0,-0.0852,4.7392,-0.0001,0.0002
105241,-106.8588,4.9109,-0.0105,-0.0878,-88.97,0.0,-0.1915,10.6534,-0.0,-0.0852,4.7392,-0.0001,0.0002
105257,-106.8588,4.9109,-0.0105,-0.0878,-88.97,0.0,-0.1915,10.6534,-0.0,-0.0852,4.7392,-0.0001,0.0002
105273,-106.8588,4.9109,-0.0105,-0.0878,-88.97,0.0,-0.1915,10.6534,-0.0,-0.0852,4.7392,-0.0001,0.0002
105289,-106.8588,4.9109,-0.0105,-0.0878,-88.97,0.0,-0.1915,10.6534,-0.0,-0.0852,4.7392,-0.0001,0.0002
105305,-106.8776,5.9538,-0.0106,-0.0811,-88.97,0.0,-0.1987,11.0525,0.0,-0.0748,4.161,0.0002,0.0
105321,-106.8776,5.9538,-0.0106,-0.0811,-88.97,0.0,-0.1987,11.0525,0.0,-0.0748,4.161,0.0002,0.0
105337,-106.8776,5.9538,-0.0106,-0.0811,-88.97,0.0,-0.1987,11.0525,0.0,-0.0748,4.161,0.0002,0.0
105353,-106.8776,5.9538,-0.0106,-0.0811,-88.97,0.0,-0.1987,11.0525,0.0,-0.0748,4.161,0.0002,0.0
105369,-106.8776,5.9538,-0.0106,-0.0811,-88.97,0.0,-0.1987,11.0525,0.0,-0.0748,4.161,0.0002,0.0
105385,-106.8959,6.976,-0.0106,-0.0756,-88.97,0.0,-0.2052,11.4157,-0.0,-0.0718,3.9961,-0.0001,0.0001
105401,-106.8959,6.976,-0.0106,-0.0756,-88.97,0.0,-0.2052,11.4157,-0.0,-0.0718,3.9961,-0.0001,0.0001
105417,-106.8959,6.976,-0.0106,-0.0756,-88.97,0.0,-0.2052,11.4157,-0.0,-0.0718,3.9961,-0.0001,0.0001
105433,-106.8959,6.976,-0.0106,-0.0756,-88.97,0.0,-0.2052,11.4157,-0.0,-0.0718,3.9961,-0.0001,0.0001
105449,-106.8959,6.976,-0.0106,-0.0756,-88.97,0.0,-0.2052,11.4157,-0.0,-0.0718,3.9961,-0.0001,0.0001
105465,-106.8959,6.976,-0.0106,-0.0756,-88.97,0.0,-0.2052,11.4157,-0.0,-0.0718,3.9961,-0.0001,0.0001
105483,-106.9145,8.0095,-0.0106,-0.071,-88.97,0.0,-0.2111,11.7443,0.0,-0.0663,3.6891,0.0002,-0.0003
105497,-106.9145,8.0095,-0.0106,-0.071,-88.97,0.0,-0.2111,11.7443,0.0,-0.0663,3.6891,0.0002,-0.0003
105513,-106.9145,8.0095,-0.0106,-0.071,-88.97,0.0,-0.2111,11.7443,0.0,-0.0663,3.6891,0.0002,-0.0003
105529,-106.9145,8.0095,-0.0106,-0.071,-88.97,0.0,-0.2111,11.7443,0.0,-0.0663,3.6891,0.0002,-0.0003
105545,-106.9145,8.0095,-0.0106,-0.071,-88.97,0.0,-0.2111,11.7443,0.0,-0.0663,3.6891,0.0002,-0.0003
105561,-106.9145,8.0095,-0.0106,-0.071,-88.97,0.0,-0.2111,11.7443,0.0,-0.0663,3.6891,0.0002,-0.0003
105578,-106.9344,9.1162,-0.0107,-0.0663,-88.97,0.0,-0.217,12.0698,0.0,-0.063,3.5067,-0.0,-0.0002
105593,-106.9344,9.1162,-0.0107,-0.0663,-88.97,0.0,-0.217,12.0698,0.0,-0.063,3.5067,-0.0,-0.0002
105609,-106.9344,9.1162,-0.0107,-0.0663,-88.97,0.0,-0.217,12.0698,0.0,-0.063,3.5067,-0.0,-0.0002
105625,-106.9344,9.1162,-0.0107,-0.0663,-88.97,0.0,-0.217,12.0698,0.0,-0.063,3.5067,-0.0,-0.0002
105641,-106.9344,9.1162,-0.0107,-0.0663,-88.97,0.0,-0.217,12.0698,0.0,-0.063,3.5067,-0.0,-0.0002
105657,-106.9344,9.1162,-0.0107,-0.0663,-88.97,0.0,-0.217,12.0698,0.0,-0.063,3.5067,-0.0,-0.0002
105673,-106.9544,10.2307,-0.0107,-0.0621,-88.97,0.0,-0.2224,12.3682,0.0,-0.0589,3.2768,-0.0001,-0.0001
105689,-106.9544,10.2307,-0.0107,-0.0621,-88.97,0.0,-0.2224,12.3682,0.0,-0.0589,3.2768,-0.0001,-0.0001
105705,-106.9544,10.2307,-0.0107,-0.0621,-88.97,0.0,-0.2224,12.3682,0.0,-0.0589,3.2768,-0.0001,-0.0001
105721,-106.9544,10.2307,-0.0107,-0.0621,-88.97,0.0,-0.2224,12.3682,0.0,-0.0589,3.2768,-0.0001,-0.0001
105737,-106.9544,10.2307,-0.0107,-0.0621,-88.97,0.0,-0.2224,12.3682,0.0,-0.0589,3.2768,-0.0001,-0.0001
105755,-106.9752,11.3842,-0.0107,-0.0581,-88.97,0.0,-0.2274,12.6479,0.0,-0.0546,3.0368,0.0001,-0.0001
105769,-106.9752,11.3842,-0.0107,-0.0581,-88.97,0.0,-0.2274,12.6479,0.0,-0.0546,3.0368,0.0001,-0.0001
105785,-106.9752,11.3842,-0.0107,-0.0581,-88.97,0.0,-0.2274,12.6479,0.0,-0.0546,3.0368,0.0001,-0.0001
105801,-106.9752,11.3842,-0.0107,-0.0581,-88.97,0.0,-0.2274,12.6479,0.0,-0.0546,3.0368,0.0001,-0.0001
105817,-106.9752,11.3842,-0.0107,-0.0581,-88.97,0.0,-0.2274,12.6479,0.0,-0.0546,3.0368,0.0001,-0.0001
105851,-106.9961,12.5506,-0.0108,-0.0524,-88.97,0.0,-0.2313,12.8642,0.0,-0.0426,2.3687,-0.0,-0.0
105865,-106.9961,12.5506,-0.0108,-0.0524,-88.97,0.0,-0.2313,12.8642,0.0,-0.0426,2.3687,-0.0,-0.0
105881,-106.9961,12.5506,-0.0108,-0.0524,-88.97,0.0,-0.2313,12.8642,0.0,-0.0426,2.3687,-0.0,-0.0
105897,-106.9961,12.5506,-0.0108,-0.0524,-88.97,0.0,-0.2313,12.8642,0.0,-0.0426,2.3687,-0.0,-0.0
105913,-106.9961,12.5506,-0.0108,-0.0524,-88.97,0.0,-0.2313,12.8642,0.0,-0.0426,2.3687,-0.0,-0.0
105929,-106.9961,12.5506,-0.0108,-0.0524,-88.97,0.0,-0.2313,12.8642,0.0,-0.0426,2.3687,-0.0,-0.0
105945,-107.0418,13.7323,-0.0108,-0.0374,-90.1088,0.1078,-0.9769,12.8602,0.0009,-8.1337,-0.044,0.0099,-27.194
105961,-107.0418,13.7323,-0.0108,-0.0374,-90.1088,0.1078,-0.9769,12.8602,0.0009,-8.1337,-0.044,0.0099,-27.194
105977,-107.0418,13.7323,-0.0108,-0.0374,-90.1088,0.1078,-0.9769,12.8602,0.0009,-8.1337,-0.044,0.0099,-27.194
105993,-107.0418,13.7323,-0.0108,-0.0374,-90.1088,0.1078,-0.9769,12.8602,0.0009,-8.1337,-0.044,0.0099,-27.194
106009,-107.0418,13.7323,-0.0108,-0.0374,-90.1088,0.1078,-0.9769,12.8602,0.0009,-8.1337,-0.044,0.0099,-27.194
106027,-107.142,14.869,-0.011,-0.0058,-94.628,0.2439,-1.8627,12.6189,0.0012,-9.9141,-2.7009,0.0035,-71.0882
106041,-107.142,14.869,-0.011,-0.0058,-94.628,0.2439,-1.8627,12.6189,0.0012,-9.9141,-2.7009,0.0035,-71.0882
106057,-107.142,14.869,-0.011,-0.0058,-94.628,0.2439,-1.8627,12.6189,0.0012,-9.9141,-2.7009,0.0035,-71.0882
106073,-107.142,14.869,-0.011,-0.0058,-94.628,0.2439,-1.8627,12.6189,0.0012,-9.9141,-2.7009,0.0035,-71.0882
106089,-107.142,14.869,-0.011,-0.0058,-94.628,0.2439,-1.8627,12.6189,0.0012,-9.9141,-2.7009,0.0035,-71.0882
106105,-107.142,14.869,-0.011,-0.0058,-94.628,0.2439,-1.8627,12.6189,0.0012,-9.9141,-2.7009,0.0035,-71.0882
106123,-107.2741,15.975,-0.0111,0.0236,-103.517,0.2697,-2.3829,12.343,0.0003,-5.8088,-3.0808,-0.0104,-122.6508
106137,-107.2741,15.975,-0.0111,0.0236,-103.517,0.2697,-2.3829,12.343,0.0003,-5.8088,-3.0808,-0.0104,-122.6508
106153,-107.2741,15.975,-0.0111,0.0236,-103.517,0.2697,-2.3829,12.343,0.0003,-5.8088,-3.0808,-0.0104,-122.6508
106169,-107.2741,15.975,-0.0111,0.0236,-103.517,0.2697,-2.3829,12.343,0.0003,-5.8088,-3.0808,-0.0104,-122.6508
106185,-107.2741,15.975,-0.0111,0.0236,-103.517,0.2697,-2.3829,12.343,0.0003,-5.8088,-3.0808,-0.0104,-122.6508
106201,-107.3937,17.0363,-0.0112,0.0242,-117.1467,0.1722,-2.3036,12.1731,-0.0009,0.8864,-1.8976,-0.013,-176.1214
106217,-107.3937,17.0363,-0.0112,0.0242,-117.1467,0.1722,-2.3036,12.1731,-0.0009,0.8864,-1.8976,-0.013,-176.1214
106233,-107.3937,17.0363,-0.0112,0.0242,-117.1467,0.1722,-2.3036,12.1731,-0.0009,0.8864,-1.8976,-0.013,-176.1214
106249,-107.3937,17.0363,-0.0112,0.0242,-117.1467,0.1722,-2.3036,12.1731,-0.0009,0.8864,-1.8976,-0.013,-176.1214
106265,-107.3937,17.0363,-0.0112,0.0242,-117.1467,0.1722,-2.3036,12.1731,-0.0009,0.8864,-1.8976,-0.013,-176.1214
106281,-107.3937,17.0363,-0.0112,0.0242,-117.1467,0.1722,-2.3036,12.1731,-0.0009,0.8864,-1.8976,-0.013,-176.1214
106299,-107.4397,18.0522,-0.0108,-0.0408,-134.6221,-0.049,-1.0143,12.2,-0.0011,14.4056,0.3014,-0.0025,-206.3771
106313,-107.4397,18.0522,-0.0108,-0.0408,-134.6221,-0.049,-1.0143,12.2,-0.0011,14.4056,0.3014,-0.0025,-206.3771
106329,-107.4397,18.0522,-0.0108,-0.0408,-134.6221,-0.049,-1.0143,12.2,-0.0011,14.4056,0.3014,-0.0025,-206.3771
106345,-107.4397,18.0522,-0.0108,-0.0408,-134.6221,-0.049,-1.0143,12.2,-0.0011,14.4056,0.3014,-0.0025,-206.3771
106361,-107.4397,18.0522,-0.0108,-0.0408,-134.6221,-0.049,-1.0143,12.2,-0.0011,14.4056,0.3014,-0.0025,-206.3771
106377,-107.4397,18.0522,-0.0108,-0.0408,-134.6221,-0.049,-1.0143,12.2,-0.0011,14.4056,0.3014,-0.0025,-206.3771
106395,-107.3446,19.0436,-0.0099,-0.1542,-154.3745,-0.3066,1.0761,11.8169,0.002,22.6789,-4.1567,0.0331,-219.3127
106409,-107.3446,19.0436,-0.0099,-0.1542,-154.3745,-0.3066,1.0761,11.8169,0.002,22.6789,-4.1567,0.0331,-219.3127
106425,-107.3446,19.0436,-0.0099,-0.1542,-154.3745,-0.3066,1.0761,11.8169,0.002,22.6789,-4.1567,0.0331,-219.3127
106457,-107.3446,19.0436,-0.0099,-0.1542,-154.3745,-0.3066,1.0761,11.8169,0.002,22.6789,-4.1567,0.0331,-219.3127
106473,-107.3446,19.0436,-0.0099,-0.1542,-154.3745,-0.3066,1.0761,11.8169,0.002,22.6789,-4.1567,0.0331,-219.3127
106489,-107.1077,19.9222,-0.009,-0.2324,-175.085,-0.5862,2.7676,10.0448,0.0027,18.0542,-18.9142,0.0078,-221.4376
106505,-107.1077,19.9222,-0.009,-0.2324,-175.085,-0.5862,2.7676,10.0448,0.0027,18.0542,-18.9142,0.0078,-221.4376
106521,-107.1077,19.9222,-0.009,-0.2324,-175.085,-0.5862,2.7676,10.0448,0.0027,18.0542,-18.9142,0.0078,-221.4376
106537,-107.1077,19.9222,-0.009,-0.2324,-175.085,-0.5862,2.7676,10.0448,0.0027,18.0542,-18.9142,0.0078,-221.4376
106553,-107.1077,19.9222,-0.009,-0.2324,-175.085,-0.5862,2.7676,10.0448,0.0027,18.0542,-18.9142,0.0078,-221.4376
106569,-106.885,20.5834,-0.0092,-0.1899,165.9095,-0.8067,2.1158,7.9125,-0.0027,-7.1917,-23.5264,-0.0599,-198.0597
106585,-106.885,20.5834,-0.0092,-0.1899,165.9095,-0.8067,2.1158,7.9125,-0.0027,-7.1917,-23.5264,-0.0599,-198.0597
106601,-106.885,20.5834,-0.0092,-0.1899,165.9095,-0.8067,2.1158,7.9125,-0.0027,-7.1917,-23.5264,-0.0599,-198.0597
106617,-106.885,20.5834,-0.0092,-0.1899,165.9095,-0.8067,2.1158,7.9125,-0.0027,-7.1917,-23.5264,-0.0599,-198.0597
106633,-106.885,20.5834,-0.0092,-0.1899,165.9095,-0.8067,2.1158,7.9125,-0.0027,-7.1917,-23.5264,-0.0599,-198.0597
106649,-106.885,20.5834,-0.0092,-0.1899,165.9095,-0.8067,2.1158,7.9125,-0.0027,-7.1917,-23.5264,-0.0599,-198.0597
106666,-106.8307,21.085,-0.0099,-0.0763,149.4235,-0.9452,0.3539,6.5594,0.0031,-20.2612,-15.5604,0.0675,-177.8191
106681,-106.8307,21.085,-0.0099,-0.0763,149.4235,-0.9452,0.3539,6.5594,0.0031,-20.2612,-15.5604,0.0675,-177.8191
106697,-106.8307,21.085,-0.0099,-0.0763,149.4235,-0.9452,0.3539,6.5594,0.0031,-20.2612,-15.5604,0.0675,-177.8191
106713,-106.8307,21.085,-0.0099,-0.0763,149.4235,-0.9452,0.3539,6.5594,0.0031,-20.2612,-15.5604,0.0675,-177.8191
106729,-106.8307,21.085,-0.0099,-0.0763,149.4235,-0.9452,0.3539,6.5594,0.0031,-20.2612,-15.5604,0.0675,-177.8191
106747,-106.9736,21.6011,-0.011,0.0808,135.936,-0.8707,-1.8758,6.8378,-0.0003,-24.8919,3.1075,-0.0385,-128.1555
106761,-106.9736,21.6011,-0.011,0.0808,135.936,-0.8707,-1.8758,6.8378,-0.0003,-24.8919,3.1075,-0.0385,-128.1555
106777,-106.9736,21.6011,-0.011,0.0808,135.936,-0.8707,-1.8758,6.8378,-0.0003,-24.8919,3.1075,-0.0385,-128.1555
106793,-106.9736,21.6011,-0.011,0.0808,135.936,-0.8707,-1.8758,6.8378,-0.0003,-24.8919,3.1075,-0.0385,-128.1555
106809,-106.9736,21.6011,-0.011,0.0808,135.936,-0.8707,-1.8758,6.8378,-0.0003,-24.8919,3.1075,-0.0385,-128.1555
106825,-106.9736,21.6011,-0.011,0.0808,135.936,-0.8707,-1.8758,6.8378,-0.0003,-24.8919,3.1075,-0.0385,-128.1555
106841,-107.2417,22.185,-0.0119,0.1865,126.7086,-0.634,-2.8178,7.7511,-0.0018,-11.0324,10.6968,-0.0178,-97.9117
106857,-107.2417,22.185,-0.0119,0.1865,126.7086,-0.634,-2.8178,7.7511,-0.0018,-11.0324,10.6968,-0.0178,-97.9117
106873,-107.2417,22.185,-0.0119,0.1865,126.7086,-0.634,-2.8178,7.7511,-0.0018,-11.0324,10.6968,-0.0178,-97.9117
106889,-107.2417,22.185,-0.0119,0.1865,126.7086,-0.634,-2.8178,7.7511,-0.0018,-11.0324,10.6968,-0.0178,-97.9117
106905,-107.2417,22.185,-0.0119,0.1865,126.7086,-0.634,-2.8178,7.7511,-0.0018,-11.0324,10.6968,-0.0178,-97.9117
106923,-107.5172,22.8599,-0.0123,0.2033,118.5715,-0.2737,-2.4122,8.6199,-0.0032,4.7429,10.1609,-0.0162,-94.0396
106937,-107.5172,22.8599,-0.0123,0.2033,118.5715,-0.2737,-2.4122,8.6199,-0.0032,4.7429,10.1609,-0.0162,-94.0396
106969,-107.5172,22.8599,-0.0123,0.2033,118.5715,-0.2737,-2.4122,8.6199,-0.0032,4.7429,10.1609,-0.0162,-94.0396
106985,-107.5172,22.8599,-0.0123,0.2033,118.5715,-0.2737,-2.4122,8.6199,-0.0032,4.7429,10.1609,-0.0162,-94.0396
107001,-107.7692,23.6015,-0.0124,0.1851,111.9881,-0.1145,-2.6821,9.0756,-0.0023,-3.1638,5.342,0.0111,-56.6081
107017,-107.7692,23.6015,-0.0124,0.1851,111.9881,-0.1145,-2.6821,9.0756,-0.0023,-3.1638,5.342,0.0111,-56.6081
107033,-107.7692,23.6015,-0.0124,0.1851,111.9881,-0.1145,-2.6821,9.0756,-0.0023,-3.1638,5.342,0.0111,-56.6081
107049,-107.7692,23.6015,-0.0124,0.1851,111.9881,-0.1145,-2.6821,9.0756,-0.0023,-3.1638,5.342,0.0111,-56.6081
107065,-107.7692,23.6015,-0.0124,0.1851,111.9881,-0.1145,-2.6821,9.0756,-0.0023,-3.1638,5.342,0.0111,-56.6081
107081,-107.7692,23.6015,-0.0124,0.1851,111.9881,-0.1145,-2.6821,9.0756,-0.0023,-3.1638,5.342,0.0111,-56.6081
107099,-108.0488,24.3904,-0.0121,0.1415,109.3192,-0.1434,-3.1289,9.1627,-0.0001,-5.1188,0.9974,0.0254,-15.4191
107113,-108.0488,24.3904,-0.0121,0.1415,109.3192,-0.1434,-3.1289,9.1627,-0.0001,-5.1188,0.9974,0.0254,-15.4191
107129,-108.0488,24.3904,-0.0121,0.1415,109.3192,-0.1434,-3.1289,9.1627,-0.0001,-5.1188,0.9974,0.0254,-15.4191
107145,-108.0488,24.3904,-0.0121,0.1415,109.3192,-0.1434,-3.1289,9.1627,-0.0001,-5.1188,0.9974,0.0254,-15.4191
107161,-108.0488,24.3904,-0.0121,0.1415,109.3192,-0.1434,-3.1289,9.1627,-0.0001,-5.1188,0.9974,0.0254,-15.4191
107177,-108.3374,25.2164,-0.0118,0.0962,108.5233,-0.0985,-3.1603,9.2697,-0.0002,-0.3502,1.1926,-0.0015,-5.6766
107193,-108.3374,25.2164,-0.0118,0.0962,108.5233,-0.0985,-3.1603,9.2697,-0.0002,-0.3502,1.1926,-0.0015,-5.6766
107209,-108.3374,25.2164,-0.0118,0.0962,108.5233,-0.0985,-3.1603,9.2697,-0.0002,-0.3502,1.1926,-0.0015,-5.6766
107225,-108.3374,25.2164,-0.0118,0.0962,108.5233,-0.0985,-3.1603,9.2697,-0.0002,-0.3502,1.1926,-0.0015,-5.6766
107241,-108.3374,25.2164,-0.0118,0.0962,108.5233,-0.0985,-3.1603,9.2697,-0.0002,-0.3502,1.1926,-0.0015,-5.6766
107257,-108.3374,25.2164,-0.0118,0.0962,108.5233,-0.0985,-3.1603,9.2697,-0.0002,-0.3502,1.1926,-0.0015,-5.6766
107275,-108.6184,26.0439,-0.0116,0.0638,108.2934,-0.0521,-3.1384,9.3541,-0.0003,0.2469,0.9497,-0.0012,-0.7048
107289,-108.6184,26.0439,-0.0116,0.0638,108.2934,-0.0521,-3.1384,9.3541,-0.0003,0.2469,0.9497,-0.0012,-0.7048
107305,-108.6184,26.0439,-0.0116,0.0638,108.2934,-0.0521,-3.1384,9.3541,-0.0003,0.2469,0.9497,-0.0012,-0.7048
107321,-108.6184,26.0439,-0.0116,0.0638,108.2934,-0.0521,-3.1384,9.3541,-0.0003,0.2469,0.9497,-0.0012,-0.7048
107337,-108.6184,26.0439,-0.0116,0.0638,108.2934,-0.0521,-3.1384,9.3541,-0.0003,0.2469,0.9497,-0.0012,-0.7048
107353,-108.6184,26.0439,-0.0116,0.0638,108.2934,-0.0521,-3.1384,9.3541,-0.0003,0.2469,0.9497,-0.0012,-0.7048
107369,-108.905,26.9029,-0.0115,0.0434,108.2173,-0.0238,-3.1309,9.4411,-0.0002,0.0821,0.9517,0.0013,0.1949
107385,-108.905,26.9029,-0.0115,0.0434,108.2173,-0.0238,-3.1309,9.4411,-0.0002,0.0821,0.9517,0.0013,0.1949
107401,-108.905,26.9029,-0.0115,0.0434,108.2173,-0.0238,-3.1309,9.4411,-0.0002,0.0821,0.9517,0.0013,0.1949
107417,-108.905,26.9029,-0.0115,0.0434,108.2173,-0.0238,-3.1309,9.4411,-0.0002,0.0821,0.9517,0.0013,0.1949
107433,-108.905,26.9029,-0.0115,0.0434,108.2173,-0.0238,-3.1309,9.4411,-0.0002,0.0821,0.9517,0.0013,0.1949
107449,-108.905,26.9029,-0.0115,0.0434,108.2173,-0.0238,-3.1309,9.4411,-0.0002,0.0821,0.9517,0.0013,0.1949
107465,-109.1967,27.7854,-0.0114,0.0302,108.1953,-0.0099,-3.1338,9.5036,-0.0001,-0.0316,0.671,0.0013,0.5388
107481,-109.1967,27.7854,-0.0114,0.0302,108.1953,-0.0099,-3.1338,9.5036,-0.0001,-0.0316,0.671,0.0013,0.5388
107497,-109.1967,27.7854,-0.0114,0.0302,108.1953,-0.0099,-3.1338,9.5036,-0.0001,-0.0316,0.671,0.0013,0.5388
107513,-109.1967,27.7854,-0.0114,0.0302,108.1953,-0.0099,-3.1338,9.5036,-0.0001,-0.0316,0.671,0.0013,0.5388
107529,-109.1967,27.7854,-0.0114,0.0302,108.1953,-0.0099,-3.1338,9.5036,-0.0001,-0.0316,0.671,0.0013,0.5388
107545,-109.4721,28.6215,-0.0113,0.0216,108.1821,-0.0042,-3.1401,9.5441,-0.0,-0.0713,0.4618,0.0006,-0.7977
107561,-109.4721,28.6215,-0.0113,0.0216,108.1821,-0.0042,-3.1401,9.5441,-0.0,-0.0713,0.4618,0.0006,-0.7977
107577,-109.4721,28.6215,-0.0113,0.0216,108.1821,-0.0042,-3.1401,9.5441,-0.0,-0.0713,0.4618,0.0006,-0.7977
107593,-109.4721,28.6215,-0.0113,0.0216,108.1821,-0.0042,-3.1401,9.5441,-0.0,-0.0713,0.4618,0.0006,-0.7977
107609,-109.4721,28.6215,-0.0113,0.0216,108.1821,-0.0042,-3.1401,9.5441,-0.0,-0.0713,0.4618,0.0006,-0.7977
107625,-109.4721,28.6215,-0.0113,0.0216,108.1821,-0.0042,-3.1401,9.5441,-0.0,-0.0713,0.4618,0.0006,-0.7977
107643,-109.7795,29.5566,-0.0113,0.0157,108.1799,-0.0016,-3.1514,9.5887,0.0,-0.1161,0.4563,0.0003,-0.7668
107657,-109.7795,29.5566,-0.0113,0.0157,108.1799,-0.0016,-3.1514,9.5887,0.0,-0.1161,0.4563,0.0003,-0.7668
107673,-109.7795,29.5566,-0.0113,0.0157,108.1799,-0.0016,-3.1514,9.5887,0.0,-0.1161,0.4563,0.0003,-0.7668
107689,-109.7795,29.5566,-0.0113,0.0157,108.1799,-0.0016,-3.1514,9.5887,0.0,-0.1161,0.4563,0.0003,-0.7668
107705,-109.7795,29.5566,-0.0113,0.0157,108.1799,-0.0016,-3.1514,9.5887,0.0,-0.1161,0.4563,0.0003,-0.7668
107721,-109.7795,29.5566,-0.0113,0.0157,108.1799,-0.0016,-3.1514,9.5887,0.0,-0.1161,0.4563,0.0003,-0.7668
107739,-110.0879,30.4951,-0.0113,0.0125,108.1793,-0.0006,-3.165,9.6337,0.0,-0.1385,0.4613,0.0,-0.7486
107753,-110.0879,30.4951,-0.0113,0.0125,108.1793,-0.0006,-3.165,9.6337,0.0,-0.1385,0.4613,0.0,-0.7486
107769,-110.0879,30.4951,-0.0113,0.0125,108.1793,-0.0006,-3.165,9.6337,0.0,-0.1385,0.4613,0.0,-0.7486
107785,-110.0879,30.4951,-0.0113,0.0125,108.1793,-0.0006,-3.165,9.6337,0.0,-0.1385,0.4613,0.0,-0.7486
107801,-110.0879,30.4951,-0.0113,0.0125,108.1793,-0.0006,-3.165,9.6337,0.0,-0.1385,0.4613,0.0,-0.7486
107817,-110.0879,30.4951,-0.0113,0.0125,108.1793,-0.0006,-3.165,9.6337,0.0,-0.1385,0.4613,0.0,-0.7486
107835,-110.3703,31.3549,-0.0112,0.0107,108.1866,-0.0002,-3.1768,9.6714,0.0,-0.1332,0.4228,-0.0002,0.7674
107849,-110.3703,31.3549,-0.0112,0.0107,108.1866,-0.0002,-3.1768,9.6714,0.0,-0.1332,0.4228,-0.0002,0.7674
107865,-110.3703,31.3549,-0.0112,0.0107,108.1866,-0.0002,-3.1768,9.6714,0.0,-0.1332,0.4228,-0.0002,0.7674
107881,-110.3703,31.3549,-0.0112,0.0107,108.1866,-0.0002,-3.1768,9.6714,0.0,-0.1332,0.4228,-0.0002,0.7674
107897,-110.3703,31.3549,-0.0112,0.0107,108.1866,-0.0002,-3.1768,9.6714,0.0,-0.1332,0.4228,-0.0002,0.7674
107913,-110.3703,31.3549,-0.0112,0.0107,108.1866,-0.0002,-3.1768,9.6714,0.0,-0.1332,0.4228,-0.0002,0.7674
107929,-110.6609,32.2396,-0.0112,0.0105,108.1859,-0.0001,-3.1951,9.7275,0.0,-0.201,0.6158,0.0,0.5768
107945,-110.6609,32.2396,-0.0112,0.0105,108.1859,-0.0001,-3.1951,9.7275,0.0,-0.201,0.6158,0.0,0.5768
107961,-110.6609,32.2396,-0.0112,0.0105,108.1859,-0.0001,-3.1951,9.7275,0.0,-0.201,0.6158,0.0,0.5768
107977,-110.6609,32.2396,-0.0112,0.0105,108.1859,-0.0001,-3.1951,9.7275,0.0,-0.201,0.6158,0.0,0.5768
107993,-110.6609,32.2396,-0.0112,0.0105,108.1859,-0.0001,-3.1951,9.7275,0.0,-0.201,0.6158,0.0,0.5768
108011,-110.9477,33.1128,-0.0112,0.0095,108.1789,-0.0001,-3.2051,9.758,0.0,-0.1113,0.3404,0.0,-0.7684
108025,-110.9477,33.1128,-0.0112,0.0095,108.1789,-0.0001,-3.2051,9.758,0.0,-0.1113,0.3404,0.0,-0.7684
108041,-110.9477,33.1128,-0.0112,0.0095,108.1789,-0.0001,-3.2051,9.758,0.0,-0.1113,0.3404,0.0,-0.7684
108057,-110.9477,33.1128,-0.0112,0.0095,108.1789,-0.0001,-3.2051,9.758,0.0,-0.1113,0.3404,0.0,-0.7684
108073,-110.9477,33.1128,-0.0112,0.0095,108.1789,-0.0001,-3.2051,9.758,0.0,-0.1113,0.3404,0.0,-0.7684
108089,-110.9477,33.1128,-0.0112,0.0095,108.1789,-0.0001,-3.2051,9.758,0.0,-0.1113,0.3404,0.0,-0.7684
108105,-111.2326,33.9801,-0.0112,0.0086,108.1862,-0.0,-3.2165,9.793,-0.0,-0.1282,0.3947,-0.0002,0.7404
108121,-111.2326,33.9801,-0.0112,0.0086,108.1862,-0.0,-3.2165,9.793,-0.0,-0.1282,0.3947,-0.0002,0.7404
108137,-111.2326,33.9801,-0.0112,0.0086,108.1862,-0.0,-3.2165,9.793,-0.0,-0.1282,0.3947,-0.0002,0.7404
