timestamp,x,y,z,pitch,yaw,roll,vx,vy,vz,ax,ay,az,yaw_rate
11813,-106.6867,-4.8475,0.5159,0.0,-89.3578,0.0,0.0,0.0,-1.2227,0.0,0.0,-9.8,0.0
11829,-106.6867,-4.8475,0.5041,0.0,-89.3578,0.0,0.0,0.0,-1.3108,0.0,0.0,-9.8,0.0
11845,-106.6867,-4.8475,0.5041,0.0,-89.3578,0.0,0.0,0.0,-1.3108,0.0,0.0,-9.8,0.0
11863,-106.6867,-4.8475,0.4527,0.0,-89.3578,0.0,0.0,0.0,-1.6426,0.0,0.0,-9.8,0.0
11878,-106.6867,-4.8475,0.4207,0.0,-89.3578,0.0,0.0,0.0,-1.8192,0.0,0.0,-9.8,0.0
11895,-106.6867,-4.8475,0.3854,0.0,-89.3578,0.0,0.0,0.0,-1.9965,0.0,0.0,-9.8,0.0
11909,-106.6867,-4.8475,0.3479,0.0,-89.3578,0.0,0.0,0.0,-2.1695,0.0,0.0,-9.8,0.0
11925,-106.6867,-4.8475,0.3479,0.0,-89.3578,0.0,0.0,0.0,-2.1695,0.0,0.0,-9.8,0.0
11941,-106.6867,-4.8475,0.3035,0.0,-89.3578,0.0,0.0,0.0,-2.3578,0.0,0.0,-9.8,0.0
11957,-106.6867,-4.8475,0.2581,0.0,-89.3578,0.0,0.0,0.0,-2.5361,0.0,0.0,-9.8,0.0
11974,-106.6867,-4.8475,0.2118,0.0,-89.3578,0.0,0.0,0.0,-2.7065,0.0,0.0,-9.8,0.0
11990,-106.6867,-4.8475,0.1639,0.0,-89.3578,0.0,0.0,0.0,-2.8724,0.0,0.0,-9.8,0.0
12007,-106.6867,-4.8475,0.1124,0.0,-89.3578,0.0,0.0,0.0,-3.0406,0.0,0.0,-9.8,0.0
12023,-106.6867,-4.8475,0.0589,0.0,-89.3578,0.0,0.0,0.0,-3.2064,0.0,0.0,-9.8,0.0
12039,-106.6868,-4.8456,0.0127,-0.0027,-89.3578,0.0,-0.0006,0.0558,-2.4298,-0.0356,3.1698,44.1253,0.0009
12055,-106.6869,-4.8424,-0.0203,-0.0065,-89.3432,0.0,-0.0016,0.1388,-1.7836,-0.0599,4.8716,37.9155,1.712
12071,-106.6869,-4.8391,-0.0451,-0.0085,-89.3438,0.0001,-0.0012,0.1238,-1.2566,0.0265,-0.8334,29.2942,1.276
12086,-106.687,-4.8355,-0.0617,-0.0105,-89.3445,0.0,-0.0024,0.1967,-0.8548,-0.0689,4.1617,22.9456,-0.7694
12101,-106.6871,-4.8321,-0.0723,-0.0116,-89.3352,-0.0001,-0.0025,0.2195,-0.554,-0.0086,1.3476,17.7478,0.6128
12117,-106.6872,-4.8266,-0.0786,-0.0153,-89.3167,-0.0001,-0.0026,0.3295,-0.3259,-0.006,6.5687,13.6254,2.295
12134,-106.6872,-4.8202,-0.0819,-0.0182,-89.3337,-0.0001,-0.0051,0.3903,-0.1459,-0.14,3.4597,10.242,-1.8852
12149,-106.6872,-4.8202,-0.0819,-0.0182,-89.3337,-0.0001,-0.0051,0.3903,-0.1459,-0.14,3.4597,10.242,-1.8852
12165,-106.6872,-4.8115,-0.0826,-0.0234,-89.3384,-0.0003,-0.0031,0.5366,-0.0125,0.1137,8.3414,7.6059,-0.318
12181,-106.6873,-4.8017,-0.0815,-0.0279,-89.3409,-0.0003,-0.0055,0.6095,0.0824,-0.1429,4.242,5.5261,0.2072
12199,-106.6874,-4.7898,-0.079,-0.0325,-89.3438,-0.0,-0.0094,0.6666,0.1527,-0.2104,3.1247,3.8438,1.0647
12215,-106.6877,-4.7765,-0.0756,-0.0371,-89.3318,0.0002,-0.0102,0.7463,0.1979,-0.0456,4.5028,2.5516,0.7609
12230,-106.688,-4.7619,-0.0718,-0.0416,-89.3171,0.0003,-0.0112,0.863,0.2252,-0.0575,6.7718,1.5857,1.427
12247,-106.6882,-4.7454,-0.0677,-0.0466,-89.3185,0.0002,-0.011,0.9877,0.24,0.012,7.2901,0.8646,-0.0821
12263,-106.6884,-4.7256,-0.063,-0.0507,-89.3204,0.0001,-0.0123,1.0834,0.2458,-0.0709,5.0258,0.3071,0.0333
12277,-106.6886,-4.706,-0.0581,-0.0536,-89.3229,0.0001,-0.0131,1.1366,0.2721,-0.0438,2.9731,1.4645,-0.1246
12293,-106.6889,-4.6867,-0.0537,-0.0553,-89.3046,0.0002,-0.0159,1.186,0.2541,-0.1627,2.9407,-1.0725,0.963
12309,-106.6889,-4.6867,-0.0537,-0.0553,-89.3046,0.0002,-0.0159,1.186,0.2541,-0.1627,2.9407,-1.0725,0.963
12325,-106.6891,-4.6663,-0.0496,-0.0562,-89.3199,0.0004,-0.0162,1.2336,0.2382,-0.0197,2.7823,-0.9292,-0.7065
12342,-106.6893,-4.6455,-0.0458,-0.057,-89.3275,0.0003,-0.017,1.3556,0.2201,-0.0492,7.3771,-1.0931,-0.2993
12357,-106.6896,-4.6235,-0.0424,-0.0572,-89.3315,0.0003,-0.0164,1.3493,0.2035,0.0347,-0.3789,-0.9851,-0.2143
12373,-106.6898,-4.6011,-0.0391,-0.0555,-89.3344,0.0002,-0.016,1.3435,0.1868,0.0237,-0.3355,-0.9712,-0.1554
12391,-106.6901,-4.5781,-0.036,-0.0524,-89.3366,0.0,-0.0157,1.3379,0.1702,0.0191,-0.3172,-0.9355,-0.11
12405,-106.6903,-4.556,-0.0333,-0.0489,-89.3377,0.0,-0.0155,1.3351,0.1533,0.011,-0.1642,-0.9907,-0.0599
12423,-106.6906,-4.5337,-0.0309,-0.0451,-89.3379,-0.0,-0.0154,1.3317,0.1386,0.0048,-0.1951,-0.8533,-0.0102
12439,-106.6909,-4.5119,-0.0288,-0.0415,-89.3369,-0.0001,-0.0155,1.3305,0.1246,-0.0034,-0.0684,-0.8245,0.0586
12455,-106.6911,-4.4898,-0.0269,-0.0389,-89.3363,-0.0001,-0.016,1.3924,0.1121,-0.0318,3.6934,-0.7461,0.0049
12469,-106.6914,-4.4635,-0.0248,-0.0361,-89.3362,-0.0001,-0.0159,1.3838,0.1014,0.0029,-0.4386,-0.5435,0.0037
12485,-106.6914,-4.4635,-0.0248,-0.0361,-89.3362,-0.0001,-0.0159,1.3838,0.1014,0.0029,-0.4386,-0.5435,0.0037
12501,-106.6917,-4.4371,-0.023,-0.0328,-89.3362,-0.0001,-0.0159,1.3785,0.0888,0.0014,-0.2683,-0.6382,0.0034
12517,-106.692,-4.4133,-0.0216,-0.0301,-89.3353,-0.0001,-0.016,1.385,0.077,-0.0055,0.3665,-0.6567,0.1006
12533,-106.6923,-4.3891,-0.0204,-0.0299,-89.3349,-0.0001,-0.0175,1.52,0.0683,-0.087,7.8559,-0.5104,-0.0462
12551,-106.6926,-4.3639,-0.0194,-0.0305,-89.3354,-0.0001,-0.0175,1.514,0.0609,0.0019,-0.3488,-0.4329,-0.0273
12565,-106.6929,-4.3382,-0.0184,-0.032,-89.3354,-0.0001,-0.019,1.6432,0.0543,-0.0919,7.7113,-0.3958,0.0342
12584,-106.6932,-4.3084,-0.0175,-0.0336,-89.335,-0.0001,-0.019,1.6403,0.0486,-0.0009,-0.1568,-0.3022,0.0161
12599,-106.6936,-4.279,-0.0167,-0.0357,-89.335,-0.0,-0.0206,1.7791,0.0425,-0.091,7.8585,-0.3457,-0.0159
12615,-106.6939,-4.2468,-0.0159,-0.0377,-89.3352,-0.0,-0.0206,1.7776,0.0376,0.001,-0.077,-0.2618,-0.0041
12629,-106.6943,-4.2148,-0.0153,-0.0399,-89.3353,-0.0,-0.0223,1.9186,0.0329,-0.0924,7.9437,-0.2669,-0.0031
12645,-106.6943,-4.2148,-0.0153,-0.0399,-89.3353,-0.0,-0.0223,1.9186,0.0329,-0.0924,7.9437,-0.2669,-0.0031
12661,-106.6947,-4.1804,-0.0147,-0.0424,-89.3353,-0.0,-0.0224,1.9337,0.0291,-0.0095,0.8255,-0.2102,-0.0015
12677,-106.6951,-4.1474,-0.0143,-0.0448,-89.3353,-0.0,-0.024,2.0698,0.0255,-0.0939,8.0946,-0.2149,-0.0017
12693,-106.6955,-4.1114,-0.0138,-0.0484,-89.3353,-0.0,-0.0248,2.1363,0.0227,-0.0446,3.8421,-0.1618,0.0012
12711,-106.6959,-4.0747,-0.0135,-0.0517,-89.3353,-0.0,-0.0264,2.2742,0.02,-0.0946,8.1478,-0.1551,0.0008
12725,-106.6964,-4.0331,-0.0131,-0.0558,-89.3354,-0.0,-0.0271,2.3399,0.0178,-0.042,3.6088,-0.1221,-0.0067
12743,-106.6969,-3.9919,-0.0128,-0.0589,-89.3354,-0.0,-0.0287,2.478,0.0156,-0.0916,7.9259,-0.1277,-0.005
12759,-106.6974,-3.9479,-0.0125,-0.0633,-89.3352,-0.0,-0.0299,2.5795,0.0138,-0.0676,5.8114,-0.1043,0.0377
12775,-106.698,-3.9005,-0.0123,-0.0671,-89.3348,-0.0,-0.0317,2.7274,0.0122,-0.0959,8.1397,-0.0887,0.0054
12790,-106.6985,-3.8505,-0.012,-0.0707,-89.3354,0.0,-0.0325,2.795,0.0106,-0.0431,3.7018,-0.0829,-0.073
12805,-106.6991,-3.7994,-0.0118,-0.0735,-89.3363,-0.0,-0.0341,2.945,0.0093,-0.0925,8.3116,-0.0738,-0.027
12821,-106.6991,-3.7994,-0.0118,-0.0735,-89.3363,-0.0,-0.0341,2.945,0.0093,-0.0925,8.3116,-0.0738,-0.027
12837,-106.6997,-3.7481,-0.0117,-0.0774,-89.3341,-0.0,-0.0355,3.0613,0.0081,-0.0792,6.7826,-0.0684,0.2818
12853,-106.7005,-3.6846,-0.0115,-0.0828,-89.3304,0.0,-0.0383,3.2613,0.0068,-0.1402,9.9229,-0.065,0.1256
12871,-106.7013,-3.6203,-0.0113,-0.0916,-89.3305,0.0001,-0.0405,3.4513,0.0063,-0.1186,10.2115,-0.0292,-0.011
12886,-106.702,-3.5595,-0.0112,-0.0949,-89.3334,0.0001,-0.0404,3.4619,0.0055,0.0038,0.6093,-0.0469,-0.1502
12903,-106.7027,-3.4976,-0.0111,-0.0991,-89.3344,0.0,-0.0428,3.6724,0.0048,-0.1378,12.4886,-0.0386,-0.0656
12917,-106.7035,-3.4302,-0.011,-0.101,-89.3331,0.0,-0.0433,3.7156,0.0043,-0.032,2.4089,-0.0305,0.0757
12933,-106.7043,-3.361,-0.0109,-0.1034,-89.3352,0.0,-0.0453,3.8985,0.0037,-0.1087,10.3341,-0.0297,-0.1103
12949,-106.7043,-3.361,-0.0109,-0.1034,-89.3352,0.0,-0.0453,3.8985,0.0037,-0.1087,10.3341,-0.0297,-0.1103
12965,-106.7052,-3.2857,-0.0108,-0.1031,-89.3302,0.0,-0.0458,3.9271,0.0033,-0.03,1.5054,-0.0249,0.247
12981,-106.706,-3.2149,-0.0108,-0.1041,-89.3345,-0.0,-0.0477,4.1253,0.0028,-0.1108,11.5416,-0.0246,-0.2149
12997,-106.7069,-3.1396,-0.0107,-0.1044,-89.3213,0.0001,-0.0494,4.1979,0.0025,-0.0914,4.0793,-0.0189,0.6737
13014,-106.7077,-3.0652,-0.0107,-0.1038,-89.3359,0.0,-0.0499,4.286,0.0022,-0.0282,5.1095,-0.0173,-0.2651
13029,-106.7088,-2.989,-0.0107,-0.1031,-89.3125,0.0002,-0.0523,4.3941,0.002,-0.1407,6.2593,-0.0147,1.0831
13046,-106.7097,-2.9082,-0.0106,-0.1018,-89.3232,0.0002,-0.0532,4.4588,0.0017,-0.0509,3.6015,-0.0132,0.1044
13063,-106.7108,-2.8293,-0.0106,-0.1008,-89.2971,0.0004,-0.0563,4.5884,0.0015,-0.1792,7.5449,-0.0123,1.2267
13078,-106.7117,-2.7491,-0.0106,-0.1001,-89.3037,0.0005,-0.0571,4.6788,0.0013,-0.0498,5.2997,-0.0105,0.1851
13094,-106.713,-2.6644,-0.0106,-0.0995,-89.2755,0.0007,-0.06,4.7898,0.0012,-0.1637,6.3015,-0.0087,1.1443
13111,-106.714,-2.5822,-0.0106,-0.0992,-89.2823,0.0008,-0.0612,4.897,0.001,-0.0686,6.3959,-0.0087,0.192
13126,-106.7152,-2.496,-0.0105,-0.0994,-89.2591,0.001,-0.0643,5.0165,0.0009,-0.1807,6.9685,-0.0072,0.8128
13141,-106.7163,-2.4107,-0.0105,-0.0998,-89.2667,0.001,-0.0653,5.1315,0.0008,-0.0612,6.9264,-0.0057,0.169
13157,-106.7163,-2.4107,-0.0105,-0.0998,-89.2667,0.001,-0.0653,5.1315,0.0008,-0.0612,6.9264,-0.0057,0.169
13173,-106.7177,-2.3122,-0.0105,-0.1003,-89.2434,0.0012,-0.0681,5.2394,0.0007,-0.1495,5.7607,-0.0055,0.6298
13189,-106.7189,-2.2106,-0.0105,-0.1,-89.2586,0.0011,-0.0689,5.3273,0.0006,-0.0441,4.63,-0.006,-0.0105
13207,-106.7203,-2.1139,-0.0105,-0.0998,-89.2363,0.0013,-0.072,5.4549,0.0005,-0.1757,7.2078,-0.0038,0.6792
13221,-106.7215,-2.0157,-0.0105,-0.0999,-89.2462,0.0012,-0.0731,5.5735,0.0005,-0.0585,6.7376,-0.0036,0.0413
13238,-106.723,-1.9194,-0.0105,-0.1007,-89.2293,0.0013,-0.0762,5.7084,0.0004,-0.1838,7.9867,-0.0023,0.4225
13254,-106.7242,-1.8204,-0.0105,-0.1023,-89.2365,0.0012,-0.0776,5.8547,0.0004,-0.0842,8.6476,-0.003,0.0216
13271,-106.726,-1.7005,-0.0104,-0.1044,-89.2188,0.0013,-0.0805,5.992,0.0003,-0.1482,6.868,-0.0021,0.5374
13285,-106.7273,-1.593,-0.0104,-0.1054,-89.2329,0.0011,-0.0816,6.1062,0.0003,-0.0578,6.4949,-0.0028,-0.3745
13301,-106.7288,-1.4889,-0.0104,-0.1065,-89.2194,0.0012,-0.0843,6.2448,0.0002,-0.1654,8.3041,-0.0022,0.4398
13317,-106.7302,-1.3789,-0.0104,-0.1085,-89.2266,0.0011,-0.0862,6.4054,0.0002,-0.1065,9.3369,-0.0018,-0.1839
13333,-106.7302,-1.3789,-0.0104,-0.1085,-89.2266,0.0011,-0.0862,6.4054,0.0002,-0.1065,9.3369,-0.0018,-0.1839
13349,-106.7318,-1.2662,-0.0104,-0.111,-89.2191,0.0011,-0.0889,6.5628,0.0002,-0.158,9.1454,-0.0015,0.2725
13365,-106.7333,-1.1486,-0.0103,-0.1135,-89.2244,0.001,-0.0906,6.7079,0.0002,-0.0993,8.2586,-0.0015,-0.1662
13382,-106.735,-1.0283,-0.0103,-0.1153,-89.2165,0.001,-0.0928,6.834,0.0001,-0.1262,7.1606,-0.001,0.3048
13397,-106.7366,-0.9106,-0.0103,-0.1163,-89.2242,0.0009,-0.0942,6.954,0.0001,-0.0779,7.0762,-0.0014,-0.2917
13415,-106.7383,-0.785,-0.0103,-0.117,-89.2151,0.0009,-0.0964,7.0788,0.0001,-0.1249,7.0279,-0.0014,0.3059
13430,-106.74,-0.662,-0.0103,-0.1173,-89.2227,0.0008,-0.0977,7.1991,0.0001,-0.0786,7.0365,0.0,-0.2572
13447,-106.7417,-0.5373,-0.0103,-0.1176,-89.2159,0.0008,-0.0998,7.3255,0.0001,-0.1243,7.4153,-0.0009,0.2113
13463,-106.7434,-0.4093,-0.0103,-0.1179,-89.2206,0.0007,-0.1014,7.4567,0.0001,-0.0927,7.6285,-0.0018,-0.1172
13478,-106.7453,-0.2717,-0.0103,-0.1181,-89.217,0.0007,-0.1035,7.5887,0.0001,-0.1118,7.2702,0.001,0.0825
13493,-106.7471,-0.1378,-0.0103,-0.118,-89.2195,0.0006,-0.1049,7.7029,0.0,-0.0846,6.559,-0.0019,-0.0731
13509,-106.749,-0.0006,-0.0103,-0.1176,-89.2171,0.0006,-0.1066,7.8169,0.0001,-0.0969,6.4843,0.001,0.0701
13527,-106.7509,0.136,-0.0103,-0.1169,-89.2191,0.0005,-0.1081,7.9282,0.0,-0.0836,6.4481,-0.0011,-0.0573
13541,-106.7509,0.136,-0.0103,-0.1169,-89.2191,0.0005,-0.1081,7.9282,0.0,-0.0836,6.4481,-0.0011,-0.0573
13557,-106.7527,0.2705,-0.0103,-0.1163,-89.2176,0.0005,-0.1097,8.0435,0.0,-0.0993,6.8869,-0.0,0.036
13573,-106.7546,0.4073,-0.0103,-0.1159,-89.2183,0.0004,-0.1114,8.1661,0.0,-0.0985,7.2998,0.0,-0.0077
13589,-106.7565,0.5491,-0.0103,-0.1157,-89.2181,0.0004,-0.1131,8.2895,0.0,-0.0992,7.1985,0.0002,0.0008
13607,-106.7585,0.6959,-0.0103,-0.1155,-89.2181,0.0004,-0.1147,8.4094,0.0,-0.0939,6.8514,-0.0005,0.0004
13623,-106.7605,0.8426,-0.0103,-0.1152,-89.2181,0.0003,-0.1163,8.5231,0.0,-0.0903,6.5929,-0.0003,0.0004
13639,-106.7626,0.994,-0.0103,-0.1146,-89.2181,0.0003,-0.1178,8.6345,0.0,-0.0868,6.3416,0.0002,0.0003
13654,-106.7645,1.1383,-0.0103,-0.114,-89.2181,0.0003,-0.1193,8.7388,0.0,-0.0862,6.3004,-0.001,0.0001
13670,-106.7666,1.2857,-0.0103,-0.1132,-89.2181,0.0003,-0.1207,8.844,0.0,-0.086,6.2974,0.0003,0.0001
13687,-106.7687,1.4438,-0.0103,-0.1123,-89.2181,0.0003,-0.1221,8.9507,0.0,-0.0822,6.0278,-0.001,0.0003
13703,-106.7709,1.6059,-0.0103,-0.1111,-89.2181,0.0002,-0.1235,9.053,0.0,-0.078,5.7001,0.0011,0.0004
13717,-106.7731,1.7662,-0.0104,-0.1098,-89.2181,0.0002,-0.1249,9.1495,0.0,-0.0751,5.502,-0.0005,0.0005
13733,-106.7731,1.7662,-0.0104,-0.1098,-89.2181,0.0002,-0.1249,9.1495,0.0,-0.0751,5.502,-0.0005,0.0005
13749,-106.7755,1.9385,-0.0104,-0.1082,-89.2181,0.0002,-0.1262,9.2467,-0.0,-0.0711,5.205,-0.001,0.0004
13765,-106.7778,2.1085,-0.0104,-0.1064,-89.2181,0.0001,-0.1274,9.3355,0.0,-0.0666,4.8739,0.001,0.0004
13782,-106.78,2.2727,-0.0104,-0.1045,-89.2181,0.0001,-0.1286,9.4224,0.0,-0.0679,4.9817,-0.0004,0.0002
13799,-106.7824,2.4475,-0.0104,-0.1025,-89.2181,0.0001,-0.1298,9.5143,0.0,-0.068,4.9895,-0.0,0.0001
13815,-106.7847,2.6125,-0.0104,-0.1007,-89.2181,0.0001,-0.131,9.6007,0.0,-0.0685,5.0218,0.0001,-0.0
13831,-106.787,2.7813,-0.0104,-0.0991,-89.2182,0.0001,-0.1323,9.6912,0.0,-0.0708,5.1884,-0.0,-0.0
13846,-106.7893,2.9507,-0.0104,-0.0977,-89.2181,0.0001,-0.1335,9.7811,0.0,-0.0707,5.181,-0.0002,-0.0
13861,-106.7916,3.121,-0.0104,-0.0963,-89.2181,0.0001,-0.1347,9.8703,0.0,-0.0704,5.163,0.0001,0.0
13878,-106.7941,3.3054,-0.0105,-0.095,-89.2181,0.0001,-0.136,9.9628,-0.0,-0.068,4.9899,-0.0007,0.0001
13893,-106.7941,3.3054,-0.0105,-0.095,-89.2181,0.0001,-0.136,9.9628,-0.0,-0.068,4.9899,-0.0007,0.0001
13909,-106.7965,3.4808,-0.0105,-0.0938,-89.2181,0.0001,-0.1371,10.0486,0.0,-0.0668,4.9017,0.0008,0.0001
13925,-106.799,3.6649,-0.0105,-0.0926,-89.2181,0.0001,-0.1383,10.1363,-0.0,-0.0659,4.822,-0.0012,0.0
13942,-106.8015,3.8453,-0.0105,-0.0914,-89.2181,0.0001,-0.1395,10.2203,0.0,-0.0649,4.7539,0.0012,0.0001
13957,-106.8041,4.0345,-0.0105,-0.0902,-89.2181,0.0001,-0.1406,10.306,0.0,-0.0635,4.6561,0.0004,0.0002
13975,-106.8064,4.2091,-0.0105,-0.0891,-89.2181,0.0001,-0.1417,10.3848,0.0,-0.0639,4.6817,-0.0008,0.0002
13990,-106.8089,4.3853,-0.0105,-0.0881,-89.2181,0.0001,-0.1428,10.464,0.0,-0.064,4.696,0.0007,0.0002
14008,-106.8115,4.5781,-0.0105,-0.087,-89.2181,0.0,-0.1439,10.5478,-0.0,-0.0625,4.5781,-0.0007,0.0002
14023,-106.814,4.7624,-0.0105,-0.0859,-89.2181,0.0,-0.145,10.6262,-0.0,-0.0616,4.5101,-0.0001,0.0002
14037,-106.8166,4.9524,-0.0105,-0.0849,-89.2181,0.0,-0.1461,10.7051,0.0,-0.0605,4.4371,0.0002,0.0003
14053,-106.8191,5.1371,-0.0105,-0.0839,-89.2181,0.0,-0.1471,10.7802,0.0,-0.0597,4.3764,0.0001,0.0003
14069,-106.8191,5.1371,-0.0105,-0.0839,-89.2181,0.0,-0.1471,10.7802,0.0,-0.0597,4.3764,0.0001,0.0003
14085,-106.8217,5.3255,-0.0105,-0.0829,-89.2181,0.0,-0.1481,10.855,0.0,-0.0588,4.3054,0.0,0.0003
14101,-106.8242,5.5117,-0.0106,-0.0819,-89.2181,0.0,-0.1491,10.9274,-0.0,-0.0578,4.2385,-0.0008,0.0003
14117,-106.8268,5.7006,-0.0106,-0.0809,-89.2181,0.0,-0.1501,10.9991,0.0,-0.057,4.1692,0.0011,0.0002
14133,-106.8294,5.8933,-0.0106,-0.0799,-89.2181,0.0,-0.1511,11.0706,0.0,-0.0559,4.1012,0.0003,0.0002
14150,-106.8322,6.099,-0.0106,-0.0788,-89.2181,0.0,-0.1521,11.1451,0.0,-0.055,4.032,-0.0004,0.0003
14167,-106.8349,6.2961,-0.0106,-0.0778,-89.2181,0.0,-0.153,11.215,0.0,-0.0542,3.9722,0.0003,0.0003
14181,-106.8377,6.5019,-0.0106,-0.0767,-89.2181,0.0,-0.154,11.2865,0.0,-0.0534,3.9124,-0.0004,0.0003
14199,-106.8404,6.6994,-0.0106,-0.0757,-89.2181,0.0,-0.1549,11.3537,0.0,-0.0526,3.8578,-0.0,0.0003
14213,-106.8431,6.896,-0.0106,-0.0747,-89.2181,0.0,-0.1558,11.4193,0.0,-0.0519,3.8055,-0.0,0.0003
14231,-106.8458,7.093,-0.0106,-0.0737,-89.2181,0.0,-0.1567,11.4838,0.0,-0.0512,3.7545,-0.0,0.0002
14245,-106.8458,7.093,-0.0106,-0.0737,-89.2181,0.0,-0.1567,11.4838,0.0,-0.0512,3.7545,-0.0,0.0002
14261,-106.8487,7.3043,-0.0106,-0.0727,-89.2182,0.0,-0.1576,11.5516,-0.0,-0.0505,3.7035,-0.0003,0.0003
14277,-106.8516,7.5189,-0.0106,-0.0717,-89.2182,0.0,-0.1586,11.6192,-0.0,-0.0499,3.6527,-0.0009,0.0003
14294,-106.8543,7.7169,-0.0106,-0.0707,-89.2181,-0.0,-0.1594,11.6804,-0.0,-0.0492,3.6057,-0.0,0.0002
14309,-106.8572,7.9255,-0.0106,-0.0698,-89.2181,-0.0,-0.1603,11.7438,-0.0,-0.0486,3.5608,0.001,0.0002
14327,-106.8603,8.1545,-0.0107,-0.0688,-89.2181,0.0,-0.1612,11.812,-0.0,-0.048,3.5137,-0.0004,0.0003
14343,-106.8632,8.3644,-0.0107,-0.0679,-89.2181,0.0,-0.162,11.8733,0.0,-0.0472,3.4675,0.001,0.0002
14359,-106.8659,8.568,-0.0107,-0.067,-89.2181,0.0,-0.1628,11.9319,0.0,-0.0467,3.4258,-0.0,0.0002
14375,-106.8688,8.7753,-0.0107,-0.0662,-89.2181,0.0,-0.1636,11.9905,0.0,-0.0462,3.3851,-0.0002,0.0001
14389,-106.8688,8.7753,-0.0107,-0.0662,-89.2181,0.0,-0.1636,11.9905,0.0,-0.0462,3.3851,-0.0002,0.0001
14406,-106.872,9.0126,-0.0107,-0.0652,-89.2181,0.0,-0.1645,12.0564,0.0,-0.0456,3.3426,0.0001,0.0002
14421,-106.8748,9.2172,-0.0107,-0.0644,-89.2181,0.0,-0.1653,12.1122,0.0,-0.045,3.2999,-0.0003,0.0001
14437,-106.8776,9.4192,-0.0107,-0.0637,-89.2181,0.0,-0.166,12.1664,0.0,-0.0445,3.2627,0.0001,0.0001
14453,-106.8805,9.6375,-0.0107,-0.0629,-89.2181,0.0,-0.1668,12.2241,-0.0,-0.044,3.2251,-0.0007,0.0001
14470,-106.8836,9.8588,-0.0107,-0.0608,-89.218,0.0017,-0.1676,12.2821,-0.0016,-0.0435,3.2146,-0.0862,0.0148
14486,-106.8865,10.0703,-0.0107,-0.0601,-89.2178,0.0015,-0.1682,12.3361,-0.0001,-0.0378,3.1476,0.088,0.0099
14502,-106.8894,10.2872,-0.0107,-0.0594,-89.2177,0.0013,-0.169,12.3906,-0.0,-0.045,3.11,0.0024,0.0079
14518,-106.8923,10.4981,-0.0107,-0.0587,-89.2176,0.0012,-0.1698,12.4428,0.0,-0.0442,3.074,0.0023,0.0063
14535,-106.8952,10.7107,-0.0107,-0.0581,-89.2175,0.0011,-0.1705,12.4945,0.0,-0.0435,3.0395,0.0009,0.0051
14549,-106.8986,10.957,-0.0107,-0.0573,-89.2174,0.001,-0.1714,12.5535,0.0001,-0.0428,3.0035,0.0006,0.004
14565,-106.8986,10.957,-0.0107,-0.0573,-89.2174,0.001,-0.1714,12.5535,0.0001,-0.0428,3.0035,0.0006,0.004
14581,-106.9017,11.1895,-0.0108,-0.0567,-89.2174,0.0009,-0.1721,12.6083,0.0,-0.042,2.9651,-0.0005,0.0031
14598,-106.905,11.4319,-0.0108,-0.056,-89.2173,0.0008,-0.1729,12.6634,0.0001,-0.0406,2.8762,0.0006,0.0025
14613,-106.9079,11.6408,-0.0108,-0.0554,-89.2173,0.0007,-0.1735,12.7073,0.0001,-0.0376,2.6669,0.0001,0.002
14630,-106.9109,11.8633,-0.0108,-0.0545,-89.2172,0.0007,-0.1742,12.7509,0.0001,-0.0351,2.4963,-0.0003,0.0016
14646,-106.914,12.0862,-0.0108,-0.0536,-89.2172,0.0006,-0.1747,12.7915,0.0,-0.0327,2.3319,-0.0013,0.0013
14663,-106.9171,12.3151,-0.0108,-0.0525,-89.2172,0.0006,-0.1753,12.8304,0.0,-0.0304,2.1774,0.0001,0.001
14677,-106.9206,12.5696,-0.0108,-0.051,-89.2172,0.0005,-0.1758,12.8706,0.0,-0.0284,2.0323,0.0008,0.0008
14693,-106.9236,12.7877,-0.0108,-0.0498,-89.2172,0.0005,-0.1763,12.9024,0.0,-0.0262,1.8787,-0.0004,0.0006
14709,-106.9236,12.7877,-0.0108,-0.0498,-89.2172,0.0005,-0.1763,12.9024,0.0,-0.0262,1.8787,-0.0004,0.0006
14725,-106.9266,13.0096,-0.0108,-0.0484,-89.2172,0.0004,-0.1767,12.9325,0.0,-0.0244,1.7523,0.0001,0.0005
14741,-106.9296,13.2278,-0.0108,-0.0469,-89.2172,0.0004,-0.1771,12.9601,0.0,-0.0227,1.6367,-0.0002,0.0004
14757,-106.9326,13.4506,-0.0108,-0.0454,-89.2172,0.0004,-0.1774,12.9863,0.0,-0.0211,1.5307,-0.0,0.0003
14775,-106.936,13.6977,-0.0108,-0.0436,-89.2171,0.0003,-0.1778,13.0136,0.0,-0.0198,1.4354,-0.0003,0.0003
14791,-106.9392,13.9334,-0.0109,-0.0419,-89.2171,0.0003,-0.1781,13.0377,0.0,-0.0184,1.3319,-0.0005,0.0002
14807,-106.9424,14.1618,-0.0109,-0.0403,-89.2171,0.0003,-0.1784,13.0593,0.0,-0.0171,1.2358,0.0009,0.0002
14839,-106.9487,14.6235,-0.0109,-0.037,-89.2171,0.0002,-0.179,13.0986,0.0,-0.0147,1.0721,-0.0002,0.0001
14853,-106.9524,14.8572,-0.0109,-0.0352,-89.2416,0.0046,-0.2364,13.1124,0.0,-3.2189,0.775,0.0005,-1.9582
14869,-106.9524,14.8572,-0.0109,-0.0352,-89.2416,0.0046,-0.2364,13.1124,0.0,-3.2189,0.775,0.0005,-1.9582
14886,-106.9579,15.1037,-0.0109,-0.0331,-89.3338,0.0182,-0.3527,13.1149,0.0001,-6.1884,0.1353,0.0062,-5.9782
14901,-106.9647,15.3309,-0.0109,-0.0308,-89.5007,0.0374,-0.4913,13.1064,0.0003,-7.9992,-0.4896,0.0114,-10.8935
14917,-106.9738,15.5639,-0.0109,-0.0277,-89.7747,0.063,-0.6559,13.0868,0.0006,-9.2488,-1.1026,0.0127,-16.9314
14934,-106.9846,15.7867,-0.011,-0.0243,-90.1463,0.0905,-0.8254,13.0587,0.0008,-9.9347,-1.6507,0.0135,-23.4394
14951,-106.9984,16.0217,-0.011,-0.0198,-90.6714,0.1217,-1.0123,13.0196,0.001,-10.3619,-2.1677,0.0108,-31.0233
14967,-107.0137,16.2452,-0.011,-0.0151,-91.3057,0.1508,-1.1909,12.9751,0.0012,-10.3727,-2.5798,0.0098,-38.7848
14982,-107.0312,16.4703,-0.011,-0.0097,-92.0894,0.1789,-1.3686,12.9242,0.0012,-10.2055,-2.9247,0.0048,-47.1113
14999,-107.0511,16.7001,-0.011,-0.0038,-93.0513,0.2053,-1.5443,12.8671,0.0013,-9.8387,-3.1999,0.002,-56.1075
15015,-107.073,16.9304,-0.011,0.0025,-94.1894,0.2283,-1.711,12.8061,0.0012,-9.2563,-3.385,-0.0019,-65.5733
15029,-107.0962,17.1566,-0.0111,0.0087,-95.4853,0.2465,-1.862,12.7443,0.0012,-8.4907,-3.4736,-0.0047,-75.2592
15045,-107.1199,17.3759,-0.0111,0.0147,-96.918,0.2597,-1.9937,12.684,0.001,-7.5859,-3.4734,-0.0078,-84.9726
15061,-107.1199,17.3759,-0.0111,0.0147,-96.918,0.2597,-1.9937,12.684,0.001,-7.5859,-3.4734,-0.0078,-84.9726
15077,-107.1462,17.6093,-0.0111,0.0208,-98.6485,0.2689,-2.1174,12.6198,0.0009,-6.6499,-3.4497,-0.0095,-95.6833
15093,-107.1704,17.8186,-0.0111,0.0256,-100.38,0.272,-2.208,12.5652,0.0006,-5.3897,-3.2533,-0.0122,-105.484
15110,-107.1978,18.0511,-0.0112,0.0303,-102.524,0.2701,-2.2895,12.5061,0.0004,-4.331,-3.1368,-0.0125,-116.6983
15127,-107.2215,18.2537,-0.0112,0.0335,-104.5741,0.2638,-2.3363,12.4598,0.0002,-2.8335,-2.8059,-0.0134,-126.5614
15143,-107.2455,18.4615,-0.0112,0.0356,-106.8695,0.2526,-2.3638,12.4157,-0.0,-1.6086,-2.58,-0.0131,-136.8591
15159,-107.2695,18.675,-0.0112,0.0366,-109.4355,0.2364,-2.3689,12.3746,-0.0002,-0.2849,-2.3209,-0.0121,-147.5866
15175,-107.2935,18.899,-0.0112,0.036,-112.3661,0.2144,-2.3482,12.336,-0.0005,1.0988,-2.0591,-0.0135,-159.0115
15189,-107.3152,19.1166,-0.0112,0.0337,-115.4497,0.1891,-2.2992,12.3038,-0.0007,2.6606,-1.7452,-0.012,-170.1879
15205,-107.3152,19.1166,-0.0112,0.0337,-115.4497,0.1891,-2.2992,12.3038,-0.0007,2.6606,-1.7452,-0.012,-170.1879
15221,-107.3343,19.3281,-0.0112,0.0291,-118.6652,0.1597,-2.197,12.288,-0.0009,5.6526,-0.8759,-0.0111,-180.1678
15237,-107.3496,19.5313,-0.0112,0.0216,-121.926,0.1249,-2.0251,12.2915,-0.0011,9.817,0.2019,-0.0107,-188.0141
15253,-107.361,19.7281,-0.0111,0.0109,-125.221,0.085,-1.8001,12.3016,-0.0013,13.1627,0.5925,-0.0131,-194.3023
15271,-107.3686,19.9494,-0.011,-0.0057,-129.0733,0.0324,-1.4923,12.3104,-0.0016,15.8879,0.4543,-0.0143,-200.2565
15287,-107.3704,20.1503,-0.0109,-0.0235,-132.687,-0.0175,-1.1689,12.3087,-0.0018,18.2231,-0.0998,-0.0091,-204.7219
15303,-107.3667,20.3532,-0.0108,-0.044,-136.4429,-0.0706,-0.8062,12.2911,-0.0007,20.053,-0.9686,0.062,-208.593
15319,-107.358,20.5406,-0.0106,-0.0644,-140.0025,-0.1195,-0.4451,12.2569,0.0003,21.3945,-2.0311,0.0537,-211.6
15335,-107.3436,20.7306,-0.0105,-0.0863,-143.7015,-0.1698,-0.0575,12.201,0.0009,22.386,-3.2268,0.0381,-214.2494
15351,-107.3246,20.9109,-0.0103,-0.1077,-147.2973,-0.2165,0.3275,12.125,0.0014,23.114,-4.5601,0.0287,-216.4274
15365,-107.3246,20.9109,-0.0103,-0.1077,-147.2973,-0.2165,0.3275,12.125,0.0014,23.114,-4.5601,0.0287,-216.4274
15381,-107.2962,21.1136,-0.0101,-0.1326,-151.4515,-0.27,0.7772,12.0105,0.0018,23.6131,-6.0129,0.0194,-218.6648
15397,-107.2639,21.298,-0.0099,-0.1547,-155.335,-0.3158,1.1983,11.8754,0.002,23.8573,-7.6565,0.0121,-220.4618
15413,-107.2284,21.4683,-0.0097,-0.1745,-159.0194,-0.3563,1.5953,11.7219,0.0021,23.8803,-9.2324,0.0072,-222.0485
15447,-107.1367,21.817,-0.0093,-0.2141,-166.9256,-0.4368,2.4241,11.3146,0.0021,23.3075,-12.2645,-0.0,-225.3628
15461,-107.0872,21.9727,-0.0092,-0.2302,-170.638,-0.4717,2.7751,11.0552,0.0021,21.3728,-15.7883,-0.0006,-226.0872
15478,-107.0336,22.1253,-0.009,-0.2438,-174.4247,-0.5105,3.0677,10.7216,0.0022,17.5203,-19.9781,0.0044,-227.0122
15495,-106.9738,22.2806,-0.0089,-0.2554,-178.4734,-0.5552,3.3319,10.3268,0.0022,14.8619,-22.2048,0.0036,-227.9616
15511,-106.9194,22.4117,-0.0088,-0.2633,177.9371,-0.5947,3.5254,9.95,0.0022,12.3069,-23.9793,-0.0,-228.5204
15528,-106.86,22.5457,-0.0087,-0.2697,174.0723,-0.6389,3.6885,9.5212,0.0023,9.6559,-25.384,0.0012,-228.8854
15542,-106.8022,22.6688,-0.0086,-0.2738,170.3198,-0.6817,3.7991,9.0865,0.0022,6.7528,-26.5181,-0.0013,-228.9411
15558,-106.7463,22.7824,-0.0086,-0.2759,166.6549,-0.7232,3.8595,8.6498,0.0022,3.7663,-27.26,-0.003,-228.7146
15574,-106.6954,22.8916,-0.0086,-0.2686,163.114,-0.7575,3.5683,8.3641,0.0021,-18.2589,-17.9173,-0.0081,-219.7868
15590,-106.6495,23.0008,-0.0087,-0.2532,159.6335,-0.7802,3.2571,8.1115,-0.0019,-19.0537,-15.4694,-0.2423,-210.878
15607,-106.6068,23.1179,-0.009,-0.2294,155.958,-0.8033,2.8781,7.8406,-0.002,-21.0876,-15.0728,-0.0088,-202.586
15621,-106.5725,23.2313,-0.0092,-0.2024,152.4136,-0.8272,2.485,7.5773,-0.0013,-21.9669,-14.7128,0.0425,-196.7479
15637,-106.5489,23.3293,-0.0093,-0.1749,149.3385,-0.8535,2.1216,7.3515,0.0039,-22.8648,-14.2041,0.3255,-192.6024
15653,-106.5312,23.431,-0.0095,-0.1462,146.1304,-0.8795,1.7237,7.1541,0.0031,-23.5631,-11.691,-0.0444,-189.114
15669,-106.5217,23.5242,-0.0096,-0.1201,143.2306,-0.8989,1.3306,7.0392,0.0025,-25.1467,-7.3474,-0.0404,-184.0934
15685,-106.5188,23.6194,-0.0098,-0.0926,140.3849,-0.9115,0.9202,6.9906,0.002,-25.798,-3.0605,-0.0317,-177.0502
15701,-106.5226,23.7164,-0.01,-0.0638,137.6478,-0.9164,0.5071,6.9974,0.0015,-25.8004,0.4257,-0.0317,-168.8331
15717,-106.5331,23.8171,-0.0102,-0.0338,135.0153,-0.9137,0.0954,7.0514,0.001,-25.3514,3.3268,-0.0296,-159.7967
15733,-106.5331,23.8171,-0.0102,-0.0338,135.0153,-0.9137,0.0954,7.0514,0.001,-25.3514,3.3268,-0.0296,-159.7967
15749,-106.5521,23.9313,-0.0104,0.0001,132.2918,-0.9034,-0.3443,7.1465,0.0005,-24.5314,5.3076,-0.026,-149.3199
15765,-106.577,24.045,-0.0106,0.0313,129.8498,-0.8885,-0.7432,7.2613,0.0001,-23.079,6.6408,-0.0253,-138.5225
15781,-106.6057,24.1557,-0.0108,0.0588,127.7162,-0.8705,-1.0888,7.3911,-0.0002,-21.1682,7.9476,-0.0197,-128.0598
15797,-106.6383,24.2682,-0.011,0.0839,125.7767,-0.848,-1.3834,7.5393,-0.0005,-18.3309,9.2245,-0.0192,-118.3239
15815,-106.6783,24.3973,-0.0112,0.109,123.7853,-0.8133,-1.6255,7.7225,-0.0008,-13.5652,10.2655,-0.0177,-109.5788
15829,-106.7213,24.5327,-0.0114,0.1302,121.8812,-0.7649,-1.7561,7.9168,-0.0012,-7.2082,10.7253,-0.0196,-103.7961
15847,-106.7668,24.6776,-0.0116,0.1474,119.9889,-0.7015,-1.8071,8.1124,-0.0015,-2.7135,10.4072,-0.0179,-99.8169
15863,-106.8086,24.8153,-0.0117,0.159,118.2828,-0.6353,-1.7877,8.2854,-0.0019,1.1153,9.9457,-0.0208,-97.6286
15879,-106.8514,24.9633,-0.0118,0.1674,116.5212,-0.5582,-1.717,8.4567,-0.0023,3.8769,9.3893,-0.0224,-96.3338
15893,-106.8925,25.1156,-0.0119,0.1725,114.7645,-0.4773,-1.6061,8.6179,-0.0027,6.0373,8.7794,-0.0191,-95.6691
15909,-106.8925,25.1156,-0.0119,0.1725,114.7645,-0.4773,-1.6061,8.6179,-0.0027,6.0373,8.7794,-0.0191,-95.6691
15925,-106.9309,25.2693,-0.012,0.175,113.0363,-0.397,-1.4665,8.766,-0.003,7.6953,8.1615,-0.0176,-95.3845
15959,-106.999,25.585,-0.0121,0.1738,109.5894,-0.2415,-1.1204,9.0312,-0.0033,10.1303,7.0839,-0.0072,-95.2667
15973,-107.0279,25.7415,-0.0121,0.1718,107.9521,-0.1757,-1.0007,9.1573,-0.0034,6.8169,7.1878,-0.0038,-92.9655
15991,-107.0578,25.9153,-0.0122,0.1695,106.2651,-0.1199,-0.9628,9.2857,-0.0033,1.9826,6.7082,0.0025,-87.1574
16005,-107.086,26.0848,-0.0122,0.1669,104.7936,-0.0861,-0.9916,9.3931,-0.0031,-1.5699,5.84,0.0134,-78.6256
16021,-107.1154,26.2623,-0.0122,0.1631,103.4676,-0.07,-1.0841,9.4754,-0.0027,-4.8624,4.3239,0.0235,-67.8099
16038,-107.1449,26.436,-0.0122,0.1581,102.3986,-0.0707,-1.2238,9.5269,-0.0021,-7.5805,2.794,0.031,-55.6227
16053,-107.1449,26.436,-0.0122,0.1581,102.3986,-0.0707,-1.2238,9.5269,-0.0021,-7.5805,2.794,0.031,-55.6227
16070,-107.1783,26.6248,-0.0122,0.1509,101.4962,-0.0843,-1.3875,9.5581,-0.0014,-8.2156,1.5656,0.0347,-42.945
16087,-107.2119,26.8104,-0.0122,0.1427,100.8206,-0.0987,-1.4978,9.5897,-0.0007,-5.664,1.6214,0.0371,-33.111
16101,-107.2468,27.0021,-0.0121,0.1344,100.2868,-0.1082,-1.5706,9.631,-0.0002,-3.6342,2.0636,0.0257,-24.0541
16117,-107.2468,27.0021,-0.0121,0.1344,100.2868,-0.1082,-1.5706,9.631,-0.0002,-3.6342,2.0636,0.0257,-24.0541
16133,-107.2822,27.1977,-0.0121,0.1258,99.8839,-0.1122,-1.6139,9.6708,0.0001,-2.1347,1.9636,0.0113,-17.8911
16151,-107.314,27.3751,-0.012,0.1176,99.6189,-0.1108,-1.6333,9.7045,0.0002,-1.0581,1.8353,0.0048,-13.5547
16165,-107.3467,27.5606,-0.0119,0.1093,99.4125,-0.1053,-1.6394,9.7362,0.0002,-0.318,1.6625,-0.0006,-10.3274
16183,-107.3787,27.7446,-0.0119,0.1015,99.2596,-0.0971,-1.6365,9.7647,0.0001,0.1548,1.5096,-0.0028,-8.1991
16199,-107.4116,27.9394,-0.0115,0.1105,99.1376,-0.0316,-1.6286,9.7859,0.0432,0.3955,1.0647,2.1658,-6.9452
16213,-107.4116,27.9394,-0.0115,0.1105,99.1376,-0.0316,-1.6286,9.7859,0.0432,0.3955,1.0647,2.1658,-6.9452
16229,-107.4462,28.1484,-0.0108,0.1364,99.0475,0.0747,-1.625,9.8082,0.0424,0.1675,1.0453,-0.0378,-3.5752
16247,-107.4791,28.3455,-0.0105,0.1359,98.9914,0.0822,-1.6195,9.8543,-0.0297,0.2735,2.3009,-3.6005,-2.5913
16262,-107.5094,28.5271,-0.0108,0.1089,98.9535,0.0193,-1.6011,9.8766,-0.0245,1.0025,1.2106,0.2789,-2.1241
16279,-107.5402,28.7157,-0.011,0.0886,98.9232,-0.0129,-1.5887,9.8952,-0.0188,0.6461,0.9741,0.3,-2.0101
16293,-107.5698,28.8995,-0.0112,0.0742,98.9012,-0.0268,-1.5807,9.9074,-0.0134,0.4354,0.6554,0.2894,-2.0912
16309,-107.5698,28.8995,-0.0112,0.0742,98.9012,-0.0268,-1.5807,9.9074,-0.0134,0.4354,0.6554,0.2894,-2.0912
16325,-107.599,29.0822,-0.0113,0.0634,98.8851,-0.0319,-1.575,9.9169,-0.0096,0.3049,0.5182,0.2055,-2.1555
16343,-107.6282,29.2663,-0.0114,0.0549,98.8726,-0.0325,-1.5712,9.9272,-0.0069,0.2081,0.5552,0.1484,-2.2499
16358,-107.6586,29.4579,-0.0114,0.0478,98.8619,-0.0309,-1.5682,9.9359,-0.0048,0.1564,0.4488,0.1075,-2.5529
16374,-107.6887,29.6488,-0.0115,0.0421,98.8546,-0.0283,-1.5657,9.9422,-0.0033,0.129,0.3292,0.0803,-2.5542
16389,-107.7196,29.8456,-0.0115,0.0371,98.8483,-0.0253,-1.5635,9.9474,-0.0022,0.1074,0.2603,0.0567,-2.6872
16406,-107.7484,30.0287,-0.0115,0.0334,98.8452,-0.0226,-1.5625,9.9557,-0.0014,0.0593,0.4549,0.043,-2.1816
16421,-107.7484,30.0287,-0.0115,0.0334,98.8452,-0.0226,-1.5625,9.9557,-0.0014,0.0593,0.4549,0.043,-2.1816
16439,-107.7801,30.2311,-0.0115,0.0303,98.8467,-0.0199,-1.5628,9.9758,-0.0007,-0.0173,0.9863,0.0315,0.3018
16454,-107.8095,30.4197,-0.0115,0.028,98.8472,-0.0173,-1.5628,9.991,-0.0004,-0.0016,0.8058,0.0193,0.897
16471,-107.8401,30.6169,-0.011,0.004,98.8486,0.0138,-1.5616,9.998,0.0175,0.0609,0.3548,0.9074,1.6727
16485,-107.8702,30.8105,-0.0105,-0.0267,98.8474,0.0494,-1.5637,10.0026,0.019,-0.108,0.2367,0.0738,2.0701
16501,-107.8702,30.8105,-0.0105,-0.0267,98.8474,0.0494,-1.5637,10.0026,0.019,-0.108,0.2367,0.0738,2.0701
16517,-107.9018,31.0115,-0.0108,-0.0069,98.8431,0.0183,-1.5637,10.0249,-0.0089,0.0004,1.1149,-1.3879,-0.3046
16533,-107.9335,31.2145,-0.011,0.0056,98.8438,0.0022,-1.5634,10.04,-0.0065,0.0172,0.7449,0.116,0.1266
16551,-107.9628,31.4025,-0.0112,0.0131,98.8447,-0.0056,-1.5642,10.0536,-0.0049,-0.0462,0.7305,0.0848,0.3467
16567,-107.9925,31.5931,-0.0113,0.0176,98.8464,-0.0093,-1.5653,10.0642,-0.0033,-0.0565,0.5604,0.086,0.7492
16581,-107.9925,31.5931,-0.0113,0.0176,98.8464,-0.0093,-1.5653,10.0642,-0.0033,-0.0565,0.5604,0.086,0.7492
16597,-108.023,31.7893,-0.0114,0.0199,98.8485,-0.0107,-1.5659,10.0695,-0.0021,-0.0279,0.2695,0.0609,1.2907
16615,-108.0544,31.9912,-0.0114,0.021,98.8451,-0.011,-1.5689,10.0869,-0.0012,-0.1529,0.8674,0.0464,-0.3102
16631,-108.084,32.1813,-0.0114,0.0212,98.8431,-0.0106,-1.571,10.0981,-0.0007,-0.1091,0.5956,0.0253,-0.7128
16645,-108.1137,32.3723,-0.0114,0.0209,98.8404,-0.0099,-1.5726,10.1069,-0.0003,-0.0885,0.4686,0.0214,-1.2721
16661,-108.1431,32.5607,-0.0114,0.0202,98.8388,-0.0092,-1.5736,10.1122,-0.0,-0.0533,0.2809,0.0146,-1.6606
16677,-108.1431,32.5607,-0.0114,0.0202,98.8388,-0.0092,-1.5736,10.1122,-0.0,-0.0533,0.2809,0.0146,-1.6606
16693,-108.1729,32.7525,-0.0114,0.0192,98.8379,-0.0084,-1.5743,10.1157,0.0001,-0.0356,0.187,0.0087,-1.949
16711,-108.2037,32.9505,-0.0114,0.018,98.8372,-0.0077,-1.5749,10.1186,0.0003,-0.0295,0.1453,0.0068,-2.2238
16727,-108.2337,33.1431,-0.0114,0.0168,98.8378,-0.007,-1.5757,10.1229,0.0004,-0.0401,0.227,0.0039,-2.0848
16742,-108.2642,33.3392,-0.0114,0.0156,98.8376,-0.0063,-1.5765,10.1277,0.0004,-0.0435,0.2471,0.0021,-2.1767
16757,-108.2944,33.5331,-0.0113,0.0145,98.8379,-0.0057,-1.5774,10.1332,0.0004,-0.0483,0.2877,0.0005,-2.1114
16773,-108.2944,33.5331,-0.0113,0.0145,98.8379,-0.0057,-1.5774,10.1332,0.0004,-0.0483,0.2877,0.0005,-2.1114
16789,-108.3259,33.736,-0.0113,0.0139,98.8426,-0.0052,-1.5799,10.1508,0.0004,-0.1255,0.8827,-0.0012,0.3896
16807,-108.3576,33.9397,-0.0113,0.0135,98.8409,-0.0046,-1.5823,10.1674,0.0004,-0.1196,0.8252,-0.0008,-0.1981
16823,-108.389,34.1411,-0.0113,0.0133,98.8387,-0.0041,-1.5844,10.1814,0.0004,-0.1052,0.7069,0.0006,-0.5575
16839,-108.4192,34.3348,-0.0113,0.0131,98.8357,-0.0036,-1.586,10.1919,0.0003,-0.0823,0.5524,-0.0015,-1.1315
16853,-108.4483,34.5221,-0.0113,0.0127,98.8342,-0.0032,-1.587,10.1988,0.0003,-0.0541,0.3759,-0.0015,-1.5238
16869,-108.4483,34.5221,-0.0113,0.0127,98.8342,-0.0032,-1.587,10.1988,0.0003,-0.0541,0.3759,-0.0015,-1.5238
16885,-108.4776,34.7105,-0.0113,0.0123,98.8334,-0.0029,-1.5878,10.2044,0.0003,-0.0435,0.3034,-0.0017,-1.7356
16903,-108.5087,34.9099,-0.0113,0.0117,98.8321,-0.0026,-1.5884,10.2084,0.0002,-0.0313,0.2064,-0.0018,-2.125
16918,-108.5378,35.0972,-0.0113,0.0112,98.8329,-0.0023,-1.5892,10.214,0.0002,-0.0439,0.3059,-0.001,-1.8274
16935,-108.569,35.298,-0.0113,0.0106,98.8316,-0.0021,-1.5899,10.2189,0.0002,-0.0381,0.247,-0.0012,-2.181
16949,-108.5984,35.4867,-0.0113,0.0101,98.8325,-0.0019,-1.5908,10.2251,0.0002,-0.0495,0.3393,-0.0012,-1.8645
16965,-108.628,35.6772,-0.0113,0.0097,98.8326,-0.0017,-1.5919,10.2323,0.0002,-0.0573,0.3844,-0.0013,-1.8603
16981,-108.628,35.6772,-0.0113,0.0097,98.8326,-0.0017,-1.5919,10.2323,0.0002,-0.0573,0.3844,-0.0013,-1.8603
16997,-108.6624,35.8982,-0.0112,0.0095,98.8388,-0.0015,-1.5942,10.2488,0.0001,-0.1057,0.7661,-0.0011,0.5847
17015,-108.6955,36.1115,-0.0112,0.0096,98.836,-0.0013,-1.5965,10.2647,0.0001,-0.111,0.763,-0.0008,-0.3122
17030,-108.7249,36.3003,-0.0112,0.0098,98.8342,-0.0011,-1.5983,10.2768,0.0001,-0.0981,0.6607,-0.0008,-0.6357
17045,-108.7543,36.4893,-0.0112,0.0099,98.8321,-0.001,-1.5998,10.2865,0.0001,-0.0789,0.5288,-0.0006,-1.0853
17061,-108.7543,36.4893,-0.0112,0.0099,98.8321,-0.001,-1.5998,10.2865,0.0001,-0.0789,0.5288,-0.0006,-1.0853
17077,-108.7862,36.694,-0.0112,0.0098,98.8284,-0.0008,-1.6007,10.2926,0.0001,-0.0473,0.3057,-0.0001,-1.8573
17094,-108.8167,36.89,-0.0112,0.0095,98.8282,-0.0007,-1.6012,10.2961,0.0001,-0.0247,0.1801,-0.0007,-1.9665
17111,-108.8482,37.093,-0.0112,0.0091,98.8274,-0.0006,-1.6017,10.2995,0.0001,-0.026,0.1731,-0.0005,-2.2004
17125,-108.8801,37.2978,-0.0112,0.0087,98.8271,-0.0006,-1.6021,10.3026,0.0001,-0.0237,0.156,-0.0003,-2.292
