timestamp,x,y,z,pitch,yaw,roll,vx,vy,vz,ax,ay,az,yaw_rate
27921,-106.6867,-4.8475,0.4993,0.0,-89.3578,0.0,0.0,0.0,-1.3475,0.0,0.0,-9.8,0.0
27937,-106.6867,-4.8475,0.4993,0.0,-89.3578,0.0,0.0,0.0,-1.3475,0.0,0.0,-9.8,0.0
27953,-106.6867,-4.8475,0.4751,0.0,-89.3578,0.0,0.0,0.0,-1.5087,0.0,0.0,-9.8,0.0
27969,-106.6867,-4.8475,0.4167,0.0,-89.3578,0.0,0.0,0.0,-1.8423,0.0,0.0,-9.8,0.0
27985,-106.6867,-4.8475,0.4167,0.0,-89.3578,0.0,0.0,0.0,-1.8423,0.0,0.0,-9.8,0.0
28001,-106.6867,-4.8475,0.3769,0.0,-89.3578,0.0,0.0,0.0,-2.0397,0.0,0.0,-9.8,0.0
28019,-106.6867,-4.8475,0.3274,0.0,-89.3578,0.0,0.0,0.0,-2.2616,0.0,0.0,-9.8,0.0
28033,-106.6867,-4.8475,0.3274,0.0,-89.3578,0.0,0.0,0.0,-2.2616,0.0,0.0,-9.8,0.0
28049,-106.6867,-4.8475,0.2719,0.0,-89.3578,0.0,0.0,0.0,-2.487,0.0,0.0,-9.8,0.0
28068,-106.6867,-4.8475,0.2014,0.0,-89.3578,0.0,0.0,0.0,-2.7466,0.0,0.0,-9.8,0.0
28081,-106.6867,-4.8475,0.1418,0.0,-89.3578,0.0,0.0,0.0,-2.9495,0.0,0.0,-9.8,0.0
28097,-106.6867,-4.8475,0.1418,0.0,-89.3578,0.0,0.0,0.0,-2.9495,0.0,0.0,-9.8,0.0
28115,-106.6867,-4.8475,0.0537,0.0,-89.3578,0.0,0.0,0.0,-3.225,0.0,0.0,-9.8,0.0
28129,-106.6867,-4.8475,0.0537,0.0,-89.3578,0.0,0.0,0.0,-3.225,0.0,0.0,-9.8,0.0
28147,-106.6868,-4.8436,-0.0104,-0.0056,-89.3578,0.0,-0.0026,0.2313,-1.9955,-0.095,8.5215,45.3078,-0.0057
28163,-106.6869,-4.8403,-0.0395,-0.0085,-89.352,0.0001,-0.0044,0.2179,-1.393,-0.0934,-0.7002,31.6906,-1.1952
28177,-106.6869,-4.8403,-0.0395,-0.0085,-89.352,0.0001,-0.0044,0.2179,-1.393,-0.0934,-0.7002,31.6906,-1.1952
28193,-106.687,-4.8361,-0.0642,-0.01,-89.3402,0.0,-0.0025,0.1951,-0.797,0.0725,-0.9055,23.5982,2.0786
28211,-106.6869,-4.8317,-0.0746,-0.0122,-89.3602,-0.0001,0.0002,0.2354,-0.4903,0.1447,2.1782,16.5545,-0.4127
28227,-106.687,-4.8256,-0.081,-0.015,-89.35,-0.0001,-0.0045,0.3453,-0.2266,-0.2242,5.2538,12.6092,-1.1837
28241,-106.687,-4.8256,-0.081,-0.015,-89.35,-0.0001,-0.0045,0.3453,-0.2266,-0.2242,5.2538,12.6092,-1.1837
28257,-106.687,-4.8143,-0.083,-0.0218,-89.3667,-0.0001,-0.006,0.4798,-0.0162,-0.0558,5.265,8.2356,-1.4691
28273,-106.6873,-4.8037,-0.0816,-0.0269,-89.3546,0.0002,-0.0087,0.5843,0.0906,-0.1385,5.3054,5.423,0.2845
28289,-106.6873,-4.8037,-0.0816,-0.0269,-89.3546,0.0002,-0.0087,0.5843,0.0906,-0.1385,5.3054,5.423,0.2845
28308,-106.6875,-4.7856,-0.0773,-0.0344,-89.3537,0.0003,-0.0075,0.7005,0.1826,0.0452,4.3022,3.4074,-0.9303
28321,-106.6878,-4.7718,-0.0736,-0.0388,-89.3406,0.0003,-0.0104,0.8135,0.2171,-0.1647,6.3848,1.948,0.4084
28339,-106.688,-4.7547,-0.0691,-0.0436,-89.3362,0.0003,-0.0116,0.9315,0.238,-0.066,6.1551,1.0921,0.1769
28356,-106.6883,-4.7376,-0.0647,-0.0474,-89.3344,0.0003,-0.012,1.0019,0.2458,-0.0207,3.9763,0.4383,0.0766
28371,-106.6886,-4.7168,-0.0593,-0.0522,-89.3289,0.0003,-0.0139,1.1174,0.2768,-0.0968,5.9527,1.5992,0.2571
28385,-106.6888,-4.6972,-0.0545,-0.0531,-89.3255,0.0002,-0.0139,1.1151,0.2577,-0.0005,-0.1256,-1.0444,0.166
28401,-106.6888,-4.6972,-0.0545,-0.0531,-89.3255,0.0002,-0.0139,1.1151,0.2577,-0.0005,-0.1256,-1.0444,0.166
28417,-106.6891,-4.6752,-0.0497,-0.0518,-89.3233,0.0002,-0.0129,1.053,0.229,0.0468,-3.052,-1.4093,0.0884
28436,-106.6894,-4.6483,-0.0447,-0.0522,-89.3232,0.0002,-0.0144,1.2054,0.2118,-0.0616,6.6799,-0.7547,0.1516
28449,-106.6897,-4.6233,-0.0407,-0.0518,-89.3236,0.0001,-0.0147,1.2359,0.1897,-0.0196,1.4933,-1.0801,-0.0944
28465,-106.6897,-4.6233,-0.0407,-0.0518,-89.3236,0.0001,-0.0147,1.2359,0.1897,-0.0196,1.4933,-1.0801,-0.0944
28483,-106.6902,-4.5893,-0.0361,-0.0518,-89.3095,0.0001,-0.0163,1.3377,0.171,-0.0582,3.9372,-0.7234,0.4547
28500,-106.6905,-4.5608,-0.0328,-0.0502,-89.3176,0.0001,-0.0165,1.3325,0.1473,-0.0125,-0.244,-1.1106,-0.6701
28513,-106.6905,-4.5608,-0.0328,-0.0502,-89.3176,0.0001,-0.0165,1.3325,0.1473,-0.0125,-0.244,-1.1106,-0.6701
28529,-106.691,-4.5296,-0.0299,-0.0507,-89.3016,0.0002,-0.0186,1.4708,0.1304,-0.0956,6.4036,-0.7848,0.4853
28556,-106.6915,-4.503,-0.0276,-0.049,-89.2838,0.0004,-0.0201,1.4856,0.1208,-0.0843,0.7975,-0.5174,0.8786
28561,-106.6915,-4.503,-0.0276,-0.049,-89.2838,0.0004,-0.0201,1.4856,0.1208,-0.0843,0.7975,-0.5174,0.8786
28577,-106.692,-4.4659,-0.0249,-0.0455,-89.2819,0.0003,-0.0179,1.4415,0.1006,0.0894,-1.7263,-0.7891,-0.0894
28593,-106.6925,-4.4379,-0.0232,-0.0446,-89.2548,0.0004,-0.0196,1.4985,0.0901,-0.0952,3.1308,-0.5766,1.5891
28612,-106.6928,-4.407,-0.0216,-0.0445,-89.2667,0.0003,-0.0192,1.5699,0.0797,0.0221,3.7084,-0.5423,-1.039
28628,-106.6931,-4.3713,-0.0201,-0.0469,-89.2823,-0.0001,-0.0191,1.7781,0.0659,0.0035,9.9969,-0.6632,-2.7224
28644,-106.6936,-4.3384,-0.019,-0.0501,-89.2783,0.0,-0.0226,1.8708,0.0608,-0.1934,5.1796,-0.2849,-2.7228
28657,-106.6939,-4.3051,-0.018,-0.0515,-89.2878,0.0001,-0.0244,1.8813,0.0536,-0.106,0.5935,-0.4064,-1.848
28673,-106.6944,-4.2714,-0.0171,-0.0513,-89.2788,0.0003,-0.0261,1.8968,0.0473,-0.092,0.8701,-0.3548,-1.1849
28689,-106.6944,-4.2714,-0.0171,-0.0513,-89.2788,0.0003,-0.0261,1.8968,0.0473,-0.092,0.8701,-0.3548,-1.1849
28705,-106.6948,-4.2363,-0.0164,-0.0506,-89.2929,0.0002,-0.0246,1.9318,0.0417,0.0792,1.9255,-0.3052,-2.359
28724,-106.6954,-4.1966,-0.0156,-0.0516,-89.29,0.0006,-0.0316,2.0585,0.0367,-0.3592,6.4956,-0.2582,-3.5479
28740,-106.6961,-4.1563,-0.015,-0.0522,-89.2596,0.0003,-0.0261,2.1339,0.0318,0.288,3.9223,-0.2561,-1.6695
28753,-106.6961,-4.1563,-0.015,-0.0522,-89.2596,0.0003,-0.0261,2.1339,0.0318,0.288,3.9223,-0.2561,-1.6695
28769,-106.697,-4.0954,-0.0142,-0.0548,-89.2408,0.0002,-0.0294,2.3206,0.0258,-0.1193,6.8015,-0.2167,-0.3597
28787,-106.6975,-4.0507,-0.0137,-0.055,-89.2475,0.0001,-0.0294,2.3218,0.0227,-0.0019,0.0583,-0.1602,-0.3195
28804,-106.6982,-4.0035,-0.0133,-0.0556,-89.2433,0.0002,-0.0316,2.3969,0.0185,-0.1069,3.7363,-0.2045,0.4429
28817,-106.6987,-3.9583,-0.013,-0.0573,-89.258,0.0003,-0.0336,2.4,0.0171,-0.1138,0.1724,-0.0769,0.2189
28833,-106.6987,-3.9583,-0.013,-0.0573,-89.258,0.0003,-0.0336,2.4,0.0171,-0.1138,0.1724,-0.0769,0.2189
28849,-106.6995,-3.9084,-0.0127,-0.0588,-89.2327,0.0005,-0.0341,2.5075,0.015,-0.0257,5.5078,-0.1082,1.1584
28865,-106.6999,-3.8591,-0.0124,-0.0625,-89.2765,0.0003,-0.0353,2.7457,0.013,-0.0657,13.1008,-0.113,-3.4717
28884,-106.7006,-3.8064,-0.0122,-0.0648,-89.2763,0.0003,-0.0395,2.7817,0.0114,-0.2187,1.8991,-0.0843,-4.1375
28900,-106.7013,-3.7545,-0.012,-0.0665,-89.2713,0.0003,-0.0386,2.8797,0.0099,0.0499,5.4082,-0.0823,-1.5438
28913,-106.7013,-3.7545,-0.012,-0.0665,-89.2713,0.0003,-0.0386,2.8797,0.0099,0.0499,5.4082,-0.0823,-1.5438
28929,-106.7021,-3.6806,-0.0117,-0.0703,-89.2936,-0.0003,-0.0365,3.091,0.0082,0.0857,8.6157,-0.0708,0.8824
28945,-106.7025,-3.6217,-0.0116,-0.0711,-89.3289,-0.0007,-0.0374,3.1576,0.0073,-0.0466,3.4791,-0.0444,-3.0075
28964,-106.7032,-3.5622,-0.0115,-0.0704,-89.3376,-0.0008,-0.0368,3.204,0.0063,0.0274,2.4349,-0.0522,0.8954
28980,-106.7038,-3.5019,-0.0114,-0.0696,-89.3485,-0.0009,-0.0387,3.2757,0.0055,-0.0962,3.7947,-0.0435,-1.8311
28996,-106.7044,-3.438,-0.0113,-0.0721,-89.3553,-0.0012,-0.0382,3.449,0.0048,0.0268,9.1243,-0.0364,0.6876
29009,-106.7044,-3.438,-0.0113,-0.0721,-89.3553,-0.0012,-0.0382,3.449,0.0048,0.0268,9.1243,-0.0364,0.6876
29025,-106.7051,-3.3662,-0.0112,-0.0739,-89.3691,-0.0013,-0.0377,3.5046,0.0039,0.022,2.6805,-0.0418,-1.1519
29044,-106.7061,-3.2685,-0.011,-0.0803,-89.3839,-0.0013,-0.0417,3.7851,0.0034,-0.1518,10.6214,-0.0202,-2.0857
29057,-106.7061,-3.2685,-0.011,-0.0803,-89.3839,-0.0013,-0.0417,3.7851,0.0034,-0.1518,10.6214,-0.0202,-2.0857
29073,-106.7069,-3.1895,-0.0109,-0.0826,-89.3871,-0.0013,-0.0411,3.8573,0.0028,0.0305,3.4741,-0.0281,-0.1352
29089,-106.7079,-3.1142,-0.0109,-0.0865,-89.3659,-0.0012,-0.0433,3.9696,0.0026,-0.1168,5.9697,-0.0114,0.9788
29108,-106.7088,-3.0276,-0.0108,-0.091,-89.3663,-0.001,-0.0465,4.2333,0.0021,-0.1527,12.6511,-0.0226,0.368
29127,-106.7099,-2.9389,-0.0107,-0.0992,-89.3592,-0.0007,-0.0504,4.4976,0.0019,-0.1962,13.2489,-0.0092,0.3229
29138,-106.7099,-2.9389,-0.0107,-0.0992,-89.3592,-0.0007,-0.0504,4.4976,0.0019,-0.1962,13.2489,-0.0092,0.3229
29154,-106.7099,-2.9389,-0.0107,-0.0992,-89.3592,-0.0007,-0.0504,4.4976,0.0019,-0.1962,13.2489,-0.0092,0.3229
29173,-106.7126,-2.7059,-0.0105,-0.1117,-89.3465,-0.0003,-0.0554,4.8959,0.0013,-0.1017,8.1139,-0.0126,0.2833
29186,-106.7126,-2.7059,-0.0105,-0.1117,-89.3465,-0.0003,-0.0554,4.8959,0.0013,-0.1017,8.1139,-0.0126,0.2833
29202,-106.7126,-2.7059,-0.0105,-0.1117,-89.3465,-0.0003,-0.0554,4.8959,0.0013,-0.1017,8.1139,-0.0126,0.2833
29218,-106.7148,-2.5179,-0.0105,-0.11,-89.3408,-0.0001,-0.0578,5.0724,0.001,-0.0635,4.6407,-0.0087,0.2894
29234,-106.7148,-2.5179,-0.0105,-0.11,-89.3408,-0.0001,-0.0578,5.0724,0.001,-0.0635,4.6407,-0.0087,0.2894
29250,-106.7163,-2.377,-0.0105,-0.1066,-89.3446,-0.0001,-0.0582,5.1071,0.0008,-0.0163,1.2556,-0.0069,-0.2818
29266,-106.7163,-2.377,-0.0105,-0.1066,-89.3446,-0.0001,-0.0582,5.1071,0.0008,-0.0163,1.2556,-0.0069,-0.2818
29283,-106.7187,-2.1739,-0.0105,-0.1025,-89.34,0.0001,-0.0611,5.2867,0.0006,-0.0757,4.6746,-0.0049,0.0931
29298,-106.7187,-2.1739,-0.0105,-0.1025,-89.34,0.0001,-0.0611,5.2867,0.0006,-0.0757,4.6746,-0.0049,0.0931
29317,-106.7216,-1.9425,-0.0105,-0.1032,-89.3138,0.0004,-0.067,5.7141,0.0004,-0.1408,10.2614,-0.0041,1.3986
29330,-106.7216,-1.9425,-0.0105,-0.1032,-89.3138,0.0004,-0.067,5.7141,0.0004,-0.1408,10.2614,-0.0041,1.3986
29346,-106.7233,-1.8008,-0.0104,-0.1043,-89.3158,0.0005,-0.0692,5.8378,0.0004,-0.0893,5.0572,-0.0029,-0.1752
29365,-106.7233,-1.8008,-0.0104,-0.1043,-89.3158,0.0005,-0.0692,5.8378,0.0004,-0.0893,5.0572,-0.0029,-0.1752
29378,-106.7254,-1.6303,-0.0104,-0.1068,-89.3103,0.0006,-0.0735,6.093,0.0003,-0.1511,9.0023,-0.0019,-1.2601
29397,-106.7274,-1.466,-0.0104,-0.1055,-89.2975,0.0006,-0.0745,6.1596,0.0002,-0.0378,2.4847,-0.0028,0.4732
29410,-106.7274,-1.466,-0.0104,-0.1055,-89.2975,0.0006,-0.0745,6.1596,0.0002,-0.0378,2.4847,-0.0028,0.4732
29429,-106.7294,-1.2989,-0.0104,-0.1063,-89.3024,0.0006,-0.0772,6.4194,0.0002,-0.103,9.8474,-0.0011,0.9443
29442,-106.7312,-1.1553,-0.0104,-0.1074,-89.3039,0.0006,-0.0795,6.5755,0.0002,-0.103,7.0757,-0.0015,-0.1496
29458,-106.7312,-1.1553,-0.0104,-0.1074,-89.3039,0.0006,-0.0795,6.5755,0.0002,-0.103,7.0757,-0.0015,-0.1496
29484,-106.7332,-0.9849,-0.0104,-0.1119,-89.3017,0.0005,-0.0832,6.8538,0.0001,-0.1462,11.0517,-0.0013,-0.0111
29490,-106.7332,-0.9849,-0.0104,-0.1119,-89.3017,0.0005,-0.0832,6.8538,0.0001,-0.1462,11.0517,-0.0013,-0.0111
29506,-106.7355,-0.8012,-0.0103,-0.1162,-89.3003,0.0005,-0.0858,7.0578,0.0001,-0.1008,7.7708,-0.0007,0.0922
29525,-106.7372,-0.6611,-0.0103,-0.1185,-89.2997,0.0005,-0.0875,7.1928,0.0001,-0.0884,6.9187,-0.0008,0.0925
29541,-106.739,-0.5107,-0.0103,-0.1196,-89.2999,0.0005,-0.0898,7.3661,0.0001,-0.1082,8.4078,-0.0018,0.007
29554,-106.739,-0.5107,-0.0103,-0.1196,-89.2999,0.0005,-0.0898,7.3661,0.0001,-0.1082,8.4078,-0.0018,0.007
29570,-106.7414,-0.3158,-0.0103,-0.121,-89.3002,0.0004,-0.0922,7.5585,0.0001,-0.0946,7.408,-0.0004,-0.0322
29589,-106.7433,-0.1554,-0.0103,-0.122,-89.3001,0.0004,-0.0944,7.7315,0.0,-0.1031,8.2713,-0.0008,0.0124
29605,-106.7452,-0.0033,-0.0103,-0.1226,-89.3,0.0004,-0.0962,7.8773,0.0001,-0.0932,7.5151,0.001,0.0305
29618,-106.7452,-0.0033,-0.0103,-0.1226,-89.3,0.0004,-0.0962,7.8773,0.0001,-0.0932,7.5151,0.001,0.0305
29634,-106.7471,0.1535,-0.0103,-0.1226,-89.3,0.0004,-0.0979,8.0135,0.0,-0.0859,6.9256,-0.0013,0.0727
29650,-106.7491,0.3112,-0.0103,-0.1214,-89.3006,0.0004,-0.0992,8.1191,0.0,-0.0683,5.4111,-0.0012,0.0666
29666,-106.7491,0.3112,-0.0103,-0.1214,-89.3006,0.0004,-0.0992,8.1191,0.0,-0.0683,5.4111,-0.0012,0.0666
29682,-106.7521,0.564,-0.0103,-0.1179,-89.3004,0.0003,-0.1012,8.2857,0.0,-0.0658,5.4044,0.0007,0.0142
29701,-106.7548,0.7789,-0.0103,-0.1155,-89.3001,0.0003,-0.103,8.4295,0.0,-0.0684,5.6098,-0.0006,0.0108
29714,-106.7548,0.7789,-0.0103,-0.1155,-89.3001,0.0003,-0.103,8.4295,0.0,-0.0684,5.6098,-0.0006,0.0108
29730,-106.7568,0.9477,-0.0103,-0.1136,-89.3,0.0002,-0.1043,8.5362,0.0,-0.066,5.3868,-0.0,0.0091
29746,-106.759,1.1231,-0.0103,-0.1118,-89.2999,0.0005,-0.1059,8.6714,0.0003,-0.0818,6.6472,0.016,0.0065
29765,-106.7613,1.3123,-0.0103,-0.1103,-89.2997,0.0005,-0.1076,8.804,-0.0,-0.0744,6.137,-0.0181,0.006
29778,-106.7635,1.4916,-0.0104,-0.1092,-89.2997,0.0005,-0.1091,8.9293,0.0,-0.0767,6.2114,0.0032,0.0037
29794,-106.7635,1.4916,-0.0104,-0.1092,-89.2997,0.0005,-0.1091,8.9293,0.0,-0.0767,6.2114,0.0032,0.0037
29810,-106.7658,1.6803,-0.0104,-0.1081,-89.2996,0.0004,-0.1106,9.053,0.0,-0.0732,5.9089,-0.0006,0.0028
29828,-106.7688,1.929,-0.0104,-0.1065,-89.2996,0.0004,-0.1126,9.2085,-0.0,-0.0707,5.7246,-0.0006,0.0016
29842,-106.7688,1.929,-0.0104,-0.1065,-89.2996,0.0004,-0.1126,9.2085,-0.0,-0.0707,5.7246,-0.0006,0.0016
29861,-106.7719,2.1789,-0.0104,-0.1048,-89.2995,0.0003,-0.1144,9.3561,0.0,-0.0678,5.4969,0.0004,0.0015
29874,-106.7719,2.1789,-0.0104,-0.1048,-89.2995,0.0003,-0.1144,9.3561,0.0,-0.0678,5.4969,0.0004,0.0015
29890,-106.7746,2.4031,-0.0104,-0.1031,-89.2995,0.0003,-0.1159,9.4831,0.0,-0.0657,5.3468,0.0003,0.0003
29906,-106.777,2.5949,-0.0104,-0.1017,-89.2995,0.0002,-0.1172,9.5875,-0.0,-0.0638,5.1991,-0.0008,0.0007
29925,-106.7793,2.7855,-0.0104,-0.1001,-89.2995,0.0002,-0.1185,9.6881,-0.0,-0.0626,5.1011,0.0,0.0008
29942,-106.7817,2.9802,-0.0104,-0.0985,-89.2995,0.0002,-0.1197,9.7878,-0.0,-0.0613,4.9989,0.0001,0.0012
29954,-106.7839,3.165,-0.0104,-0.0971,-89.2994,0.0002,-0.1208,9.8798,-0.0,-0.0601,4.9078,-0.0001,0.0017
29970,-106.7839,3.165,-0.0104,-0.0971,-89.2994,0.0002,-0.1208,9.8798,-0.0,-0.0601,4.9078,-0.0001,0.0017
29986,-106.7863,3.3586,-0.0105,-0.0955,-89.2994,0.0002,-0.122,9.9737,-0.0,-0.059,4.8242,-0.0003,0.0032
30011,-106.7886,3.5479,-0.0105,-0.094,-89.2994,0.0001,-0.123,10.0631,-0.0,-0.0581,4.7444,0.0005,0.0054
30018,-106.7886,3.5479,-0.0105,-0.094,-89.2994,0.0001,-0.123,10.0631,-0.0,-0.0581,4.7444,0.0005,0.0054
30034,-106.792,3.8213,-0.0105,-0.0919,-89.2995,0.0001,-0.1246,10.1889,-0.0,-0.0572,4.6679,-0.0011,-0.0089
30050,-106.7948,4.0515,-0.0105,-0.0903,-89.2994,0.0001,-0.1258,10.2912,0.0,-0.0556,4.5558,0.0018,0.0048
30066,-106.7974,4.2668,-0.0105,-0.0887,-89.2994,0.0001,-0.127,10.3846,-0.0,-0.055,4.4928,-0.0009,-0.0014
30082,-106.7999,4.4688,-0.0105,-0.0873,-89.2995,0.0001,-0.128,10.4701,0.0,-0.0542,4.4245,0.0011,-0.0024
30098,-106.7999,4.4688,-0.0105,-0.0873,-89.2995,0.0001,-0.128,10.4701,0.0,-0.0542,4.4245,0.0011,-0.0024
30114,-106.8024,4.6719,-0.0105,-0.0859,-89.2995,0.0001,-0.1291,10.5542,0.0,-0.0533,4.361,-0.0002,-0.0041
30130,-106.8049,4.8761,-0.0105,-0.0845,-89.2995,0.0001,-0.1301,10.6369,0.0,-0.0526,4.3003,-0.0001,-0.0067
30149,-106.8074,5.0838,-0.0105,-0.0832,-89.2995,0.0001,-0.1311,10.7193,-0.0,-0.0519,4.2414,-0.0003,-0.0111
30162,-106.8102,5.3158,-0.0106,-0.0818,-89.2995,0.0001,-0.1322,10.8092,0.0,-0.051,4.1773,0.0002,0.0035
30178,-106.8102,5.3158,-0.0106,-0.0818,-89.2995,0.0001,-0.1322,10.8092,0.0,-0.051,4.1773,0.0002,0.0035
30197,-106.8139,5.6176,-0.0106,-0.08,-89.2995,0.0001,-0.1336,10.9231,-0.0,-0.0502,4.1098,-0.0003,-0.0053
30213,-106.8165,5.8291,-0.0106,-0.0788,-89.2995,0.0,-0.1345,11.001,-0.0,-0.0495,4.043,0.0001,-0.0079
30226,-106.8165,5.8291,-0.0106,-0.0788,-89.2995,0.0,-0.1345,11.001,-0.0,-0.0495,4.043,0.0001,-0.0079
30245,-106.82,6.111,-0.0106,-0.0774,-89.2995,0.0,-0.1357,11.1024,-0.0,-0.0485,3.9802,-0.0002,0.0068
30258,-106.8231,6.3642,-0.0106,-0.0761,-89.2995,0.0,-0.1368,11.1912,-0.0,-0.0479,3.9159,-0.0004,-0.0026
30274,-106.8231,6.3642,-0.0106,-0.0761,-89.2995,0.0,-0.1368,11.1912,-0.0,-0.0479,3.9159,-0.0004,-0.0026
30290,-106.8259,6.5981,-0.0106,-0.075,-89.2995,0.0,-0.1378,11.2714,0.0,-0.0472,3.8584,0.0011,0.0005
30309,-106.8287,6.8236,-0.0106,-0.0738,-89.2995,0.0,-0.1387,11.3473,0.0,-0.0465,3.8079,-0.0003,0.0008
30325,-106.8314,7.0445,-0.0106,-0.0728,-89.2995,0.0,-0.1396,11.42,0.0,-0.0459,3.7571,0.0002,0.0011
30341,-106.8341,7.2713,-0.0106,-0.0717,-89.2995,0.0,-0.1405,11.4933,0.0,-0.0453,3.7084,-0.0002,0.0016
30354,-106.8341,7.2713,-0.0106,-0.0717,-89.2995,0.0,-0.1405,11.4933,0.0,-0.0453,3.7084,-0.0002,0.0016
30370,-106.8369,7.4982,-0.0106,-0.0707,-89.2995,0.0,-0.1414,11.5653,0.0,-0.0447,3.6599,0.0002,0.0022
30386,-106.8396,7.7202,-0.0106,-0.0698,-89.2995,0.0,-0.1423,11.6343,-0.0,-0.0441,3.6129,-0.0007,0.0028
30406,-106.8423,7.9393,-0.0107,-0.0689,-89.2995,0.0,-0.1431,11.7012,0.0,-0.0436,3.5678,0.0005,0.0032
30418,-106.845,8.1606,-0.0107,-0.068,-89.2995,0.0,-0.1439,11.7676,0.0,-0.0431,3.5236,0.0002,0.0037
30434,-106.845,8.1606,-0.0107,-0.068,-89.2995,0.0,-0.1439,11.7676,0.0,-0.0431,3.5236,0.0002,0.0037
30450,-106.8482,8.4224,-0.0107,-0.067,-89.2995,0.0,-0.1448,11.8446,0.0,-0.0425,3.4751,0.0,-0.0009
30466,-106.851,8.6516,-0.0107,-0.0661,-89.2995,0.0,-0.1456,11.9106,0.0,-0.0419,3.4295,0.0003,-0.0011
30493,-106.8538,8.878,-0.0107,-0.0653,-89.2995,0.0,-0.1464,11.9747,0.0,-0.0414,3.3857,-0.0002,-0.0012
30498,-106.8538,8.878,-0.0107,-0.0653,-89.2995,0.0,-0.1464,11.9747,0.0,-0.0414,3.3857,-0.0002,-0.0012
30514,-106.8578,9.2028,-0.0107,-0.0641,-89.2995,0.0,-0.1475,12.0647,0.0,-0.0407,3.3346,-0.0002,0.001
30533,-106.8608,9.4467,-0.0107,-0.0633,-89.2995,0.0,-0.1483,12.1308,0.0,-0.0401,3.2818,0.0,-0.0001
30546,-106.8636,9.6774,-0.0107,-0.0625,-89.2995,0.0,-0.1491,12.1923,-0.0,-0.0397,3.2418,-0.0004,-0.0001
30565,-106.8665,9.9133,-0.0107,-0.0617,-89.2995,0.0,-0.1498,12.2539,-0.0,-0.0392,3.2007,-0.0003,-0.0001
30578,-106.8665,9.9133,-0.0107,-0.0617,-89.2995,0.0,-0.1498,12.2539,-0.0,-0.0392,3.2007,-0.0003,-0.0001
30602,-106.8707,10.2566,-0.0107,-0.0605,-89.2995,0.0,-0.1509,12.3418,-0.0,-0.0385,3.1509,-0.0003,0.0001
30610,-106.8707,10.2566,-0.0107,-0.0605,-89.2995,0.0,-0.1509,12.3418,-0.0,-0.0385,3.1509,-0.0003,0.0001
30628,-106.8762,10.7118,-0.0107,-0.0591,-89.2995,0.0,-0.1523,12.4549,-0.0,-0.0377,3.0847,0.0004,0.0001
30642,-106.8762,10.7118,-0.0107,-0.0591,-89.2995,0.0,-0.1523,12.4549,-0.0,-0.0377,3.0847,0.0004,0.0001
30658,-106.8802,11.0386,-0.0107,-0.0581,-89.2995,0.0,-0.1533,12.5339,0.0,-0.037,3.0213,0.0004,-0.0001
30677,-106.8834,11.297,-0.0107,-0.0574,-89.2995,0.0,-0.154,12.595,-0.0,-0.0363,2.9742,-0.0007,-0.0
30690,-106.8863,11.5352,-0.0107,-0.0567,-89.2995,0.0,-0.1547,12.6499,-0.0,-0.0356,2.9123,0.0001,-0.0
30708,-106.8892,11.775,-0.0107,-0.0558,-89.2995,0.0,-0.1553,12.7012,-0.0,-0.0332,2.7158,-0.0002,-0.0
30722,-106.8892,11.775,-0.0107,-0.0558,-89.2995,0.0,-0.1553,12.7012,-0.0,-0.0332,2.7158,-0.0002,-0.0
30738,-106.8923,12.0242,-0.0108,-0.0549,-89.2995,0.0,-0.1559,12.7506,0.0,-0.0309,2.5226,0.0005,0.0
30757,-106.8952,12.2654,-0.0108,-0.0538,-89.2995,-0.0,-0.1564,12.7947,0.0,-0.0287,2.3372,0.0002,-0.0
30773,-106.8982,12.5119,-0.0108,-0.0526,-89.2995,-0.0,-0.157,12.8364,0.0,-0.0266,2.1697,-0.0001,-0.0
30786,-106.8982,12.5119,-0.0108,-0.0526,-89.2995,-0.0,-0.157,12.8364,0.0,-0.0266,2.1697,-0.0001,-0.0
30802,-106.9025,12.8588,-0.0108,-0.0506,-89.2995,0.0,-0.1576,12.8896,0.0,-0.0241,1.9753,-0.0001,-0.0
30821,-106.9054,13.1011,-0.0108,-0.0491,-89.2995,0.0,-0.158,12.9235,0.0,-0.022,1.8068,0.0,-0.0
30837,-106.9088,13.3762,-0.0108,-0.0473,-89.2995,0.0,-0.1584,12.9584,0.0,-0.0201,1.6443,0.0003,-0.0
30850,-106.9088,13.3762,-0.0108,-0.0473,-89.2995,0.0,-0.1584,12.9584,0.0,-0.0201,1.6443,0.0003,-0.0
30866,-106.9123,13.6638,-0.0108,-0.0453,-89.2995,0.0,-0.1589,12.9918,0.0,-0.0184,1.5043,-0.0002,-0.0
30893,-106.9154,13.9116,-0.0108,-0.0434,-89.2995,0.0,-0.1592,13.0186,0.0,-0.0173,1.4103,-0.0,-0.0
30899,-106.9154,13.9116,-0.0108,-0.0434,-89.2995,0.0,-0.1592,13.0186,0.0,-0.0173,1.4103,-0.0,-0.0
30915,-106.9197,14.2658,-0.0109,-0.0408,-89.2995,0.0,-0.1596,13.0537,0.0,-0.0157,1.2899,0.0002,-0.0
30950,-106.926,14.7824,-0.0109,-0.0371,-89.2995,0.0,-0.1601,13.0976,0.0,-0.0134,1.0798,0.0008,-0.0
30967,-106.9299,15.0501,-0.0109,-0.0352,-89.3272,0.0048,-0.2275,13.1127,0.0,-3.2984,0.7396,0.0007,-2.3027
30979,-106.9353,15.2967,-0.0109,-0.0329,-89.4294,0.0198,-0.3507,13.114,0.0001,-6.5504,0.0706,0.0063,-6.5652
30995,-106.9353,15.2967,-0.0109,-0.0329,-89.4294,0.0198,-0.3507,13.114,0.0001,-6.5504,0.0706,0.0063,-6.5652
31011,-106.9433,15.5584,-0.0109,-0.0299,-89.6502,0.0451,-0.5206,13.1013,0.0004,-8.5074,-0.6353,0.0122,-12.6122
31030,-106.9546,15.8348,-0.0109,-0.0262,-90.0204,0.0753,-0.7201,13.0743,0.0007,-9.4439,-1.2811,0.0142,-20.0768
31045,-106.9675,16.0785,-0.011,-0.0219,-90.5011,0.1079,-0.9124,13.0382,0.0009,-10.2957,-1.9311,0.011,-27.6459
31059,-106.9837,16.333,-0.011,-0.0166,-91.1695,0.1428,-1.1185,12.9902,0.0011,-10.5258,-2.451,0.0106,-36.3283
31075,-106.9837,16.333,-0.011,-0.0166,-91.1695,0.1428,-1.1185,12.9902,0.0011,-10.5258,-2.451,0.0106,-36.3283
31091,-107.0013,16.5708,-0.011,-0.011,-91.9565,0.1733,-1.3082,12.9382,0.0012,-10.3204,-2.8291,0.0069,-45.0064
31107,-107.0242,16.8448,-0.011,-0.0043,-93.063,0.2032,-1.5154,12.8726,0.0012,-9.7397,-3.0824,0.001,-55.5518
31126,-107.047,17.0884,-0.011,0.0024,-94.2636,0.2283,-1.6936,12.8081,0.0012,-9.3623,-3.3897,-0.0003,-65.5735
31142,-107.072,17.3346,-0.0111,0.0093,-95.688,0.2486,-1.8593,12.7403,0.0012,-8.5515,-3.5006,-0.0046,-76.1828
31155,-107.0989,17.5844,-0.0111,0.0163,-97.3621,0.2633,-2.0092,12.6707,0.001,-7.5723,-3.5165,-0.0072,-87.381
31171,-107.0989,17.5844,-0.0111,0.0163,-97.3621,0.2633,-2.0092,12.6707,0.001,-7.5723,-3.5165,-0.0072,-87.381
31187,-107.1275,17.839,-0.0111,0.0223,-99.2952,0.2708,-2.1314,12.6045,0.0007,-6.0121,-3.2568,-0.0128,-98.9846
31205,-107.1567,18.0935,-0.0112,0.0276,-101.4861,0.2716,-2.2284,12.541,0.0005,-4.7386,-3.1019,-0.0118,-110.9171
31222,-107.1835,18.3246,-0.0112,0.0318,-103.7277,0.2664,-2.2982,12.484,0.0003,-3.717,-3.0317,-0.0109,-122.1807
31235,-107.1835,18.3246,-0.0112,0.0318,-103.7277,0.2664,-2.2982,12.484,0.0003,-3.717,-3.0317,-0.0109,-122.1807
31251,-107.2122,18.575,-0.0112,0.0348,-106.4028,0.2552,-2.336,12.4312,-0.0,-1.8371,-2.5736,-0.0157,-134.4077
31267,-107.2373,18.8004,-0.0112,0.0361,-109.0697,0.2385,-2.3494,12.3855,-0.0002,-0.7227,-2.4485,-0.0115,-145.7734
31293,-107.2604,19.0183,-0.0112,0.0359,-111.8763,0.2182,-2.3341,12.3472,-0.0005,0.8423,-2.1062,-0.0131,-156.8488
31299,-107.2914,19.3339,-0.0112,0.0326,-116.3565,0.1817,-2.2629,12.3,-0.0008,2.6644,-1.7653,-0.0116,-173.0894
31315,-107.2914,19.3339,-0.0112,0.0326,-116.3565,0.1817,-2.2629,12.3,-0.0008,2.6644,-1.7653,-0.0116,-173.0894
31331,-107.3109,19.5656,-0.0112,0.0265,-119.9532,0.1463,-2.1257,12.29,-0.001,6.9051,-0.5027,-0.0108,-183.4384
31356,-107.3269,19.8015,-0.0111,0.0165,-123.8102,0.1052,-1.8883,12.2993,-0.0012,11.6343,0.4569,-0.0109,-191.6451
31363,-107.3269,19.8015,-0.0111,0.0165,-123.8102,0.1052,-1.8883,12.2993,-0.0012,11.6343,0.4569,-0.0109,-191.6451
31379,-107.3384,20.0935,-0.011,-0.0036,-128.8421,0.0386,-1.4982,12.3116,-0.0016,15.2923,0.4791,-0.0145,-199.8236
31404,-107.3401,20.3533,-0.0109,-0.0265,-133.5182,-0.0256,-1.0761,12.3067,-0.0015,18.3904,-0.2096,0.0022,-205.5302
31411,-107.3401,20.3533,-0.0109,-0.0265,-133.5182,-0.0256,-1.0761,12.3067,-0.0015,18.3904,-0.2096,0.0022,-205.5302
31427,-107.3315,20.632,-0.0107,-0.0558,-138.7319,-0.0999,-0.5614,12.271,-0.0001,20.6295,-1.4338,0.0586,-210.5217
31443,-107.3163,20.8501,-0.0105,-0.0817,-142.9526,-0.1607,-0.1241,12.2147,0.0008,22.0683,-2.8405,0.0419,-213.7524
31462,-107.2934,21.0667,-0.0103,-0.1082,-147.2659,-0.2189,0.3354,12.1278,0.0014,22.9827,-4.3436,0.0316,-216.4218
31478,-107.2654,21.2666,-0.0101,-0.1325,-151.3579,-0.2698,0.7777,12.0155,0.0018,23.5698,-5.9854,0.021,-218.5601
31491,-107.2308,21.4624,-0.0098,-0.156,-155.4815,-0.3183,1.2247,11.8723,0.002,23.8482,-7.6416,0.0111,-220.4944
31507,-107.2308,21.4624,-0.0098,-0.156,-155.4815,-0.3183,1.2247,11.8723,0.002,23.8482,-7.6416,0.0111,-220.4944
31523,-107.1889,21.6576,-0.0096,-0.179,-159.7204,-0.3654,1.6805,11.6937,0.0021,23.8594,-9.3503,0.0062,-222.3295
31557,-107.0877,22.027,-0.0093,-0.2202,-168.1643,-0.4487,2.5594,11.2459,0.0021,23.1006,-12.7921,-0.0031,-225.8318
31571,-107.0877,22.027,-0.0093,-0.2202,-168.1643,-0.4487,2.5594,11.2459,0.0021,23.1006,-12.7921,-0.0031,-225.8318
31587,-107.0011,22.2792,-0.009,-0.2447,-174.3266,-0.5074,3.0972,10.7651,0.0021,19.7821,-17.6876,0.0014,-227.0467
31605,-106.9354,22.448,-0.0089,-0.2575,-178.7185,-0.5546,3.3891,10.3425,0.0022,15.1446,-21.9267,0.0024,-228.1551
31636,-106.8668,22.609,-0.0088,-0.2672,176.8408,-0.604,3.6268,9.8771,0.0022,12.2439,-23.9718,0.0023,-228.9141
31643,-106.8668,22.609,-0.0088,-0.2672,176.8408,-0.604,3.6268,9.8771,0.0022,12.2439,-23.9718,0.0023,-228.9141
31659,-106.7542,22.8508,-0.0086,-0.2764,169.6228,-0.6824,3.8741,9.0567,0.0022,7.856,-26.0565,-0.0012,-229.3144
31685,-106.6845,22.9885,-0.0085,-0.2784,165.111,-0.7351,3.941,8.5191,0.0022,3.397,-27.3028,-0.0015,-229.0699
31691,-106.6845,22.9885,-0.0085,-0.2784,165.111,-0.7351,3.941,8.5191,0.0022,3.397,-27.3028,-0.0015,-229.0699
31707,-106.6003,23.1711,-0.0087,-0.2596,159.132,-0.7838,3.4284,8.0761,-0.0034,-18.7411,-16.1946,-0.2036,-213.5263
31723,-106.6003,23.1711,-0.0087,-0.2596,159.132,-0.7838,3.4284,8.0761,-0.0034,-18.7411,-16.1946,-0.2036,-213.5263
31739,-106.5186,23.3974,-0.0091,-0.2117,151.9333,-0.8275,2.6626,7.5594,-0.0014,-21.6291,-14.5929,0.057,-198.408
31758,-106.478,23.5652,-0.0093,-0.1634,146.6078,-0.8712,2.0237,7.2028,0.0031,-23.214,-12.9565,0.1645,-191.4166
31771,-106.478,23.5652,-0.0093,-0.1634,146.6078,-0.8712,2.0237,7.2028,0.0031,-23.214,-12.9565,0.1645,-191.4166
31787,-106.4604,23.6888,-0.0095,-0.1294,142.7134,-0.8966,1.5049,7.0373,0.0023,-25.0394,-7.9896,-0.0398,-185.6944
31806,-106.455,23.8376,-0.0098,-0.0848,138.2897,-0.9132,0.8613,6.9936,0.0016,-25.9586,-1.7597,-0.0289,-174.4626
31819,-106.455,23.8376,-0.0098,-0.0848,138.2897,-0.9132,0.8613,6.9936,0.0016,-25.9586,-1.7597,-0.0289,-174.4626
31847,-106.4668,24.0,-0.0102,-0.0347,133.9583,-0.9101,0.1927,7.0864,0.0008,-25.4978,3.5365,-0.029,-160.3884
31853,-106.4668,24.0,-0.0102,-0.0347,133.9583,-0.9101,0.1927,7.0864,0.0008,-25.4978,3.5365,-0.029,-160.3884
31869,-106.4964,24.1776,-0.0105,0.0177,129.8624,-0.89,-0.4616,7.2691,0.0002,-23.9307,6.6832,-0.0244,-144.349
31885,-106.5232,24.2961,-0.0108,0.049,127.4813,-0.8705,-0.8367,7.4205,-0.0002,-21.4593,8.662,-0.022,-133.4942
31905,-106.562,24.4445,-0.011,0.0823,124.8423,-0.8398,-1.2061,7.6364,-0.0007,-17.5371,10.2495,-0.0204,-121.385
31917,-106.601,24.5821,-0.0113,0.1097,122.6928,-0.7985,-1.438,7.8402,-0.0009,-12.3847,10.8809,-0.0154,-112.7652
31933,-106.6458,24.7363,-0.0114,0.1327,120.501,-0.7458,-1.5787,8.0588,-0.0012,-6.9331,10.7742,-0.0136,-105.9563
31949,-106.6458,24.7363,-0.0114,0.1327,120.501,-0.7458,-1.5787,8.0588,-0.0012,-6.9331,10.7742,-0.0136,-105.9563
31965,-106.69,24.8902,-0.0116,0.1507,118.4951,-0.6766,-1.6271,8.2609,-0.0016,-2.4708,10.3262,-0.0176,-101.5076
31984,-106.7346,25.0516,-0.0118,0.1636,116.5132,-0.5975,-1.5937,8.4552,-0.002,1.6727,9.7458,-0.0219,-98.8426
32000,-106.7857,25.2503,-0.0119,0.1727,114.1793,-0.5007,-1.4717,8.671,-0.0025,5.1061,9.0321,-0.0198,-97.2368
32013,-106.7857,25.2503,-0.0119,0.1727,114.1793,-0.5007,-1.4717,8.671,-0.0025,5.1061,9.0321,-0.0198,-97.2368
32029,-106.8246,25.417,-0.012,0.1762,112.2894,-0.4128,-1.3284,8.8332,-0.0028,7.3352,8.3031,-0.0175,-96.6306
32064,-106.8967,25.7808,-0.0121,0.1757,108.295,-0.2424,-0.9254,9.1348,-0.0032,10.3601,6.951,-0.0084,-96.4566
32081,-106.9249,25.9559,-0.0121,0.1733,106.4662,-0.1658,-0.7969,9.2761,-0.0034,6.6338,7.294,-0.008,-93.5275
32093,-106.9249,25.9559,-0.0121,0.1733,106.4662,-0.1658,-0.7969,9.2761,-0.0034,6.6338,7.294,-0.008,-93.5275
32109,-106.9539,26.1504,-0.0122,0.171,104.5852,-0.1087,-0.7538,9.422,-0.0033,2.0389,6.9096,0.0057,-86.449
32128,-106.9815,26.3437,-0.0122,0.1682,102.9375,-0.0749,-0.8003,9.5392,-0.0029,-2.2503,5.6801,0.0165,-76.2847
32144,-107.0096,26.5404,-0.0123,0.164,101.527,-0.0623,-0.9177,9.6238,-0.0024,-5.6655,4.0798,0.0251,-63.7569
32157,-107.0382,26.7331,-0.0123,0.158,100.4267,-0.068,-1.0847,9.6695,-0.0018,-8.3056,2.2725,0.0311,-50.1446
32173,-107.0382,26.7331,-0.0123,0.158,100.4267,-0.068,-1.0847,9.6695,-0.0018,-8.3056,2.2725,0.0311,-50.1446
32193,-107.0739,26.9642,-0.0122,0.1484,99.4553,-0.0857,-1.2435,9.7145,-0.0009,-6.6264,1.8778,0.0364,-36.1312
32208,-107.1061,27.1697,-0.0122,0.1392,98.8276,-0.0981,-1.3277,9.7552,-0.0003,-3.9732,1.924,0.0285,-26.6595
32221,-107.1061,27.1697,-0.0122,0.1392,98.8276,-0.0981,-1.3277,9.7552,-0.0003,-3.9732,1.924,0.0285,-26.6595
32237,-107.1385,27.3777,-0.0121,0.1295,98.3652,-0.1041,-1.3727,9.7953,0.0,-2.1121,1.8799,0.0143,-19.4352
32256,-107.1789,27.6424,-0.012,0.1168,97.9649,-0.1019,-1.393,9.8425,0.0001,-0.7502,1.7498,0.0051,-12.8245
32269,-107.1789,27.6424,-0.012,0.1168,97.9649,-0.1019,-1.393,9.8425,0.0001,-0.7502,1.7498,0.0051,-12.8245
32285,-107.2099,27.8513,-0.0119,0.1078,97.7452,-0.0952,-1.3907,9.8763,0.0001,0.1057,1.5909,-0.002,-9.2526
32304,-107.2392,28.0575,-0.0112,0.1341,97.5897,0.0207,-1.3876,9.904,0.0421,0.1485,1.3334,2.0184,-6.6924
32320,-107.2689,28.2639,-0.011,0.1293,97.4777,0.0246,-1.3917,9.9157,-0.058,-0.1955,0.5581,-4.8085,-4.7263
32333,-107.2689,28.2639,-0.011,0.1293,97.4777,0.0246,-1.3917,9.9157,-0.058,-0.1955,0.5581,-4.8085,-4.7263
32349,-107.2975,28.4658,-0.0111,0.1114,97.3963,-0.001,-1.3643,9.9411,-0.0103,1.3473,1.2494,2.3448,-3.6308
32365,-107.3277,28.6839,-0.0112,0.0961,97.3344,-0.0116,-1.345,9.9666,-0.008,0.8787,1.1651,0.1077,-2.4451
32383,-107.3581,28.9087,-0.0112,0.0836,97.2887,-0.0136,-1.3292,9.9887,-0.0061,0.7015,0.9814,0.0842,-1.8691
32397,-107.3581,28.9087,-0.0112,0.0836,97.2887,-0.0136,-1.3292,9.9887,-0.0061,0.7015,0.9814,0.0842,-1.8691
32413,-107.3855,29.1152,-0.0113,0.0743,97.2601,-0.0121,-1.3178,10.0082,-0.0047,0.5511,0.9414,0.0653,-1.18
32432,-107.4123,29.3183,-0.0113,0.0666,97.2388,-0.0095,-1.3088,10.025,-0.0038,0.443,0.8283,0.0477,-0.978
32448,-107.4383,29.5183,-0.0113,0.0597,97.2236,-0.0065,-1.3018,10.0403,-0.0032,0.3558,0.768,0.0284,-0.8646
32461,-107.4663,29.7347,-0.0113,0.0537,97.2138,-0.0038,-1.296,10.0562,-0.0024,0.2671,0.7412,0.0374,-0.2686
32477,-107.4663,29.7347,-0.0113,0.0537,97.2138,-0.0038,-1.296,10.0562,-0.0024,0.2671,0.7412,0.0374,-0.2686
32493,-107.4923,29.9367,-0.0113,0.0489,97.2053,-0.0018,-1.292,10.07,-0.0019,0.2015,0.6838,0.0226,-0.4539
32509,-107.5194,30.1481,-0.0113,0.0443,97.2006,-0.0001,-1.2888,10.084,-0.0015,0.1486,0.6675,0.0187,-0.1279
32525,-107.5464,30.3595,-0.0113,0.0403,97.196,0.0012,-1.2866,10.0971,-0.0012,0.1047,0.6253,0.016,-0.2606
32541,-107.5464,30.3595,-0.0113,0.0403,97.196,0.0012,-1.2866,10.0971,-0.0012,0.1047,0.6253,0.016,-0.2606
32557,-107.5755,30.5896,-0.011,0.0168,97.1927,0.0281,-1.2848,10.1066,0.0182,0.0822,0.4182,0.8507,-0.1692
32573,-107.5755,30.5896,-0.011,0.0168,97.1927,0.0281,-1.2848,10.1066,0.0182,0.0822,0.4182,0.8507,-0.1692
32589,-107.62,30.9431,-0.0098,-0.0461,97.1898,0.096,-1.2895,10.1349,0.0253,-0.1346,0.8083,0.2047,0.2278
32607,-107.6489,31.1677,-0.0103,-0.0187,97.1881,0.05,-1.2857,10.1424,-0.0118,0.1719,0.3415,-1.6766,-0.2238
32621,-107.6489,31.1677,-0.0103,-0.0187,97.1881,0.05,-1.2857,10.1424,-0.0118,0.1719,0.3415,-1.6766,-0.2238
32640,-107.6872,31.4696,-0.0107,0.0023,97.1944,0.0207,-1.2821,10.1547,-0.0084,0.1217,0.4126,0.1128,0.8111
32653,-107.6872,31.4696,-0.0107,0.0023,97.1944,0.0207,-1.2821,10.1547,-0.0084,0.1217,0.4126,0.1128,0.8111
32669,-107.7173,31.7073,-0.0109,0.0104,97.1905,0.0112,-1.2825,10.1665,-0.0058,-0.021,0.5059,0.1102,-0.4106
32688,-107.7475,31.9468,-0.0111,0.0147,97.1939,0.0064,-1.2835,10.1772,-0.0042,-0.0404,0.4559,0.0709,0.3632
32701,-107.7737,32.1545,-0.0111,0.0165,97.1928,0.0042,-1.285,10.1888,-0.003,-0.0734,0.5647,0.0573,-0.128
32717,-107.7737,32.1545,-0.0111,0.0165,97.1928,0.0042,-1.285,10.1888,-0.003,-0.0734,0.5647,0.0573,-0.128
32736,-107.8033,32.3894,-0.0112,0.0173,97.1944,0.0027,-1.2867,10.2012,-0.0021,-0.0732,0.5399,0.0382,0.1833
32749,-107.8033,32.3894,-0.0112,0.0173,97.1944,0.0027,-1.2867,10.2012,-0.0021,-0.0732,0.5399,0.0382,0.1833
32765,-107.8392,32.6733,-0.0112,0.0173,97.1913,0.0018,-1.2885,10.214,-0.0014,-0.0666,0.4614,0.0273,-0.4444
32784,-107.8691,32.9104,-0.0113,0.0168,97.1941,0.0013,-1.2899,10.2244,-0.0009,-0.0592,0.4477,0.0208,0.297
32797,-107.8691,32.9104,-0.0113,0.0168,97.1941,0.0013,-1.2899,10.2244,-0.0009,-0.0592,0.4477,0.0208,0.297
32813,-107.8991,33.1484,-0.0113,0.0161,97.1922,0.001,-1.2915,10.2359,-0.0006,-0.068,0.4945,0.0143,-0.242
32832,-107.9263,33.3636,-0.0113,0.0155,97.1935,0.0008,-1.2929,10.247,-0.0003,-0.0692,0.5272,0.0097,0.137
32848,-107.9532,33.5768,-0.0113,0.0149,97.1928,0.0007,-1.2944,10.2581,-0.0002,-0.071,0.5356,0.0068,-0.0853
32864,-107.979,33.7818,-0.0113,0.0143,97.1918,0.0006,-1.2957,10.268,-0.0001,-0.0663,0.4952,0.0048,-0.2501
32877,-107.979,33.7818,-0.0113,0.0143,97.1918,0.0006,-1.2957,10.268,-0.0001,-0.0663,0.4952,0.0048,-0.2501
32893,-108.0061,33.9962,-0.0113,0.0137,97.193,0.0005,-1.297,10.2783,-0.0,-0.0622,0.494,0.0041,0.1322
32912,-108.0329,34.2089,-0.0113,0.0133,97.1924,0.0005,-1.2984,10.289,0.0,-0.0663,0.5166,0.0013,-0.0823
32927,-108.0596,34.4205,-0.0113,0.0128,97.1929,0.0004,-1.2997,10.2995,0.0,-0.0646,0.5093,0.0016,0.0585
32941,-108.0596,34.4205,-0.0113,0.0128,97.1929,0.0004,-1.2997,10.2995,0.0,-0.0646,0.5093,0.0016,0.0585
32957,-108.0853,34.6236,-0.0113,0.0124,97.1935,0.0003,-1.3009,10.3091,0.0001,-0.0614,0.4903,0.002,0.1689
32973,-108.1112,34.829,-0.0113,0.012,97.195,0.0003,-1.302,10.3177,0.0001,-0.0531,0.4297,0.0,0.4215
32991,-108.1431,35.082,-0.0113,0.0114,97.1918,0.0003,-1.3033,10.3271,0.0001,-0.0525,0.384,-0.0007,-0.3679
33005,-108.1688,35.2852,-0.0113,0.011,97.1907,0.0002,-1.3041,10.3329,0.0001,-0.0408,0.2936,0.0013,-0.6232
33021,-108.1688,35.2852,-0.0113,0.011,97.1907,0.0002,-1.3041,10.3329,0.0001,-0.0408,0.2936,0.0013,-0.6232
33039,-108.1969,35.5081,-0.0112,0.0105,97.1928,0.0002,-1.3053,10.3429,0.0001,-0.055,0.4644,-0.0002,0.1914
33056,-108.2233,35.7174,-0.0112,0.0103,97.1919,0.0002,-1.3066,10.3538,0.0001,-0.0671,0.5377,-0.0006,-0.0889
33071,-108.2484,35.9161,-0.0112,0.0101,97.1912,0.0001,-1.3078,10.3631,0.0001,-0.0616,0.4875,0.0001,-0.2154
33085,-108.2484,35.9161,-0.0112,0.0101,97.1912,0.0001,-1.3078,10.3631,0.0001,-0.0616,0.4875,0.0001,-0.2154
33101,-108.2753,36.1293,-0.0112,0.0099,97.1921,0.0001,-1.309,10.3732,0.0001,-0.0594,0.49,-0.0007,0.1031
33119,-108.3018,36.3393,-0.0112,0.0098,97.1916,0.0002,-1.3103,10.3834,0.0,-0.0627,0.5049,-0.0007,-0.0589
33136,-108.3284,36.5499,-0.0112,0.0097,97.1919,0.0002,-1.3115,10.3934,0.0,-0.0611,0.4939,0.0001,0.0372
33151,-108.3559,36.7677,-0.0112,0.0096,97.1917,0.0001,-1.3128,10.4036,0.0,-0.0605,0.4851,0.0001,-0.0312
33165,-108.3559,36.7677,-0.0112,0.0096,97.1917,0.0001,-1.3128,10.4036,0.0,-0.0605,0.4851,0.0001,-0.0312
33181,-108.383,36.9825,-0.0112,0.0095,97.1918,0.0001,-1.314,10.4134,0.0,-0.0593,0.4763,-0.0006,0.0229
33199,-108.4109,37.2041,-0.0112,0.0094,97.1917,0.0001,-1.3153,10.4234,0.0,-0.0588,0.469,0.0004,-0.0207
33213,-108.44,37.4345,-0.0112,0.0093,97.1918,0.0001,-1.3166,10.4336,0.0,-0.0578,0.4617,-0.0003,0.0228
33229,-108.44,37.4345,-0.0112,0.0093,97.1918,0.0001,-1.3166,10.4336,0.0,-0.0578,0.4617,-0.0003,0.0228
