timestamp,x,y,z,pitch,yaw,roll,vx,vy,vz,ax,ay,az,yaw_rate
91371,-106.6867,-4.8475,-0.0794,0.0,-89.3578,0.0,0.0,-0.0,0.0552,0.0,-0.0,7.0513,-0.0
91387,-106.6867,-4.8475,-0.0794,0.0,-89.3578,0.0,0.0,-0.0,0.0552,0.0,-0.0,7.0513,-0.0
91403,-106.6867,-4.8475,-0.0794,0.0,-89.3578,0.0,0.0,-0.0,0.0552,0.0,-0.0,7.0513,-0.0
91419,-106.6867,-4.8475,-0.0794,0.0,-89.3578,0.0,0.0,-0.0,0.0552,0.0,-0.0,7.0513,-0.0
91435,-106.6867,-4.8475,-0.0794,0.0,-89.3578,0.0,0.0,-0.0,0.0552,0.0,-0.0,7.0513,-0.0
91451,-106.6867,-4.8475,-0.0794,0.0,-89.3578,0.0,0.0,-0.0,0.0552,0.0,-0.0,7.0513,-0.0
91467,-106.6867,-4.8475,-0.0794,0.0,-89.3578,0.0,0.0,-0.0,0.0552,0.0,-0.0,7.0513,-0.0
91483,-106.6867,-4.8475,-0.0794,0.0,-89.3578,0.0,0.0,-0.0,0.0552,0.0,-0.0,7.0513,-0.0
91499,-106.6867,-4.8475,-0.0794,0.0,-89.3578,0.0,0.0,-0.0,0.0552,0.0,-0.0,7.0513,-0.0
91515,-106.6867,-4.8475,-0.0794,0.0,-89.3578,0.0,0.0,-0.0,0.0552,0.0,-0.0,7.0513,-0.0
91531,-106.6867,-4.8475,-0.0794,0.0,-89.3578,0.0,0.0,-0.0,0.0552,0.0,-0.0,7.0513,-0.0
91547,-106.6867,-4.8475,-0.0794,0.0,-89.3578,0.0,0.0,-0.0,0.0552,0.0,-0.0,7.0513,-0.0
91563,-106.6867,-4.8475,-0.0794,0.0,-89.3578,0.0,0.0,-0.0,0.0552,0.0,-0.0,7.0513,-0.0
91579,-106.6867,-4.8475,-0.0794,0.0,-89.3578,0.0,0.0,-0.0,0.0552,0.0,-0.0,7.0513,-0.0
91595,-106.6867,-4.8475,-0.0794,0.0,-89.3578,0.0,0.0,-0.0,0.0552,0.0,-0.0,7.0513,-0.0
91611,-106.6867,-4.8475,-0.0794,0.0,-89.3578,0.0,0.0,-0.0,0.0552,0.0,-0.0,7.0513,-0.0
91627,-106.6867,-4.8475,-0.0794,0.0,-89.3578,0.0,0.0,-0.0,0.0552,0.0,-0.0,7.0513,-0.0
91643,-106.6867,-4.8475,-0.0794,0.0,-89.3578,0.0,0.0,-0.0,0.0552,0.0,-0.0,7.0513,-0.0
91659,-106.6867,-4.8475,-0.0794,0.0,-89.3578,0.0,0.0,-0.0,0.0552,0.0,-0.0,7.0513,-0.0
91675,-106.6867,-4.8475,-0.0794,0.0,-89.3578,0.0,0.0,-0.0,0.0552,0.0,-0.0,7.0513,-0.0
91691,-106.6867,-4.8475,-0.0794,0.0,-89.3578,0.0,0.0,-0.0,0.0552,0.0,-0.0,7.0513,-0.0
91707,-106.6867,-4.8475,-0.0794,0.0,-89.3578,0.0,0.0,-0.0,0.0552,0.0,-0.0,7.0513,-0.0
91723,-106.6867,-4.8475,-0.0794,0.0,-89.3578,0.0,0.0,-0.0,0.0552,0.0,-0.0,7.0513,-0.0
91739,-106.6867,-4.8475,-0.0794,0.0,-89.3578,0.0,0.0,-0.0,0.0552,0.0,-0.0,7.0513,-0.0
91755,-106.6867,-4.8475,-0.0794,0.0,-89.3578,0.0,0.0,-0.0,0.0552,0.0,-0.0,7.0513,-0.0
91771,-106.6867,-4.8457,-0.06,-0.0016,-89.3578,-0.0,-0.0005,0.0411,0.2357,-0.0012,0.1029,0.451,0.0
91787,-106.6867,-4.8457,-0.06,-0.0016,-89.3578,-0.0,-0.0005,0.0411,0.2357,-0.0012,0.1029,0.451,0.0
91803,-106.6867,-4.8457,-0.06,-0.0016,-89.3578,-0.0,-0.0005,0.0411,0.2357,-0.0012,0.1029,0.451,0.0
91819,-106.6867,-4.8457,-0.06,-0.0016,-89.3578,-0.0,-0.0005,0.0411,0.2357,-0.0012,0.1029,0.451,0.0
91835,-106.6867,-4.8457,-0.06,-0.0016,-89.3578,-0.0,-0.0005,0.0411,0.2357,-0.0012,0.1029,0.451,0.0
91851,-106.6867,-4.8457,-0.06,-0.0016,-89.3578,-0.0,-0.0005,0.0411,0.2357,-0.0012,0.1029,0.451,0.0
91867,-106.6867,-4.8457,-0.06,-0.0016,-89.3578,-0.0,-0.0005,0.0411,0.2357,-0.0012,0.1029,0.451,0.0
91883,-106.6867,-4.8457,-0.06,-0.0016,-89.3578,-0.0,-0.0005,0.0411,0.2357,-0.0012,0.1029,0.451,0.0
91899,-106.6867,-4.8457,-0.06,-0.0016,-89.3578,-0.0,-0.0005,0.0411,0.2357,-0.0012,0.1029,0.451,0.0
91915,-106.6867,-4.8457,-0.06,-0.0016,-89.3578,-0.0,-0.0005,0.0411,0.2357,-0.0012,0.1029,0.451,0.0
91931,-106.6867,-4.8457,-0.06,-0.0016,-89.3578,-0.0,-0.0005,0.0411,0.2357,-0.0012,0.1029,0.451,0.0
91947,-106.6867,-4.8457,-0.06,-0.0016,-89.3578,-0.0,-0.0005,0.0411,0.2357,-0.0012,0.1029,0.451,0.0
91963,-106.6867,-4.8457,-0.06,-0.0016,-89.3578,-0.0,-0.0005,0.0411,0.2357,-0.0012,0.1029,0.451,0.0
91979,-106.6867,-4.8457,-0.06,-0.0016,-89.3578,-0.0,-0.0005,0.0411,0.2357,-0.0012,0.1029,0.451,0.0
91995,-106.6867,-4.8457,-0.06,-0.0016,-89.3578,-0.0,-0.0005,0.0411,0.2357,-0.0012,0.1029,0.451,0.0
92011,-106.6867,-4.8457,-0.06,-0.0016,-89.3578,-0.0,-0.0005,0.0411,0.2357,-0.0012,0.1029,0.451,0.0
92027,-106.6867,-4.8457,-0.06,-0.0016,-89.3578,-0.0,-0.0005,0.0411,0.2357,-0.0012,0.1029,0.451,0.0
92043,-106.6867,-4.8457,-0.06,-0.0016,-89.3578,-0.0,-0.0005,0.0411,0.2357,-0.0012,0.1029,0.451,0.0
92059,-106.6867,-4.8457,-0.06,-0.0016,-89.3578,-0.0,-0.0005,0.0411,0.2357,-0.0012,0.1029,0.451,0.0
92075,-106.6867,-4.8457,-0.06,-0.0016,-89.3578,-0.0,-0.0005,0.0411,0.2357,-0.0012,0.1029,0.451,0.0
92091,-106.6867,-4.8457,-0.06,-0.0016,-89.3578,-0.0,-0.0005,0.0411,0.2357,-0.0012,0.1029,0.451,0.0
92117,-106.6868,-4.8408,-0.0391,-0.0049,-89.3577,0.0,-0.0012,0.1039,0.1772,-0.0021,0.1846,-0.1719,0.0015
92123,-106.6868,-4.8408,-0.0391,-0.0049,-89.3577,0.0,-0.0012,0.1039,0.1772,-0.0021,0.1846,-0.1719,0.0015
92139,-106.6868,-4.8408,-0.0391,-0.0049,-89.3577,0.0,-0.0012,0.1039,0.1772,-0.0021,0.1846,-0.1719,0.0015
92155,-106.6868,-4.8408,-0.0391,-0.0049,-89.3577,0.0,-0.0012,0.1039,0.1772,-0.0021,0.1846,-0.1719,0.0015
92171,-106.6868,-4.8408,-0.0391,-0.0049,-89.3577,0.0,-0.0012,0.1039,0.1772,-0.0021,0.1846,-0.1719,0.0015
92187,-106.6868,-4.8408,-0.0391,-0.0049,-89.3577,0.0,-0.0012,0.1039,0.1772,-0.0021,0.1846,-0.1719,0.0015
92203,-106.6868,-4.8408,-0.0391,-0.0049,-89.3577,0.0,-0.0012,0.1039,0.1772,-0.0021,0.1846,-0.1719,0.0015
92224,-106.6872,-4.8025,-0.0254,-0.0305,-89.3578,0.0,-0.0067,0.6306,0.103,-0.0513,4.8666,-0.6859,0.1034
92235,-106.6872,-4.8025,-0.0254,-0.0305,-89.3578,0.0,-0.0067,0.6306,0.103,-0.0513,4.8666,-0.6859,0.1034
92251,-106.6872,-4.8025,-0.0254,-0.0305,-89.3578,0.0,-0.0067,0.6306,0.103,-0.0513,4.8666,-0.6859,0.1034
92267,-106.6872,-4.8025,-0.0254,-0.0305,-89.3578,0.0,-0.0067,0.6306,0.103,-0.0513,4.8666,-0.6859,0.1034
92283,-106.6872,-4.8025,-0.0254,-0.0305,-89.3578,0.0,-0.0067,0.6306,0.103,-0.0513,4.8666,-0.6859,0.1034
92299,-106.6872,-4.8025,-0.0254,-0.0305,-89.3578,0.0,-0.0067,0.6306,0.103,-0.0513,4.8666,-0.6859,0.1034
92319,-106.6882,-4.7181,-0.018,-0.0488,-89.3549,0.0,-0.0115,1.0163,0.054,-0.0481,3.9051,-0.4956,0.3578
92331,-106.6882,-4.7181,-0.018,-0.0488,-89.3549,0.0,-0.0115,1.0163,0.054,-0.0481,3.9051,-0.4956,0.3578
92347,-106.6882,-4.7181,-0.018,-0.0488,-89.3549,0.0,-0.0115,1.0163,0.054,-0.0481,3.9051,-0.4956,0.3578
92363,-106.6882,-4.7181,-0.018,-0.0488,-89.3549,0.0,-0.0115,1.0163,0.054,-0.0481,3.9051,-0.4956,0.3578
92379,-106.6882,-4.7181,-0.018,-0.0488,-89.3549,0.0,-0.0115,1.0163,0.054,-0.0481,3.9051,-0.4956,0.3578
92395,-106.6882,-4.7181,-0.018,-0.0488,-89.3549,0.0,-0.0115,1.0163,0.054,-0.0481,3.9051,-0.4956,0.3578
92411,-106.6882,-4.7181,-0.018,-0.0488,-89.3549,0.0,-0.0115,1.0163,0.054,-0.0481,3.9051,-0.4956,0.3578
92427,-106.6889,-4.6154,-0.0139,-0.0435,-89.401,-0.0001,-0.0137,1.1355,0.0301,-0.0215,1.1596,-0.233,-1.3643
92443,-106.6889,-4.6154,-0.0139,-0.0435,-89.401,-0.0001,-0.0137,1.1355,0.0301,-0.0215,1.1596,-0.233,-1.3643
92459,-106.6889,-4.6154,-0.0139,-0.0435,-89.401,-0.0001,-0.0137,1.1355,0.0301,-0.0215,1.1596,-0.233,-1.3643
92475,-106.6889,-4.6154,-0.0139,-0.0435,-89.401,-0.0001,-0.0137,1.1355,0.0301,-0.0215,1.1596,-0.233,-1.3643
92491,-106.6889,-4.6154,-0.0139,-0.0435,-89.401,-0.0001,-0.0137,1.1355,0.0301,-0.0215,1.1596,-0.233,-1.3643
92507,-106.6889,-4.6154,-0.0139,-0.0435,-89.401,-0.0001,-0.0137,1.1355,0.0301,-0.0215,1.1596,-0.233,-1.3643
92523,-106.6889,-4.6154,-0.0139,-0.0435,-89.401,-0.0001,-0.0137,1.1355,0.0301,-0.0215,1.1596,-0.233,-1.3643
92539,-106.6889,-4.6154,-0.0139,-0.0435,-89.401,-0.0001,-0.0137,1.1355,0.0301,-0.0215,1.1596,-0.233,-1.3643
92555,-106.6898,-4.4974,-0.0122,-0.03,-89.4274,-0.0003,-0.0107,1.1216,0.0112,0.0237,-0.1117,-0.1519,0.0928
92571,-106.6898,-4.4974,-0.0122,-0.03,-89.4274,-0.0003,-0.0107,1.1216,0.0112,0.0237,-0.1117,-0.1519,0.0928
92587,-106.6898,-4.4974,-0.0122,-0.03,-89.4274,-0.0003,-0.0107,1.1216,0.0112,0.0237,-0.1117,-0.1519,0.0928
92603,-106.6898,-4.4974,-0.0122,-0.03,-89.4274,-0.0003,-0.0107,1.1216,0.0112,0.0237,-0.1117,-0.1519,0.0928
92619,-106.6898,-4.4974,-0.0122,-0.03,-89.4274,-0.0003,-0.0107,1.1216,0.0112,0.0237,-0.1117,-0.1519,0.0928
92635,-106.6898,-4.4974,-0.0122,-0.03,-89.4274,-0.0003,-0.0107,1.1216,0.0112,0.0237,-0.1117,-0.1519,0.0928
92651,-106.6914,-4.3704,-0.0115,-0.0287,-89.4171,0.0005,-0.0155,1.3526,0.0046,-0.0475,2.3206,-0.0663,-0.5196
92667,-106.6914,-4.3704,-0.0115,-0.0287,-89.4171,0.0005,-0.0155,1.3526,0.0046,-0.0475,2.3206,-0.0663,-0.5196
92683,-106.6914,-4.3704,-0.0115,-0.0287,-89.4171,0.0005,-0.0155,1.3526,0.0046,-0.0475,2.3206,-0.0663,-0.5196
92699,-106.6914,-4.3704,-0.0115,-0.0287,-89.4171,0.0005,-0.0155,1.3526,0.0046,-0.0475,2.3206,-0.0663,-0.5196
92715,-106.6914,-4.3704,-0.0115,-0.0287,-89.4171,0.0005,-0.0155,1.3526,0.0046,-0.0475,2.3206,-0.0663,-0.5196
92731,-106.6914,-4.3704,-0.0115,-0.0287,-89.4171,0.0005,-0.0155,1.3526,0.0046,-0.0475,2.3206,-0.0663,-0.5196
92747,-106.6914,-4.3704,-0.0115,-0.0287,-89.4171,0.0005,-0.0155,1.3526,0.0046,-0.0475,2.3206,-0.0663,-0.5196
92763,-106.693,-4.211,-0.0111,-0.0411,-89.4401,0.0001,-0.0193,1.7787,0.002,-0.035,3.9178,-0.0238,0.1008
92779,-106.693,-4.211,-0.0111,-0.0411,-89.4401,0.0001,-0.0193,1.7787,0.002,-0.035,3.9178,-0.0238,0.1008
92795,-106.693,-4.211,-0.0111,-0.0411,-89.4401,0.0001,-0.0193,1.7787,0.002,-0.035,3.9178,-0.0238,0.1008
92811,-106.693,-4.211,-0.0111,-0.0411,-89.4401,0.0001,-0.0193,1.7787,0.002,-0.035,3.9178,-0.0238,0.1008
92827,-106.693,-4.211,-0.0111,-0.0411,-89.4401,0.0001,-0.0193,1.7787,0.002,-0.035,3.9178,-0.0238,0.1008
92843,-106.693,-4.211,-0.0111,-0.0411,-89.4401,0.0001,-0.0193,1.7787,0.002,-0.035,3.9178,-0.0238,0.1008
92863,-106.6951,-4.0039,-0.0108,-0.059,-89.4149,-0.0008,-0.0208,2.325,0.0009,-0.0144,4.9993,-0.0099,3.4749
92875,-106.6951,-4.0039,-0.0108,-0.059,-89.4149,-0.0008,-0.0208,2.325,0.0009,-0.0144,4.9993,-0.0099,3.4749
92891,-106.6951,-4.0039,-0.0108,-0.059,-89.4149,-0.0008,-0.0208,2.325,0.0009,-0.0144,4.9993,-0.0099,3.4749
92907,-106.6951,-4.0039,-0.0108,-0.059,-89.4149,-0.0008,-0.0208,2.325,0.0009,-0.0144,4.9993,-0.0099,3.4749
92923,-106.6951,-4.0039,-0.0108,-0.059,-89.4149,-0.0008,-0.0208,2.325,0.0009,-0.0144,4.9993,-0.0099,3.4749
92939,-106.6951,-4.0039,-0.0108,-0.059,-89.4149,-0.0008,-0.0208,2.325,0.0009,-0.0144,4.9993,-0.0099,3.4749
92955,-106.6951,-4.0039,-0.0108,-0.059,-89.4149,-0.0008,-0.0208,2.325,0.0009,-0.0144,4.9993,-0.0099,3.4749
92971,-106.6951,-4.0039,-0.0108,-0.059,-89.4149,-0.0008,-0.0208,2.325,0.0009,-0.0144,4.9993,-0.0099,3.4749
92987,-106.6972,-3.7376,-0.0107,-0.0734,-89.4709,-0.0005,-0.0258,2.9176,0.0004,-0.0488,5.7804,-0.005,1.5326
93003,-106.6972,-3.7376,-0.0107,-0.0734,-89.4709,-0.0005,-0.0258,2.9176,0.0004,-0.0488,5.7804,-0.005,1.5326
93019,-106.6972,-3.7376,-0.0107,-0.0734,-89.4709,-0.0005,-0.0258,2.9176,0.0004,-0.0488,5.7804,-0.005,1.5326
93035,-106.6972,-3.7376,-0.0107,-0.0734,-89.4709,-0.0005,-0.0258,2.9176,0.0004,-0.0488,5.7804,-0.005,1.5326
93051,-106.6972,-3.7376,-0.0107,-0.0734,-89.4709,-0.0005,-0.0258,2.9176,0.0004,-0.0488,5.7804,-0.005,1.5326
93067,-106.6972,-3.7376,-0.0107,-0.0734,-89.4709,-0.0005,-0.0258,2.9176,0.0004,-0.0488,5.7804,-0.005,1.5326
93083,-106.701,-3.4097,-0.0105,-0.0881,-89.4162,0.0005,-0.038,3.5984,0.0002,-0.1085,6.0886,-0.0019,-1.6138
93099,-106.701,-3.4097,-0.0105,-0.0881,-89.4162,0.0005,-0.038,3.5984,0.0002,-0.1085,6.0886,-0.0019,-1.6138
93115,-106.701,-3.4097,-0.0105,-0.0881,-89.4162,0.0005,-0.038,3.5984,0.0002,-0.1085,6.0886,-0.0019,-1.6138
93131,-106.701,-3.4097,-0.0105,-0.0881,-89.4162,0.0005,-0.038,3.5984,0.0002,-0.1085,6.0886,-0.0019,-1.6138
93147,-106.701,-3.4097,-0.0105,-0.0881,-89.4162,0.0005,-0.038,3.5984,0.0002,-0.1085,6.0886,-0.0019,-1.6138
93163,-106.701,-3.4097,-0.0105,-0.0881,-89.4162,0.0005,-0.038,3.5984,0.0002,-0.1085,6.0886,-0.0019,-1.6138
93184,-106.7056,-3.0363,-0.0106,-0.0805,-89.3443,0.0012,-0.0449,3.9876,0.0001,-0.0665,3.7226,-0.0009,2.5225
93195,-106.7056,-3.0363,-0.0106,-0.0805,-89.3443,0.0012,-0.0449,3.9876,0.0001,-0.0665,3.7226,-0.0009,2.5225
93211,-106.7056,-3.0363,-0.0106,-0.0805,-89.3443,0.0012,-0.0449,3.9876,0.0001,-0.0665,3.7226,-0.0009,2.5225
93227,-106.7056,-3.0363,-0.0106,-0.0805,-89.3443,0.0012,-0.0449,3.9876,0.0001,-0.0665,3.7226,-0.0009,2.5225
93243,-106.7056,-3.0363,-0.0106,-0.0805,-89.3443,0.0012,-0.0449,3.9876,0.0001,-0.0665,3.7226,-0.0009,2.5225
93259,-106.7056,-3.0363,-0.0106,-0.0805,-89.3443,0.0012,-0.0449,3.9876,0.0001,-0.0665,3.7226,-0.0009,2.5225
93283,-106.7107,-2.6286,-0.0105,-0.0837,-89.3117,0.0016,-0.0569,4.5486,0.0001,-0.1239,5.8251,-0.0006,-1.8879
93291,-106.7107,-2.6286,-0.0105,-0.0837,-89.3117,0.0016,-0.0569,4.5486,0.0001,-0.1239,5.8251,-0.0006,-1.8879
93307,-106.7107,-2.6286,-0.0105,-0.0837,-89.3117,0.0016,-0.0569,4.5486,0.0001,-0.1239,5.8251,-0.0006,-1.8879
93323,-106.7107,-2.6286,-0.0105,-0.0837,-89.3117,0.0016,-0.0569,4.5486,0.0001,-0.1239,5.8251,-0.0006,-1.8879
93339,-106.7107,-2.6286,-0.0105,-0.0837,-89.3117,0.0016,-0.0569,4.5486,0.0001,-0.1239,5.8251,-0.0006,-1.8879
93355,-106.7107,-2.6286,-0.0105,-0.0837,-89.3117,0.0016,-0.0569,4.5486,0.0001,-0.1239,5.8251,-0.0006,-1.8879
93371,-106.7107,-2.6286,-0.0105,-0.0837,-89.3117,0.0016,-0.0569,4.5486,0.0001,-0.1239,5.8251,-0.0006,-1.8879
93392,-106.7168,-2.1403,-0.0105,-0.0944,-89.2934,0.0009,-0.0625,5.2142,0.0,-0.0501,5.9279,-0.0003,1.9453
93403,-106.7168,-2.1403,-0.0105,-0.0944,-89.2934,0.0009,-0.0625,5.2142,0.0,-0.0501,5.9279,-0.0003,1.9453
93419,-106.7168,-2.1403,-0.0105,-0.0944,-89.2934,0.0009,-0.0625,5.2142,0.0,-0.0501,5.9279,-0.0003,1.9453
93435,-106.7168,-2.1403,-0.0105,-0.0944,-89.2934,0.0009,-0.0625,5.2142,0.0,-0.0501,5.9279,-0.0003,1.9453
93451,-106.7168,-2.1403,-0.0105,-0.0944,-89.2934,0.0009,-0.0625,5.2142,0.0,-0.0501,5.9279,-0.0003,1.9453
93467,-106.7168,-2.1403,-0.0105,-0.0944,-89.2934,0.0009,-0.0625,5.2142,0.0,-0.0501,5.9279,-0.0003,1.9453
93483,-106.7168,-2.1403,-0.0105,-0.0944,-89.2934,0.0009,-0.0625,5.2142,0.0,-0.0501,5.9279,-0.0003,1.9453
93503,-106.7238,-1.5741,-0.009,-0.1694,-89.2886,0.0582,-0.0732,6.0842,-0.0017,-0.0951,7.7088,-0.0149,2.8645
93515,-106.7238,-1.5741,-0.009,-0.1694,-89.2886,0.0582,-0.0732,6.0842,-0.0017,-0.0951,7.7088,-0.0149,2.8645
93531,-106.7238,-1.5741,-0.009,-0.1694,-89.2886,0.0582,-0.0732,6.0842,-0.0017,-0.0951,7.7088,-0.0149,2.8645
93547,-106.7238,-1.5741,-0.009,-0.1694,-89.2886,0.0582,-0.0732,6.0842,-0.0017,-0.0951,7.7088,-0.0149,2.8645
93563,-106.7238,-1.5741,-0.009,-0.1694,-89.2886,0.0582,-0.0732,6.0842,-0.0017,-0.0951,7.7088,-0.0149,2.8645
93579,-106.7238,-1.5741,-0.009,-0.1694,-89.2886,0.0582,-0.0732,6.0842,-0.0017,-0.0951,7.7088,-0.0149,2.8645
93595,-106.7238,-1.5741,-0.009,-0.1694,-89.2886,0.0582,-0.0732,6.0842,-0.0017,-0.0951,7.7088,-0.0149,2.8645
93611,-106.7314,-0.9182,-0.0094,-0.1588,-89.3023,0.0339,-0.0845,6.9164,-0.0032,-0.1117,8.2672,-0.0153,2.1494
93627,-106.7314,-0.9182,-0.0094,-0.1588,-89.3023,0.0339,-0.0845,6.9164,-0.0032,-0.1117,8.2672,-0.0153,2.1494
93643,-106.7314,-0.9182,-0.0094,-0.1588,-89.3023,0.0339,-0.0845,6.9164,-0.0032,-0.1117,8.2672,-0.0153,2.1494
93659,-106.7314,-0.9182,-0.0094,-0.1588,-89.3023,0.0339,-0.0845,6.9164,-0.0032,-0.1117,8.2672,-0.0153,2.1494
93675,-106.7314,-0.9182,-0.0094,-0.1588,-89.3023,0.0339,-0.0845,6.9164,-0.0032,-0.1117,8.2672,-0.0153,2.1494
93691,-106.7314,-0.9182,-0.0094,-0.1588,-89.3023,0.0339,-0.0845,6.9164,-0.0032,-0.1117,8.2672,-0.0153,2.1494
93707,-106.7402,-0.1899,-0.0098,-0.139,-89.306,0.0194,-0.0914,7.5657,-0.0021,-0.0681,6.3287,0.0104,2.6141
93723,-106.7402,-0.1899,-0.0098,-0.139,-89.306,0.0194,-0.0914,7.5657,-0.0021,-0.0681,6.3287,0.0104,2.6141
93739,-106.7402,-0.1899,-0.0098,-0.139,-89.306,0.0194,-0.0914,7.5657,-0.0021,-0.0681,6.3287,0.0104,2.6141
93755,-106.7402,-0.1899,-0.0098,-0.139,-89.306,0.0194,-0.0914,7.5657,-0.0021,-0.0681,6.3287,0.0104,2.6141
93771,-106.7402,-0.1899,-0.0098,-0.139,-89.306,0.0194,-0.0914,7.5657,-0.0021,-0.0681,6.3287,0.0104,2.6141
93787,-106.7402,-0.1899,-0.0098,-0.139,-89.306,0.0194,-0.0914,7.5657,-0.0021,-0.0681,6.3287,0.0104,2.6141
93809,-106.7492,0.5723,-0.0101,-0.1255,-89.3098,0.0113,-0.0984,8.2083,-0.0012,-0.0721,6.6762,0.0094,1.9896
93819,-106.7492,0.5723,-0.0101,-0.1255,-89.3098,0.0113,-0.0984,8.2083,-0.0012,-0.0721,6.6762,0.0094,1.9896
93835,-106.7492,0.5723,-0.0101,-0.1255,-89.3098,0.0113,-0.0984,8.2083,-0.0012,-0.0721,6.6762,0.0094,1.9896
93851,-106.7492,0.5723,-0.0101,-0.1255,-89.3098,0.0113,-0.0984,8.2083,-0.0012,-0.0721,6.6762,0.0094,1.9896
93867,-106.7492,0.5723,-0.0101,-0.1255,-89.3098,0.0113,-0.0984,8.2083,-0.0012,-0.0721,6.6762,0.0094,1.9896
93883,-106.7492,0.5723,-0.0101,-0.1255,-89.3098,0.0113,-0.0984,8.2083,-0.0012,-0.0721,6.6762,0.0094,1.9896
93899,-106.7492,0.5723,-0.0101,-0.1255,-89.3098,0.0113,-0.0984,8.2083,-0.0012,-0.0721,6.6762,0.0094,1.9896
93915,-106.7594,1.4246,-0.0102,-0.1129,-89.3085,0.0064,-0.1044,8.7686,-0.0001,-0.055,5.0985,0.0101,2.3353
93931,-106.7594,1.4246,-0.0102,-0.1129,-89.3085,0.0064,-0.1044,8.7686,-0.0001,-0.055,5.0985,0.0101,2.3353
93947,-106.7594,1.4246,-0.0102,-0.1129,-89.3085,0.0064,-0.1044,8.7686,-0.0001,-0.055,5.0985,0.0101,2.3353
93963,-106.7594,1.4246,-0.0102,-0.1129,-89.3085,0.0064,-0.1044,8.7686,-0.0001,-0.055,5.0985,0.0101,2.3353
93979,-106.7594,1.4246,-0.0102,-0.1129,-89.3085,0.0064,-0.1044,8.7686,-0.0001,-0.055,5.0985,0.0101,2.3353
93995,-106.7594,1.4246,-0.0102,-0.1129,-89.3085,0.0064,-0.1044,8.7686,-0.0001,-0.055,5.0985,0.0101,2.3353
94016,-106.7699,2.3132,-0.0103,-0.1028,-89.3103,0.0025,-0.1109,9.311,-0.0003,-0.0656,5.5337,-0.0019,1.8577
94027,-106.7699,2.3132,-0.0103,-0.1028,-89.3103,0.0025,-0.1109,9.311,-0.0003,-0.0656,5.5337,-0.0019,1.8577
94043,-106.7699,2.3132,-0.0103,-0.1028,-89.3103,0.0025,-0.1109,9.311,-0.0003,-0.0656,5.5337,-0.0019,1.8577
94059,-106.7699,2.3132,-0.0103,-0.1028,-89.3103,0.0025,-0.1109,9.311,-0.0003,-0.0656,5.5337,-0.0019,1.8577
94075,-106.7699,2.3132,-0.0103,-0.1028,-89.3103,0.0025,-0.1109,9.311,-0.0003,-0.0656,5.5337,-0.0019,1.8577
94091,-106.7699,2.3132,-0.0103,-0.1028,-89.3103,0.0025,-0.1109,9.311,-0.0003,-0.0656,5.5337,-0.0019,1.8577
94113,-106.7813,3.2724,-0.0104,-0.0952,-89.3103,0.0013,-0.1167,9.8153,-0.0002,-0.0577,4.9888,0.001,1.8946
94123,-106.7813,3.2724,-0.0104,-0.0952,-89.3103,0.0013,-0.1167,9.8153,-0.0002,-0.0577,4.9888,0.001,1.8946
94139,-106.7813,3.2724,-0.0104,-0.0952,-89.3103,0.0013,-0.1167,9.8153,-0.0002,-0.0577,4.9888,0.001,1.8946
94155,-106.7813,3.2724,-0.0104,-0.0952,-89.3103,0.0013,-0.1167,9.8153,-0.0002,-0.0577,4.9888,0.001,1.8946
94171,-106.7813,3.2724,-0.0104,-0.0952,-89.3103,0.0013,-0.1167,9.8153,-0.0002,-0.0577,4.9888,0.001,1.8946
94187,-106.7813,3.2724,-0.0104,-0.0952,-89.3103,0.0013,-0.1167,9.8153,-0.0002,-0.0577,4.9888,0.001,1.8946
94203,-106.7813,3.2724,-0.0104,-0.0952,-89.3103,0.0013,-0.1167,9.8153,-0.0002,-0.0577,4.9888,0.001,1.8946
94219,-106.7933,4.2801,-0.0105,-0.0883,-89.3113,0.0008,-0.1222,10.2884,-0.0001,-0.0538,4.6024,0.0009,1.6984
94235,-106.7933,4.2801,-0.0105,-0.0883,-89.3113,0.0008,-0.1222,10.2884,-0.0001,-0.0538,4.6024,0.0009,1.6984
94251,-106.7933,4.2801,-0.0105,-0.0883,-89.3113,0.0008,-0.1222,10.2884,-0.0001,-0.0538,4.6024,0.0009,1.6984
94267,-106.7933,4.2801,-0.0105,-0.0883,-89.3113,0.0008,-0.1222,10.2884,-0.0001,-0.0538,4.6024,0.0009,1.6984
94283,-106.7933,4.2801,-0.0105,-0.0883,-89.3113,0.0008,-0.1222,10.2884,-0.0001,-0.0538,4.6024,0.0009,1.6984
94299,-106.7933,4.2801,-0.0105,-0.0883,-89.3113,0.0008,-0.1222,10.2884,-0.0001,-0.0538,4.6024,0.0009,1.6984
94321,-106.8055,5.3111,-0.0105,-0.0836,-89.3132,0.0004,-0.1276,10.7434,-0.0,-0.0553,4.6525,0.0006,1.2601
94331,-106.8055,5.3111,-0.0105,-0.0836,-89.3132,0.0004,-0.1276,10.7434,-0.0,-0.0553,4.6525,0.0006,1.2601
94347,-106.8055,5.3111,-0.0105,-0.0836,-89.3132,0.0004,-0.1276,10.7434,-0.0,-0.0553,4.6525,0.0006,1.2601
94379,-106.8055,5.3111,-0.0105,-0.0836,-89.3132,0.0004,-0.1276,10.7434,-0.0,-0.0553,4.6525,0.0006,1.2601
94395,-106.8055,5.3111,-0.0105,-0.0836,-89.3132,0.0004,-0.1276,10.7434,-0.0,-0.0553,4.6525,0.0006,1.2601
94411,-106.8055,5.3111,-0.0105,-0.0836,-89.3132,0.0004,-0.1276,10.7434,-0.0,-0.0553,4.6525,0.0006,1.2601
94431,-106.8476,6.4013,-0.0106,-0.0695,-90.6856,0.1236,-0.9685,10.9583,0.0009,-7.3028,1.8663,0.0084,-30.0332
94443,-106.8476,6.4013,-0.0106,-0.0695,-90.6856,0.1236,-0.9685,10.9583,0.0009,-7.3028,1.8663,0.0084,-30.0332
94459,-106.8476,6.4013,-0.0106,-0.0695,-90.6856,0.1236,-0.9685,10.9583,0.0009,-7.3028,1.8663,0.0084,-30.0332
94475,-106.8476,6.4013,-0.0106,-0.0695,-90.6856,0.1236,-0.9685,10.9583,0.0009,-7.3028,1.8663,0.0084,-30.0332
94491,-106.8476,6.4013,-0.0106,-0.0695,-90.6856,0.1236,-0.9685,10.9583,0.0009,-7.3028,1.8663,0.0084,-30.0332
94507,-106.8476,6.4013,-0.0106,-0.0695,-90.6856,0.1236,-0.9685,10.9583,0.0009,-7.3028,1.8663,0.0084,-30.0332
94528,-106.9618,7.4866,-0.0108,-0.0276,-96.5206,0.2743,-1.9837,10.7928,0.0011,-10.1464,-1.6539,0.0021,-81.3166
94539,-106.9618,7.4866,-0.0108,-0.0276,-96.5206,0.2743,-1.9837,10.7928,0.0011,-10.1464,-1.6539,0.0021,-81.3166
94555,-106.9618,7.4866,-0.0108,-0.0276,-96.5206,0.2743,-1.9837,10.7928,0.0011,-10.1464,-1.6539,0.0021,-81.3166
94571,-106.9618,7.4866,-0.0108,-0.0276,-96.5206,0.2743,-1.9837,10.7928,0.0011,-10.1464,-1.6539,0.0021,-81.3166
94587,-106.9618,7.4866,-0.0108,-0.0276,-96.5206,0.2743,-1.9837,10.7928,0.0011,-10.1464,-1.6539,0.0021,-81.3166
94603,-106.9618,7.4866,-0.0108,-0.0276,-96.5206,0.2743,-1.9837,10.7928,0.0011,-10.1464,-1.6539,0.0021,-81.3166
94619,-106.9618,7.4866,-0.0108,-0.0276,-96.5206,0.2743,-1.9837,10.7928,0.0011,-10.1464,-1.6539,0.0021,-81.3166
94635,-107.1097,8.5386,-0.011,0.0049,-107.6724,0.2667,-2.4282,10.6124,-0.0001,-4.2259,-1.7155,-0.012,-135.5108
94651,-107.1097,8.5386,-0.011,0.0049,-107.6724,0.2667,-2.4282,10.6124,-0.0001,-4.2259,-1.7155,-0.012,-135.5108
94667,-107.1097,8.5386,-0.011,0.0049,-107.6724,0.2667,-2.4282,10.6124,-0.0001,-4.2259,-1.7155,-0.012,-135.5108
94683,-107.1097,8.5386,-0.011,0.0049,-107.6724,0.2667,-2.4282,10.6124,-0.0001,-4.2259,-1.7155,-0.012,-135.5108
94699,-107.1097,8.5386,-0.011,0.0049,-107.6724,0.2667,-2.4282,10.6124,-0.0001,-4.2259,-1.7155,-0.012,-135.5108
94715,-107.1097,8.5386,-0.011,0.0049,-107.6724,0.2667,-2.4282,10.6124,-0.0001,-4.2259,-1.7155,-0.012,-135.5108
94735,-107.2262,9.5473,-0.0095,-0.09,-124.0059,0.0267,-1.8898,10.6709,0.0109,5.2125,0.5662,0.1069,-178.7746
94747,-107.2262,9.5473,-0.0095,-0.09,-124.0059,0.0267,-1.8898,10.6709,0.0109,5.2125,0.5662,0.1069,-178.7746
94763,-107.2262,9.5473,-0.0095,-0.09,-124.0059,0.0267,-1.8898,10.6709,0.0109,5.2125,0.5662,0.1069,-178.7746
94779,-107.2262,9.5473,-0.0095,-0.09,-124.0059,0.0267,-1.8898,10.6709,0.0109,5.2125,0.5662,0.1069,-178.7746
94795,-107.2262,9.5473,-0.0095,-0.09,-124.0059,0.0267,-1.8898,10.6709,0.0109,5.2125,0.5662,0.1069,-178.7746
94811,-107.2262,9.5473,-0.0095,-0.09,-124.0059,0.0267,-1.8898,10.6709,0.0109,5.2125,0.5662,0.1069,-178.7746
94827,-107.2262,9.5473,-0.0095,-0.09,-124.0059,0.0267,-1.8898,10.6709,0.0109,5.2125,0.5662,0.1069,-178.7746
94844,-107.2299,10.5334,0.0053,-0.8452,-141.9848,-0.7676,-0.2899,10.7801,0.0045,15.4268,1.0533,-0.062,-178.3344
94859,-107.2299,10.5334,0.0053,-0.8452,-141.9848,-0.7676,-0.2899,10.7801,0.0045,15.4268,1.0533,-0.062,-178.3344
94875,-107.2299,10.5334,0.0053,-0.8452,-141.9848,-0.7676,-0.2899,10.7801,0.0045,15.4268,1.0533,-0.062,-178.3344
94891,-107.2299,10.5334,0.0053,-0.8452,-141.9848,-0.7676,-0.2899,10.7801,0.0045,15.4268,1.0533,-0.062,-178.3344
94907,-107.2299,10.5334,0.0053,-0.8452,-141.9848,-0.7676,-0.2899,10.7801,0.0045,15.4268,1.0533,-0.062,-178.3344
94923,-107.2299,10.5334,0.0053,-0.8452,-141.9848,-0.7676,-0.2899,10.7801,0.0045,15.4268,1.0533,-0.062,-178.3344
94943,-107.0727,11.4654,0.0015,-0.676,-160.417,-0.7795,1.9822,10.2016,-0.034,22.511,-5.7316,-0.381,-190.1032
94955,-107.0727,11.4654,0.0015,-0.676,-160.417,-0.7795,1.9822,10.2016,-0.034,22.511,-5.7316,-0.381,-190.1032
94987,-107.0727,11.4654,0.0015,-0.676,-160.417,-0.7795,1.9822,10.2016,-0.034,22.511,-5.7316,-0.381,-190.1032
95003,-107.0727,11.4654,0.0015,-0.676,-160.417,-0.7795,1.9822,10.2016,-0.034,22.511,-5.7316,-0.381,-190.1032
95019,-107.0727,11.4654,0.0015,-0.676,-160.417,-0.7795,1.9822,10.2016,-0.034,22.511,-5.7316,-0.381,-190.1032
95035,-107.0727,11.4654,0.0015,-0.676,-160.417,-0.7795,1.9822,10.2016,-0.034,22.511,-5.7316,-0.381,-190.1032
95051,-106.7547,12.2417,-0.0027,-0.5084,-179.6788,-0.9076,3.5385,8.1302,-0.0248,15.0627,-20.0479,0.0886,-192.3285
95067,-106.7547,12.2417,-0.0027,-0.5084,-179.6788,-0.9076,3.5385,8.1302,-0.0248,15.0627,-20.0479,0.0886,-192.3285
95083,-106.7547,12.2417,-0.0027,-0.5084,-179.6788,-0.9076,3.5385,8.1302,-0.0248,15.0627,-20.0479,0.0886,-192.3285
95099,-106.7547,12.2417,-0.0027,-0.5084,-179.6788,-0.9076,3.5385,8.1302,-0.0248,15.0627,-20.0479,0.0886,-192.3285
95115,-106.7547,12.2417,-0.0027,-0.5084,-179.6788,-0.9076,3.5385,8.1302,-0.0248,15.0627,-20.0479,0.0886,-192.3285
95131,-106.7547,12.2417,-0.0027,-0.5084,-179.6788,-0.9076,3.5385,8.1302,-0.0248,15.0627,-20.0479,0.0886,-192.3285
95154,-106.4643,12.7923,-0.0061,-0.3077,162.6607,-1.027,2.4926,5.9274,-0.0188,-10.5769,-22.2765,0.061,-167.3582
95163,-106.4643,12.7923,-0.0061,-0.3077,162.6607,-1.027,2.4926,5.9274,-0.0188,-10.5769,-22.2765,0.061,-167.3582
95179,-106.4643,12.7923,-0.0061,-0.3077,162.6607,-1.027,2.4926,5.9274,-0.0188,-10.5769,-22.2765,0.061,-167.3582
95195,-106.4643,12.7923,-0.0061,-0.3077,162.6607,-1.027,2.4926,5.9274,-0.0188,-10.5769,-22.2765,0.061,-167.3582
95211,-106.4643,12.7923,-0.0061,-0.3077,162.6607,-1.027,2.4926,5.9274,-0.0188,-10.5769,-22.2765,0.061,-167.3582
95227,-106.4643,12.7923,-0.0061,-0.3077,162.6607,-1.027,2.4926,5.9274,-0.0188,-10.5769,-22.2765,0.061,-167.3582
95243,-106.3837,13.1927,-0.0086,-0.1003,148.0405,-1.0451,0.3569,4.924,-0.0059,-22.4944,-10.5681,0.1358,-137.3746
95259,-106.3837,13.1927,-0.0086,-0.1003,148.0405,-1.0451,0.3569,4.924,-0.0059,-22.4944,-10.5681,0.1358,-137.3746
95275,-106.3837,13.1927,-0.0086,-0.1003,148.0405,-1.0451,0.3569,4.924,-0.0059,-22.4944,-10.5681,0.1358,-137.3746
95291,-106.3837,13.1927,-0.0086,-0.1003,148.0405,-1.0451,0.3569,4.924,-0.0059,-22.4944,-10.5681,0.1358,-137.3746
95307,-106.3837,13.1927,-0.0086,-0.1003,148.0405,-1.0451,0.3569,4.924,-0.0059,-22.4944,-10.5681,0.1358,-137.3746
95323,-106.3837,13.1927,-0.0086,-0.1003,148.0405,-1.0451,0.3569,4.924,-0.0059,-22.4944,-10.5681,0.1358,-137.3746
95339,-106.3837,13.1927,-0.0086,-0.1003,148.0405,-1.0451,0.3569,4.924,-0.0059,-22.4944,-10.5681,0.1358,-137.3746
95355,-106.5378,13.6473,-0.0107,0.1142,137.0146,-0.8606,-2.0644,5.4884,-0.0047,-22.2242,5.1804,0.0108,-89.4589
95371,-106.5378,13.6473,-0.0107,0.1142,137.0146,-0.8606,-2.0644,5.4884,-0.0047,-22.2242,5.1804,0.0108,-89.4589
95387,-106.5378,13.6473,-0.0107,0.1142,137.0146,-0.8606,-2.0644,5.4884,-0.0047,-22.2242,5.1804,0.0108,-89.4589
95403,-106.5378,13.6473,-0.0107,0.1142,137.0146,-0.8606,-2.0644,5.4884,-0.0047,-22.2242,5.1804,0.0108,-89.4589
95419,-106.5378,13.6473,-0.0107,0.1142,137.0146,-0.8606,-2.0644,5.4884,-0.0047,-22.2242,5.1804,0.0108,-89.4589
95435,-106.5378,13.6473,-0.0107,0.1142,137.0146,-0.8606,-2.0644,5.4884,-0.0047,-22.2242,5.1804,0.0108,-89.4589
95456,-106.8368,14.2086,-0.0118,0.1975,129.2299,-0.5273,-2.7064,6.3544,-0.0042,-6.3706,8.5942,0.0047,-74.97
95467,-106.8368,14.2086,-0.0118,0.1975,129.2299,-0.5273,-2.7064,6.3544,-0.0042,-6.3706,8.5942,0.0047,-74.97
95499,-106.8368,14.2086,-0.0118,0.1975,129.2299,-0.5273,-2.7064,6.3544,-0.0042,-6.3706,8.5942,0.0047,-74.97
95515,-106.8368,14.2086,-0.0118,0.1975,129.2299,-0.5273,-2.7064,6.3544,-0.0042,-6.3706,8.5942,0.0047,-74.97
95531,-106.8368,14.2086,-0.0118,0.1975,129.2299,-0.5273,-2.7064,6.3544,-0.0042,-6.3706,8.5942,0.0047,-74.97
95551,-107.1736,14.8413,-0.0121,0.1816,123.6791,-0.3546,-3.497,6.5501,-0.0027,-7.5185,1.8611,0.015,-34.3921
95563,-107.1736,14.8413,-0.0121,0.1816,123.6791,-0.3546,-3.497,6.5501,-0.0027,-7.5185,1.8611,0.015,-34.3921
95579,-107.1736,14.8413,-0.0121,0.1816,123.6791,-0.3546,-3.497,6.5501,-0.0027,-7.5185,1.8611,0.015,-34.3921
95595,-107.1736,14.8413,-0.0121,0.1816,123.6791,-0.3546,-3.497,6.5501,-0.0027,-7.5185,1.8611,0.015,-34.3921
95611,-107.1736,14.8413,-0.0121,0.1816,123.6791,-0.3546,-3.497,6.5501,-0.0027,-7.5185,1.8611,0.015,-34.3921
95627,-107.1736,14.8413,-0.0121,0.1816,123.6791,-0.3546,-3.497,6.5501,-0.0027,-7.5185,1.8611,0.015,-34.3921
95643,-107.1736,14.8413,-0.0121,0.1816,123.6791,-0.3546,-3.497,6.5501,-0.0027,-7.5185,1.8611,0.015,-34.3921
95659,-107.5564,15.4706,-0.0118,0.132,122.0673,-0.3096,-3.9891,6.5332,-0.001,-5.0444,-0.1735,0.0173,-9.0364
95675,-107.5564,15.4706,-0.0118,0.132,122.0673,-0.3096,-3.9891,6.5332,-0.001,-5.0444,-0.1735,0.0173,-9.0364
95691,-107.5564,15.4706,-0.0118,0.132,122.0673,-0.3096,-3.9891,6.5332,-0.001,-5.0444,-0.1735,0.0173,-9.0364
95707,-107.5564,15.4706,-0.0118,0.132,122.0673,-0.3096,-3.9891,6.5332,-0.001,-5.0444,-0.1735,0.0173,-9.0364
95723,-107.5564,15.4706,-0.0118,0.132,122.0673,-0.3096,-3.9891,6.5332,-0.001,-5.0444,-0.1735,0.0173,-9.0364
95739,-107.5564,15.4706,-0.0118,0.132,122.0673,-0.3096,-3.9891,6.5332,-0.001,-5.0444,-0.1735,0.0173,-9.0364
95760,-107.9646,16.1281,-0.0116,0.0878,121.6751,-0.1979,-4.1082,6.6389,-0.001,-1.0944,0.9708,-0.0003,-3.0569
95771,-107.9646,16.1281,-0.0116,0.0878,121.6751,-0.1979,-4.1082,6.6389,-0.001,-1.0944,0.9708,-0.0003,-3.0569
95787,-107.9646,16.1281,-0.0116,0.0878,121.6751,-0.1979,-4.1082,6.6389,-0.001,-1.0944,0.9708,-0.0003,-3.0569
95803,-107.9646,16.1281,-0.0116,0.0878,121.6751,-0.1979,-4.1082,6.6389,-0.001,-1.0944,0.9708,-0.0003,-3.0569
95819,-107.9646,16.1281,-0.0116,0.0878,121.6751,-0.1979,-4.1082,6.6389,-0.001,-1.0944,0.9708,-0.0003,-3.0569
95835,-107.9646,16.1281,-0.0116,0.0878,121.6751,-0.1979,-4.1082,6.6389,-0.001,-1.0944,0.9708,-0.0003,-3.0569
95851,-107.9646,16.1281,-0.0116,0.0878,121.6751,-0.1979,-4.1082,6.6389,-0.001,-1.0944,0.9708,-0.0003,-3.0569
95867,-108.3716,16.7864,-0.0115,0.0596,121.5798,-0.1148,-4.1677,6.752,-0.0007,-0.6055,1.1515,0.0027,-1.5666
95883,-108.3716,16.7864,-0.0115,0.0596,121.5798,-0.1148,-4.1677,6.752,-0.0007,-0.6055,1.1515,0.0027,-1.5666
95899,-108.3716,16.7864,-0.0115,0.0596,121.5798,-0.1148,-4.1677,6.752,-0.0007,-0.6055,1.1515,0.0027,-1.5666
95915,-108.3716,16.7864,-0.0115,0.0596,121.5798,-0.1148,-4.1677,6.752,-0.0007,-0.6055,1.1515,0.0027,-1.5666
95931,-108.3716,16.7864,-0.0115,0.0596,121.5798,-0.1148,-4.1677,6.752,-0.0007,-0.6055,1.1515,0.0027,-1.5666
95947,-108.3716,16.7864,-0.0115,0.0596,121.5798,-0.1148,-4.1677,6.752,-0.0007,-0.6055,1.1515,0.0027,-1.5666
95963,-108.7699,17.4329,-0.0114,0.0433,121.5561,-0.066,-4.2223,6.8579,-0.0004,-0.5751,1.1156,0.0033,-1.1177
95979,-108.7699,17.4329,-0.0114,0.0433,121.5561,-0.066,-4.2223,6.8579,-0.0004,-0.5751,1.1156,0.0033,-1.1177
95995,-108.7699,17.4329,-0.0114,0.0433,121.5561,-0.066,-4.2223,6.8579,-0.0004,-0.5751,1.1156,0.0033,-1.1177
96011,-108.7699,17.4329,-0.0114,0.0433,121.5561,-0.066,-4.2223,6.8579,-0.0004,-0.5751,1.1156,0.0033,-1.1177
96027,-108.7699,17.4329,-0.0114,0.0433,121.5561,-0.066,-4.2223,6.8579,-0.0004,-0.5751,1.1156,0.0033,-1.1177
96043,-108.7699,17.4329,-0.0114,0.0433,121.5561,-0.066,-4.2223,6.8579,-0.0004,-0.5751,1.1156,0.0033,-1.1177
96059,-109.1942,18.123,-0.0114,0.0314,121.5489,-0.0366,-4.264,6.9353,-0.0002,-0.4168,0.7726,0.0023,-1.1199
96075,-109.1942,18.123,-0.0114,0.0314,121.5489,-0.0366,-4.264,6.9353,-0.0002,-0.4168,0.7726,0.0023,-1.1199
96091,-109.1942,18.123,-0.0114,0.0314,121.5489,-0.0366,-4.264,6.9353,-0.0002,-0.4168,0.7726,0.0023,-1.1199
96107,-109.1942,18.123,-0.0114,0.0314,121.5489,-0.0366,-4.264,6.9353,-0.0002,-0.4168,0.7726,0.0023,-1.1199
96123,-109.1942,18.123,-0.0114,0.0314,121.5489,-0.0366,-4.264,6.9353,-0.0002,-0.4168,0.7726,0.0023,-1.1199
96139,-109.1942,18.123,-0.0114,0.0314,121.5489,-0.0366,-4.264,6.9353,-0.0002,-0.4168,0.7726,0.0023,-1.1199
96155,-109.607,18.7948,-0.0113,0.0252,121.5473,-0.0209,-4.3142,7.0217,-0.0001,-0.5218,0.8975,0.0011,-0.9973
96171,-109.607,18.7948,-0.0113,0.0252,121.5473,-0.0209,-4.3142,7.0217,-0.0001,-0.5218,0.8975,0.0011,-0.9973
96187,-109.607,18.7948,-0.0113,0.0252,121.5473,-0.0209,-4.3142,7.0217,-0.0001,-0.5218,0.8975,0.0011,-0.9973
96203,-109.607,18.7948,-0.0113,0.0252,121.5473,-0.0209,-4.3142,7.0217,-0.0001,-0.5218,0.8975,0.0011,-0.9973
96219,-109.607,18.7948,-0.0113,0.0252,121.5473,-0.0209,-4.3142,7.0217,-0.0001,-0.5218,0.8975,0.0011,-0.9973
96235,-109.607,18.7948,-0.0113,0.0252,121.5473,-0.0209,-4.3142,7.0217,-0.0001,-0.5218,0.8975,0.0011,-0.9973
96251,-109.607,18.7948,-0.0113,0.0252,121.5473,-0.0209,-4.3142,7.0217,-0.0001,-0.5218,0.8975,0.0011,-0.9973
96267,-110.0406,19.5008,-0.0113,0.0206,121.5464,-0.0117,-4.3558,7.0915,-0.0,-0.3629,0.6097,0.0005,-1.0603
96283,-110.0406,19.5008,-0.0113,0.0206,121.5464,-0.0117,-4.3558,7.0915,-0.0,-0.3629,0.6097,0.0005,-1.0603
96299,-110.0406,19.5008,-0.0113,0.0206,121.5464,-0.0117,-4.3558,7.0915,-0.0,-0.3629,0.6097,0.0005,-1.0603
96315,-110.0406,19.5008,-0.0113,0.0206,121.5464,-0.0117,-4.3558,7.0915,-0.0,-0.3629,0.6097,0.0005,-1.0603
96331,-110.0406,19.5008,-0.0113,0.0206,121.5464,-0.0117,-4.3558,7.0915,-0.0,-0.3629,0.6097,0.0005,-1.0603
96347,-110.0406,19.5008,-0.0113,0.0206,121.5464,-0.0117,-4.3558,7.0915,-0.0,-0.3629,0.6097,0.0005,-1.0603
96368,-110.467,20.1951,-0.0113,0.0185,121.5465,-0.0067,-4.4031,7.1696,0.0,-0.4862,0.803,0.0003,-0.987
96379,-110.467,20.1951,-0.0113,0.0185,121.5465,-0.0067,-4.4031,7.1696,0.0,-0.4862,0.803,0.0003,-0.987
96395,-110.467,20.1951,-0.0113,0.0185,121.5465,-0.0067,-4.4031,7.1696,0.0,-0.4862,0.803,0.0003,-0.987
96411,-110.467,20.1951,-0.0113,0.0185,121.5465,-0.0067,-4.4031,7.1696,0.0,-0.4862,0.803,0.0003,-0.987
96427,-110.467,20.1951,-0.0113,0.0185,121.5465,-0.0067,-4.4031,7.1696,0.0,-0.4862,0.803,0.0003,-0.987
96443,-110.467,20.1951,-0.0113,0.0185,121.5465,-0.0067,-4.4031,7.1696,0.0,-0.4862,0.803,0.0003,-0.987
96459,-110.467,20.1951,-0.0113,0.0185,121.5465,-0.0067,-4.4031,7.1696,0.0,-0.4862,0.803,0.0003,-0.987
96475,-110.9095,20.9158,-0.0113,0.0166,121.5463,-0.0038,-4.4442,7.237,0.0,-0.3708,0.6085,0.0,-1.0338
96491,-110.9095,20.9158,-0.0113,0.0166,121.5463,-0.0038,-4.4442,7.237,0.0,-0.3708,0.6085,0.0,-1.0338
96507,-110.9095,20.9158,-0.0113,0.0166,121.5463,-0.0038,-4.4442,7.237,0.0,-0.3708,0.6085,0.0,-1.0338
96523,-110.9095,20.9158,-0.0113,0.0166,121.5463,-0.0038,-4.4442,7.237,0.0,-0.3708,0.6085,0.0,-1.0338
96539,-110.9095,20.9158,-0.0113,0.0166,121.5463,-0.0038,-4.4442,7.237,0.0,-0.3708,0.6085,0.0,-1.0338
96555,-110.9095,20.9158,-0.0113,0.0166,121.5463,-0.0038,-4.4442,7.237,0.0,-0.3708,0.6085,0.0,-1.0338
96577,-111.3469,21.628,-0.0113,0.0159,121.5465,-0.0021,-4.4894,7.311,0.0,-0.4619,0.7553,0.0,-0.975
96587,-111.3469,21.628,-0.0113,0.0159,121.5465,-0.0021,-4.4894,7.311,0.0,-0.4619,0.7553,0.0,-0.975
96603,-111.3469,21.628,-0.0113,0.0159,121.5465,-0.0021,-4.4894,7.311,0.0,-0.4619,0.7553,0.0,-0.975
96619,-111.3469,21.628,-0.0113,0.0159,121.5465,-0.0021,-4.4894,7.311,0.0,-0.4619,0.7553,0.0,-0.975
96635,-111.3469,21.628,-0.0113,0.0159,121.5465,-0.0021,-4.4894,7.311,0.0,-0.4619,0.7553,0.0,-0.975
96651,-111.3469,21.628,-0.0113,0.0159,121.5465,-0.0021,-4.4894,7.311,0.0,-0.4619,0.7553,0.0,-0.975
96667,-111.3469,21.628,-0.0113,0.0159,121.5465,-0.0021,-4.4894,7.311,0.0,-0.4619,0.7553,0.0,-0.975
