timestamp,x,y,z,pitch,yaw,roll,vx,vy,vz,ax,ay,az,yaw_rate
149194,-106.6867,-4.8475,-0.0794,0.0,-89.3578,0.0,0.0,0.0,0.0725,0.0,0.0,6.5568,-0.0
149210,-106.6867,-4.8475,-0.0794,0.0,-89.3578,0.0,0.0,0.0,0.0725,0.0,0.0,6.5568,-0.0
149226,-106.6867,-4.8475,-0.0794,0.0,-89.3578,0.0,0.0,0.0,0.0725,0.0,0.0,6.5568,-0.0
149242,-106.6867,-4.8475,-0.0794,0.0,-89.3578,0.0,0.0,0.0,0.0725,0.0,0.0,6.5568,-0.0
149258,-106.6867,-4.8475,-0.0794,0.0,-89.3578,0.0,0.0,0.0,0.0725,0.0,0.0,6.5568,-0.0
149274,-106.6867,-4.8475,-0.0794,0.0,-89.3578,0.0,0.0,0.0,0.0725,0.0,0.0,6.5568,-0.0
149290,-106.6867,-4.8475,-0.0794,0.0,-89.3578,0.0,0.0,0.0,0.0725,0.0,0.0,6.5568,-0.0
149306,-106.6867,-4.8475,-0.0794,0.0,-89.3578,0.0,0.0,0.0,0.0725,0.0,0.0,6.5568,-0.0
149322,-106.6867,-4.8475,-0.0794,0.0,-89.3578,0.0,0.0,0.0,0.0725,0.0,0.0,6.5568,-0.0
149338,-106.6867,-4.8475,-0.0794,0.0,-89.3578,0.0,0.0,0.0,0.0725,0.0,0.0,6.5568,-0.0
149354,-106.6867,-4.8475,-0.0794,0.0,-89.3578,0.0,0.0,0.0,0.0725,0.0,0.0,6.5568,-0.0
149370,-106.6867,-4.8475,-0.0794,0.0,-89.3578,0.0,0.0,0.0,0.0725,0.0,0.0,6.5568,-0.0
149386,-106.6867,-4.8475,-0.0794,0.0,-89.3578,0.0,0.0,0.0,0.0725,0.0,0.0,6.5568,-0.0
149402,-106.6867,-4.8475,-0.0794,0.0,-89.3578,0.0,0.0,0.0,0.0725,0.0,0.0,6.5568,-0.0
149418,-106.6868,-4.8455,-0.0594,-0.0017,-89.3578,0.0,-0.0005,0.0424,0.2362,-0.002,0.1801,0.6951,-0.0002
149434,-106.6868,-4.8455,-0.0594,-0.0017,-89.3578,0.0,-0.0005,0.0424,0.2362,-0.002,0.1801,0.6951,-0.0002
149450,-106.6868,-4.8455,-0.0594,-0.0017,-89.3578,0.0,-0.0005,0.0424,0.2362,-0.002,0.1801,0.6951,-0.0002
149466,-106.6868,-4.8455,-0.0594,-0.0017,-89.3578,0.0,-0.0005,0.0424,0.2362,-0.002,0.1801,0.6951,-0.0002
149482,-106.6868,-4.8455,-0.0594,-0.0017,-89.3578,0.0,-0.0005,0.0424,0.2362,-0.002,0.1801,0.6951,-0.0002
149498,-106.6868,-4.8455,-0.0594,-0.0017,-89.3578,0.0,-0.0005,0.0424,0.2362,-0.002,0.1801,0.6951,-0.0002
149514,-106.6868,-4.8455,-0.0594,-0.0017,-89.3578,0.0,-0.0005,0.0424,0.2362,-0.002,0.1801,0.6951,-0.0002
149530,-106.6868,-4.8455,-0.0594,-0.0017,-89.3578,0.0,-0.0005,0.0424,0.2362,-0.002,0.1801,0.6951,-0.0002
149548,-106.6868,-4.8405,-0.0386,-0.0051,-89.3577,0.0,-0.0012,0.1111,0.1749,-0.0056,0.4995,-0.4452,0.0062
149562,-106.6868,-4.8405,-0.0386,-0.0051,-89.3577,0.0,-0.0012,0.1111,0.1749,-0.0056,0.4995,-0.4452,0.0062
149578,-106.6868,-4.8405,-0.0386,-0.0051,-89.3577,0.0,-0.0012,0.1111,0.1749,-0.0056,0.4995,-0.4452,0.0062
149594,-106.6868,-4.8405,-0.0386,-0.0051,-89.3577,0.0,-0.0012,0.1111,0.1749,-0.0056,0.4995,-0.4452,0.0062
149610,-106.6868,-4.8405,-0.0386,-0.0051,-89.3577,0.0,-0.0012,0.1111,0.1749,-0.0056,0.4995,-0.4452,0.0062
149626,-106.6868,-4.8405,-0.0386,-0.0051,-89.3577,0.0,-0.0012,0.1111,0.1749,-0.0056,0.4995,-0.4452,0.0062
149643,-106.6872,-4.8055,-0.0258,-0.0288,-89.3577,0.0,-0.0067,0.5983,0.1057,-0.059,5.2585,-0.7477,-0.0013
149658,-106.6872,-4.8055,-0.0258,-0.0288,-89.3577,0.0,-0.0067,0.5983,0.1057,-0.059,5.2585,-0.7477,-0.0013
149674,-106.6872,-4.8055,-0.0258,-0.0288,-89.3577,0.0,-0.0067,0.5983,0.1057,-0.059,5.2585,-0.7477,-0.0013
149690,-106.6872,-4.8055,-0.0258,-0.0288,-89.3577,0.0,-0.0067,0.5983,0.1057,-0.059,5.2585,-0.7477,-0.0013
149706,-106.6872,-4.8055,-0.0258,-0.0288,-89.3577,0.0,-0.0067,0.5983,0.1057,-0.059,5.2585,-0.7477,-0.0013
149722,-106.6872,-4.8055,-0.0258,-0.0288,-89.3577,0.0,-0.0067,0.5983,0.1057,-0.059,5.2585,-0.7477,-0.0013
149740,-106.688,-4.728,-0.0185,-0.049,-89.3576,0.0,-0.0109,0.9765,0.0576,-0.0453,4.0514,-0.5152,0.0094
149754,-106.688,-4.728,-0.0185,-0.049,-89.3576,0.0,-0.0109,0.9765,0.0576,-0.0453,4.0514,-0.5152,0.0094
149770,-106.688,-4.728,-0.0185,-0.049,-89.3576,0.0,-0.0109,0.9765,0.0576,-0.0453,4.0514,-0.5152,0.0094
149786,-106.688,-4.728,-0.0185,-0.049,-89.3576,0.0,-0.0109,0.9765,0.0576,-0.0453,4.0514,-0.5152,0.0094
149802,-106.688,-4.728,-0.0185,-0.049,-89.3576,0.0,-0.0109,0.9765,0.0576,-0.0453,4.0514,-0.5152,0.0094
149818,-106.688,-4.728,-0.0185,-0.049,-89.3576,0.0,-0.0109,0.9765,0.0576,-0.0453,4.0514,-0.5152,0.0094
149834,-106.6891,-4.6365,-0.0145,-0.0424,-89.3727,0.0004,-0.0146,1.1164,0.0359,-0.0405,1.5606,-0.2416,-5.6109
149850,-106.6891,-4.6365,-0.0145,-0.0424,-89.3727,0.0004,-0.0146,1.1164,0.0359,-0.0405,1.5606,-0.2416,-5.6109
149866,-106.6891,-4.6365,-0.0145,-0.0424,-89.3727,0.0004,-0.0146,1.1164,0.0359,-0.0405,1.5606,-0.2416,-5.6109
149882,-106.6891,-4.6365,-0.0145,-0.0424,-89.3727,0.0004,-0.0146,1.1164,0.0359,-0.0405,1.5606,-0.2416,-5.6109
149898,-106.6891,-4.6365,-0.0145,-0.0424,-89.3727,0.0004,-0.0146,1.1164,0.0359,-0.0405,1.5606,-0.2416,-5.6109
149916,-106.6904,-4.5295,-0.0125,-0.0378,-89.3374,0.0001,-0.0138,1.17,0.0149,0.0091,0.6023,-0.2364,0.3421
149930,-106.6904,-4.5295,-0.0125,-0.0378,-89.3374,0.0001,-0.0138,1.17,0.0149,0.0091,0.6023,-0.2364,0.3421
149946,-106.6904,-4.5295,-0.0125,-0.0378,-89.3374,0.0001,-0.0138,1.17,0.0149,0.0091,0.6023,-0.2364,0.3421
149962,-106.6904,-4.5295,-0.0125,-0.0378,-89.3374,0.0001,-0.0138,1.17,0.0149,0.0091,0.6023,-0.2364,0.3421
149978,-106.6904,-4.5295,-0.0125,-0.0378,-89.3374,0.0001,-0.0138,1.17,0.0149,0.0091,0.6023,-0.2364,0.3421
149994,-106.6904,-4.5295,-0.0125,-0.0378,-89.3374,0.0001,-0.0138,1.17,0.0149,0.0091,0.6023,-0.2364,0.3421
150012,-106.692,-4.4127,-0.0117,-0.0263,-89.3174,0.0003,-0.0154,1.2814,0.0064,-0.0177,1.1765,-0.0903,0.159
150026,-106.692,-4.4127,-0.0117,-0.0263,-89.3174,0.0003,-0.0154,1.2814,0.0064,-0.0177,1.1765,-0.0903,0.159
150042,-106.692,-4.4127,-0.0117,-0.0263,-89.3174,0.0003,-0.0154,1.2814,0.0064,-0.0177,1.1765,-0.0903,0.159
150058,-106.692,-4.4127,-0.0117,-0.0263,-89.3174,0.0003,-0.0154,1.2814,0.0064,-0.0177,1.1765,-0.0903,0.159
150074,-106.692,-4.4127,-0.0117,-0.0263,-89.3174,0.0003,-0.0154,1.2814,0.0064,-0.0177,1.1765,-0.0903,0.159
150090,-106.692,-4.4127,-0.0117,-0.0263,-89.3174,0.0003,-0.0154,1.2814,0.0064,-0.0177,1.1765,-0.0903,0.159
150109,-106.6935,-4.2716,-0.0112,-0.0464,-89.3505,0.0,-0.0231,1.8985,0.003,-0.085,6.8826,-0.0372,-6.322
150122,-106.6935,-4.2716,-0.0112,-0.0464,-89.3505,0.0,-0.0231,1.8985,0.003,-0.085,6.8826,-0.0372,-6.322
150138,-106.6935,-4.2716,-0.0112,-0.0464,-89.3505,0.0,-0.0231,1.8985,0.003,-0.085,6.8826,-0.0372,-6.322
150154,-106.6935,-4.2716,-0.0112,-0.0464,-89.3505,0.0,-0.0231,1.8985,0.003,-0.085,6.8826,-0.0372,-6.322
150170,-106.6935,-4.2716,-0.0112,-0.0464,-89.3505,0.0,-0.0231,1.8985,0.003,-0.085,6.8826,-0.0372,-6.322
150186,-106.6935,-4.2716,-0.0112,-0.0464,-89.3505,0.0,-0.0231,1.8985,0.003,-0.085,6.8826,-0.0372,-6.322
150202,-106.6959,-4.0769,-0.0109,-0.0628,-89.3393,-0.0003,-0.0276,2.3037,0.0015,-0.0491,4.3902,-0.017,-2.4509
150218,-106.6959,-4.0769,-0.0109,-0.0628,-89.3393,-0.0003,-0.0276,2.3037,0.0015,-0.0491,4.3902,-0.017,-2.4509
150234,-106.6959,-4.0769,-0.0109,-0.0628,-89.3393,-0.0003,-0.0276,2.3037,0.0015,-0.0491,4.3902,-0.017,-2.4509
150250,-106.6959,-4.0769,-0.0109,-0.0628,-89.3393,-0.0003,-0.0276,2.3037,0.0015,-0.0491,4.3902,-0.017,-2.4509
150266,-106.6959,-4.0769,-0.0109,-0.0628,-89.3393,-0.0003,-0.0276,2.3037,0.0015,-0.0491,4.3902,-0.017,-2.4509
150284,-106.6983,-3.84,-0.0107,-0.0715,-89.3489,-0.0008,-0.0287,2.6827,0.0007,-0.0118,4.0887,-0.008,-0.0062
150298,-106.6983,-3.84,-0.0107,-0.0715,-89.3489,-0.0008,-0.0287,2.6827,0.0007,-0.0118,4.0887,-0.008,-0.0062
150314,-106.6983,-3.84,-0.0107,-0.0715,-89.3489,-0.0008,-0.0287,2.6827,0.0007,-0.0118,4.0887,-0.008,-0.0062
150330,-106.6983,-3.84,-0.0107,-0.0715,-89.3489,-0.0008,-0.0287,2.6827,0.0007,-0.0118,4.0887,-0.008,-0.0062
150346,-106.6983,-3.84,-0.0107,-0.0715,-89.3489,-0.0008,-0.0287,2.6827,0.0007,-0.0118,4.0887,-0.008,-0.0062
150362,-106.6983,-3.84,-0.0107,-0.0715,-89.3489,-0.0008,-0.0287,2.6827,0.0007,-0.0118,4.0887,-0.008,-0.0062
150380,-106.7017,-3.5584,-0.0106,-0.0826,-89.314,0.0002,-0.0381,3.3175,0.0003,-0.1038,6.9983,-0.0041,3.1739
150394,-106.7017,-3.5584,-0.0106,-0.0826,-89.314,0.0002,-0.0381,3.3175,0.0003,-0.1038,6.9983,-0.0041,3.1739
150410,-106.7017,-3.5584,-0.0106,-0.0826,-89.314,0.0002,-0.0381,3.3175,0.0003,-0.1038,6.9983,-0.0041,3.1739
150426,-106.7017,-3.5584,-0.0106,-0.0826,-89.314,0.0002,-0.0381,3.3175,0.0003,-0.1038,6.9983,-0.0041,3.1739
150442,-106.7017,-3.5584,-0.0106,-0.0826,-89.314,0.0002,-0.0381,3.3175,0.0003,-0.1038,6.9983,-0.0041,3.1739
150458,-106.7017,-3.5584,-0.0106,-0.0826,-89.314,0.0002,-0.0381,3.3175,0.0003,-0.1038,6.9983,-0.0041,3.1739
150474,-106.7059,-3.2403,-0.0106,-0.0793,-89.2719,0.001,-0.0458,3.5846,0.0002,-0.0864,2.9862,-0.0016,1.785
150490,-106.7059,-3.2403,-0.0106,-0.0793,-89.2719,0.001,-0.0458,3.5846,0.0002,-0.0864,2.9862,-0.0016,1.785
150506,-106.7059,-3.2403,-0.0106,-0.0793,-89.2719,0.001,-0.0458,3.5846,0.0002,-0.0864,2.9862,-0.0016,1.785
150522,-106.7059,-3.2403,-0.0106,-0.0793,-89.2719,0.001,-0.0458,3.5846,0.0002,-0.0864,2.9862,-0.0016,1.785
150538,-106.7059,-3.2403,-0.0106,-0.0793,-89.2719,0.001,-0.0458,3.5846,0.0002,-0.0864,2.9862,-0.0016,1.785
150554,-106.7114,-2.8739,-0.0106,-0.0791,-89.2074,0.0018,-0.0574,4.1435,0.0001,-0.1249,6.0616,-0.0011,0.1937
150570,-106.7114,-2.8739,-0.0106,-0.0791,-89.2074,0.0018,-0.0574,4.1435,0.0001,-0.1249,6.0616,-0.0011,0.1937
150586,-106.7114,-2.8739,-0.0106,-0.0791,-89.2074,0.0018,-0.0574,4.1435,0.0001,-0.1249,6.0616,-0.0011,0.1937
150602,-106.7114,-2.8739,-0.0106,-0.0791,-89.2074,0.0018,-0.0574,4.1435,0.0001,-0.1249,6.0616,-0.0011,0.1937
150618,-106.7114,-2.8739,-0.0106,-0.0791,-89.2074,0.0018,-0.0574,4.1435,0.0001,-0.1249,6.0616,-0.0011,0.1937
150634,-106.7114,-2.8739,-0.0106,-0.0791,-89.2074,0.0018,-0.0574,4.1435,0.0001,-0.1249,6.0616,-0.0011,0.1937
150650,-106.7175,-2.4502,-0.0105,-0.0847,-89.1843,0.0013,-0.0673,4.7123,0.0,-0.1058,6.0338,-0.0007,-0.2033
150666,-106.7175,-2.4502,-0.0105,-0.0847,-89.1843,0.0013,-0.0673,4.7123,0.0,-0.1058,6.0338,-0.0007,-0.2033
150682,-106.7175,-2.4502,-0.0105,-0.0847,-89.1843,0.0013,-0.0673,4.7123,0.0,-0.1058,6.0338,-0.0007,-0.2033
150698,-106.7175,-2.4502,-0.0105,-0.0847,-89.1843,0.0013,-0.0673,4.7123,0.0,-0.1058,6.0338,-0.0007,-0.2033
150714,-106.7175,-2.4502,-0.0105,-0.0847,-89.1843,0.0013,-0.0673,4.7123,0.0,-0.1058,6.0338,-0.0007,-0.2033
150730,-106.7175,-2.4502,-0.0105,-0.0847,-89.1843,0.0013,-0.0673,4.7123,0.0,-0.1058,6.0338,-0.0007,-0.2033
150748,-106.724,-1.9827,-0.0105,-0.0952,-89.2002,-0.0,-0.0748,5.3519,0.0002,-0.0817,6.9791,0.0014,-0.0594
150762,-106.724,-1.9827,-0.0105,-0.0952,-89.2002,-0.0,-0.0748,5.3519,0.0002,-0.0817,6.9791,0.0014,-0.0594
150778,-106.724,-1.9827,-0.0105,-0.0952,-89.2002,-0.0,-0.0748,5.3519,0.0002,-0.0817,6.9791,0.0014,-0.0594
150794,-106.724,-1.9827,-0.0105,-0.0952,-89.2002,-0.0,-0.0748,5.3519,0.0002,-0.0817,6.9791,0.0014,-0.0594
150810,-106.724,-1.9827,-0.0105,-0.0952,-89.2002,-0.0,-0.0748,5.3519,0.0002,-0.0817,6.9791,0.0014,-0.0594
150826,-106.724,-1.9827,-0.0105,-0.0952,-89.2002,-0.0,-0.0748,5.3519,0.0002,-0.0817,6.9791,0.0014,-0.0594
150842,-106.7316,-1.452,-0.0104,-0.1047,-89.1866,-0.0002,-0.0855,6.0291,-0.0,-0.1154,7.3414,-0.0019,0.0809
150858,-106.7316,-1.452,-0.0104,-0.1047,-89.1866,-0.0002,-0.0855,6.0291,-0.0,-0.1154,7.3414,-0.0019,0.0809
150874,-106.7316,-1.452,-0.0104,-0.1047,-89.1866,-0.0002,-0.0855,6.0291,-0.0,-0.1154,7.3414,-0.0019,0.0809
150890,-106.7316,-1.452,-0.0104,-0.1047,-89.1866,-0.0002,-0.0855,6.0291,-0.0,-0.1154,7.3414,-0.0019,0.0809
150906,-106.7316,-1.452,-0.0104,-0.1047,-89.1866,-0.0002,-0.0855,6.0291,-0.0,-0.1154,7.3414,-0.0019,0.0809
150922,-106.7316,-1.452,-0.0104,-0.1047,-89.1866,-0.0002,-0.0855,6.0291,-0.0,-0.1154,7.3414,-0.0019,0.0809
150938,-106.7398,-0.8604,-0.0103,-0.1145,-89.1996,-0.0002,-0.0949,6.7646,-0.0,-0.1033,8.0401,-0.0002,-0.3672
150954,-106.7398,-0.8604,-0.0103,-0.1145,-89.1996,-0.0002,-0.0949,6.7646,-0.0,-0.1033,8.0401,-0.0002,-0.3672
150970,-106.7398,-0.8604,-0.0103,-0.1145,-89.1996,-0.0002,-0.0949,6.7646,-0.0,-0.1033,8.0401,-0.0002,-0.3672
150986,-106.7398,-0.8604,-0.0103,-0.1145,-89.1996,-0.0002,-0.0949,6.7646,-0.0,-0.1033,8.0401,-0.0002,-0.3672
151002,-106.7398,-0.8604,-0.0103,-0.1145,-89.1996,-0.0002,-0.0949,6.7646,-0.0,-0.1033,8.0401,-0.0002,-0.3672
151019,-106.7492,-0.2006,-0.0103,-0.1183,-89.1888,-0.0001,-0.105,7.4411,-0.0,-0.1091,7.3497,-0.0,0.317
151034,-106.7492,-0.2006,-0.0103,-0.1183,-89.1888,-0.0001,-0.105,7.4411,-0.0,-0.1091,7.3497,-0.0,0.317
151050,-106.7492,-0.2006,-0.0103,-0.1183,-89.1888,-0.0001,-0.105,7.4411,-0.0,-0.1091,7.3497,-0.0,0.317
151066,-106.7492,-0.2006,-0.0103,-0.1183,-89.1888,-0.0001,-0.105,7.4411,-0.0,-0.1091,7.3497,-0.0,0.317
151082,-106.7492,-0.2006,-0.0103,-0.1183,-89.1888,-0.0001,-0.105,7.4411,-0.0,-0.1091,7.3497,-0.0,0.317
151098,-106.7492,-0.2006,-0.0103,-0.1183,-89.1888,-0.0001,-0.105,7.4411,-0.0,-0.1091,7.3497,-0.0,0.317
151116,-106.76,0.5705,-0.0103,-0.1112,-89.2005,-0.0001,-0.1125,8.01,-0.0,-0.0758,5.7452,0.0002,-0.3943
151130,-106.76,0.5705,-0.0103,-0.1112,-89.2005,-0.0001,-0.1125,8.01,-0.0,-0.0758,5.7452,0.0002,-0.3943
151146,-106.76,0.5705,-0.0103,-0.1112,-89.2005,-0.0001,-0.1125,8.01,-0.0,-0.0758,5.7452,0.0002,-0.3943
151162,-106.76,0.5705,-0.0103,-0.1112,-89.2005,-0.0001,-0.1125,8.01,-0.0,-0.0758,5.7452,0.0002,-0.3943
151178,-106.76,0.5705,-0.0103,-0.1112,-89.2005,-0.0001,-0.1125,8.01,-0.0,-0.0758,5.7452,0.0002,-0.3943
151194,-106.76,0.5705,-0.0103,-0.1112,-89.2005,-0.0001,-0.1125,8.01,-0.0,-0.0758,5.7452,0.0002,-0.3943
151211,-106.7707,1.3297,-0.0103,-0.1117,-89.1959,-0.0001,-0.1221,8.6961,-0.0,-0.1069,7.5889,-0.0001,-0.0016
151226,-106.7707,1.3297,-0.0103,-0.1117,-89.1959,-0.0001,-0.1221,8.6961,-0.0,-0.1069,7.5889,-0.0001,-0.0016
151242,-106.7707,1.3297,-0.0103,-0.1117,-89.1959,-0.0001,-0.1221,8.6961,-0.0,-0.1069,7.5889,-0.0001,-0.0016
151258,-106.7707,1.3297,-0.0103,-0.1117,-89.1959,-0.0001,-0.1221,8.6961,-0.0,-0.1069,7.5889,-0.0001,-0.0016
151274,-106.7707,1.3297,-0.0103,-0.1117,-89.1959,-0.0001,-0.1221,8.6961,-0.0,-0.1069,7.5889,-0.0001,-0.0016
151290,-106.7707,1.3297,-0.0103,-0.1117,-89.1959,-0.0001,-0.1221,8.6961,-0.0,-0.1069,7.5889,-0.0001,-0.0016
151306,-106.7821,2.1435,-0.0103,-0.1119,-89.196,-0.0001,-0.1303,9.2805,0.0,-0.0903,6.4894,0.0003,0.0007
151322,-106.7821,2.1435,-0.0103,-0.1119,-89.196,-0.0001,-0.1303,9.2805,0.0,-0.0903,6.4894,0.0003,0.0007
151338,-106.7821,2.1435,-0.0103,-0.1119,-89.196,-0.0001,-0.1303,9.2805,0.0,-0.0903,6.4894,0.0003,0.0007
151354,-106.7821,2.1435,-0.0103,-0.1119,-89.196,-0.0001,-0.1303,9.2805,0.0,-0.0903,6.4894,0.0003,0.0007
151370,-106.7821,2.1435,-0.0103,-0.1119,-89.196,-0.0001,-0.1303,9.2805,0.0,-0.0903,6.4894,0.0003,0.0007
151386,-106.7943,3.0101,-0.0104,-0.1049,-89.196,-0.0001,-0.1371,9.7686,-0.0,-0.0754,5.3865,-0.0001,0.0005
151402,-106.7943,3.0101,-0.0104,-0.1049,-89.196,-0.0001,-0.1371,9.7686,-0.0,-0.0754,5.3865,-0.0001,0.0005
151418,-106.7943,3.0101,-0.0104,-0.1049,-89.196,-0.0001,-0.1371,9.7686,-0.0,-0.0754,5.3865,-0.0001,0.0005
151434,-106.7943,3.0101,-0.0104,-0.1049,-89.196,-0.0001,-0.1371,9.7686,-0.0,-0.0754,5.3865,-0.0001,0.0005
151450,-106.7943,3.0101,-0.0104,-0.1049,-89.196,-0.0001,-0.1371,9.7686,-0.0,-0.0754,5.3865,-0.0001,0.0005
151466,-106.7943,3.0101,-0.0104,-0.1049,-89.196,-0.0001,-0.1371,9.7686,-0.0,-0.0754,5.3865,-0.0001,0.0005
151484,-106.8077,3.9653,-0.0105,-0.094,-89.196,-0.0001,-0.1431,10.1969,-0.0,-0.063,4.4917,0.0,-0.0002
151498,-106.8077,3.9653,-0.0105,-0.094,-89.196,-0.0001,-0.1431,10.1969,-0.0,-0.063,4.4917,0.0,-0.0002
151514,-106.8077,3.9653,-0.0105,-0.094,-89.196,-0.0001,-0.1431,10.1969,-0.0,-0.063,4.4917,0.0,-0.0002
151530,-106.8077,3.9653,-0.0105,-0.094,-89.196,-0.0001,-0.1431,10.1969,-0.0,-0.063,4.4917,0.0,-0.0002
151546,-106.8077,3.9653,-0.0105,-0.094,-89.196,-0.0001,-0.1431,10.1969,-0.0,-0.063,4.4917,0.0,-0.0002
151562,-106.8077,3.9653,-0.0105,-0.094,-89.196,-0.0001,-0.1431,10.1969,-0.0,-0.063,4.4917,0.0,-0.0002
151580,-106.8211,4.924,-0.0105,-0.0859,-89.196,-0.0,-0.149,10.618,0.0,-0.0643,4.5829,0.0,-0.0001
151594,-106.8211,4.924,-0.0105,-0.0859,-89.196,-0.0,-0.149,10.618,0.0,-0.0643,4.5829,0.0,-0.0001
151610,-106.8211,4.924,-0.0105,-0.0859,-89.196,-0.0,-0.149,10.618,0.0,-0.0643,4.5829,0.0,-0.0001
151626,-106.8211,4.924,-0.0105,-0.0859,-89.196,-0.0,-0.149,10.618,0.0,-0.0643,4.5829,0.0,-0.0001
151642,-106.8211,4.924,-0.0105,-0.0859,-89.196,-0.0,-0.149,10.618,0.0,-0.0643,4.5829,0.0,-0.0001
151658,-106.8211,4.924,-0.0105,-0.0859,-89.196,-0.0,-0.149,10.618,0.0,-0.0643,4.5829,0.0,-0.0001
151674,-106.8348,5.8973,-0.0106,-0.0796,-89.1961,0.0,-0.1542,10.9924,0.0,-0.0585,4.1658,0.0001,-0.0002
151690,-106.8348,5.8973,-0.0106,-0.0796,-89.1961,0.0,-0.1542,10.9924,0.0,-0.0585,4.1658,0.0001,-0.0002
151706,-106.8348,5.8973,-0.0106,-0.0796,-89.1961,0.0,-0.1542,10.9924,0.0,-0.0585,4.1658,0.0001,-0.0002
151722,-106.8348,5.8973,-0.0106,-0.0796,-89.1961,0.0,-0.1542,10.9924,0.0,-0.0585,4.1658,0.0001,-0.0002
151738,-106.8348,5.8973,-0.0106,-0.0796,-89.1961,0.0,-0.1542,10.9924,0.0,-0.0585,4.1658,0.0001,-0.0002
151756,-106.8491,6.9137,-0.0106,-0.0745,-89.196,0.0,-0.1594,11.3598,-0.0,-0.0567,4.0439,-0.0001,-0.0
151770,-106.8491,6.9137,-0.0106,-0.0745,-89.196,0.0,-0.1594,11.3598,-0.0,-0.0567,4.0439,-0.0001,-0.0
151786,-106.8491,6.9137,-0.0106,-0.0745,-89.196,0.0,-0.1594,11.3598,-0.0,-0.0567,4.0439,-0.0001,-0.0
151802,-106.8491,6.9137,-0.0106,-0.0745,-89.196,0.0,-0.1594,11.3598,-0.0,-0.0567,4.0439,-0.0001,-0.0
151818,-106.8491,6.9137,-0.0106,-0.0745,-89.196,0.0,-0.1594,11.3598,-0.0,-0.0567,4.0439,-0.0001,-0.0
151834,-106.8491,6.9137,-0.0106,-0.0745,-89.196,0.0,-0.1594,11.3598,-0.0,-0.0567,4.0439,-0.0001,-0.0
151852,-106.8637,7.9551,-0.0106,-0.0713,-89.1961,0.0,-0.1643,11.7108,0.0,-0.0546,3.894,0.0001,-0.0
151866,-106.8637,7.9551,-0.0106,-0.0713,-89.1961,0.0,-0.1643,11.7108,0.0,-0.0546,3.894,0.0001,-0.0
151882,-106.8637,7.9551,-0.0106,-0.0713,-89.1961,0.0,-0.1643,11.7108,0.0,-0.0546,3.894,0.0001,-0.0
151898,-106.8637,7.9551,-0.0106,-0.0713,-89.1961,0.0,-0.1643,11.7108,0.0,-0.0546,3.894,0.0001,-0.0
151914,-106.8637,7.9551,-0.0106,-0.0713,-89.1961,0.0,-0.1643,11.7108,0.0,-0.0546,3.894,0.0001,-0.0
151930,-106.8637,7.9551,-0.0106,-0.0713,-89.1961,0.0,-0.1643,11.7108,0.0,-0.0546,3.894,0.0001,-0.0
151946,-106.8785,9.0142,-0.0107,-0.0674,-89.196,0.0,-0.1688,12.0269,0.0,-0.0498,3.5481,-0.0,-0.0001
151962,-106.8785,9.0142,-0.0107,-0.0674,-89.196,0.0,-0.1688,12.0269,0.0,-0.0498,3.5481,-0.0,-0.0001
151978,-106.8785,9.0142,-0.0107,-0.0674,-89.196,0.0,-0.1688,12.0269,0.0,-0.0498,3.5481,-0.0,-0.0001
151994,-106.8785,9.0142,-0.0107,-0.0674,-89.196,0.0,-0.1688,12.0269,0.0,-0.0498,3.5481,-0.0,-0.0001
152010,-106.8785,9.0142,-0.0107,-0.0674,-89.196,0.0,-0.1688,12.0269,0.0,-0.0498,3.5481,-0.0,-0.0001
152028,-106.8943,10.1379,-0.0107,-0.063,-89.1961,-0.0,-0.173,12.3305,-0.0,-0.0462,3.2949,-0.0002,-0.0001
152042,-106.8943,10.1379,-0.0107,-0.063,-89.1961,-0.0,-0.173,12.3305,-0.0,-0.0462,3.2949,-0.0002,-0.0001
152058,-106.8943,10.1379,-0.0107,-0.063,-89.1961,-0.0,-0.173,12.3305,-0.0,-0.0462,3.2949,-0.0002,-0.0001
152074,-106.8943,10.1379,-0.0107,-0.063,-89.1961,-0.0,-0.173,12.3305,-0.0,-0.0462,3.2949,-0.0002,-0.0001
152090,-106.8943,10.1379,-0.0107,-0.063,-89.1961,-0.0,-0.173,12.3305,-0.0,-0.0462,3.2949,-0.0002,-0.0001
152106,-106.8943,10.1379,-0.0107,-0.063,-89.1961,-0.0,-0.173,12.3305,-0.0,-0.0462,3.2949,-0.0002,-0.0001
152124,-106.9106,11.3011,-0.0107,-0.0587,-89.1961,0.0,-0.177,12.6159,-0.0,-0.043,3.0647,0.0001,-0.0
152138,-106.9106,11.3011,-0.0107,-0.0587,-89.1961,0.0,-0.177,12.6159,-0.0,-0.043,3.0647,0.0001,-0.0
152154,-106.9106,11.3011,-0.0107,-0.0587,-89.1961,0.0,-0.177,12.6159,-0.0,-0.043,3.0647,0.0001,-0.0
152170,-106.9106,11.3011,-0.0107,-0.0587,-89.1961,0.0,-0.177,12.6159,-0.0,-0.043,3.0647,0.0001,-0.0
152202,-106.9106,11.3011,-0.0107,-0.0587,-89.1961,0.0,-0.177,12.6159,-0.0,-0.043,3.0647,0.0001,-0.0
152220,-106.9508,12.455,-0.0108,-0.0465,-90.3126,0.1065,-0.916,12.6828,0.0009,-8.1224,0.735,0.01,-26.8652
152234,-106.9508,12.455,-0.0108,-0.0465,-90.3126,0.1065,-0.916,12.6828,0.0009,-8.1224,0.735,0.01,-26.8652
152250,-106.9508,12.455,-0.0108,-0.0465,-90.3126,0.1065,-0.916,12.6828,0.0009,-8.1224,0.735,0.01,-26.8652
152266,-106.9508,12.455,-0.0108,-0.0465,-90.3126,0.1065,-0.916,12.6828,0.0009,-8.1224,0.735,0.01,-26.8652
152282,-106.9508,12.455,-0.0108,-0.0465,-90.3126,0.1065,-0.916,12.6828,0.0009,-8.1224,0.735,0.01,-26.8652
152298,-107.0467,13.5852,-0.0109,-0.0144,-94.8396,0.2444,-1.8097,12.4784,0.0012,-9.9368,-2.2725,0.0036,-70.905
152314,-107.0467,13.5852,-0.0109,-0.0144,-94.8396,0.2444,-1.8097,12.4784,0.0012,-9.9368,-2.2725,0.0036,-70.905
152330,-107.0467,13.5852,-0.0109,-0.0144,-94.8396,0.2444,-1.8097,12.4784,0.0012,-9.9368,-2.2725,0.0036,-70.905
152346,-107.0467,13.5852,-0.0109,-0.0144,-94.8396,0.2444,-1.8097,12.4784,0.0012,-9.9368,-2.2725,0.0036,-70.905
152362,-107.0467,13.5852,-0.0109,-0.0144,-94.8396,0.2444,-1.8097,12.4784,0.0012,-9.9368,-2.2725,0.0036,-70.905
152378,-107.0467,13.5852,-0.0109,-0.0144,-94.8396,0.2444,-1.8097,12.4784,0.0012,-9.9368,-2.2725,0.0036,-70.905
152395,-107.1749,14.6849,-0.0111,0.0167,-103.754,0.2701,-2.3308,12.2243,0.0003,-5.7901,-2.8233,-0.0106,-122.4262
152410,-107.1749,14.6849,-0.0111,0.0167,-103.754,0.2701,-2.3308,12.2243,0.0003,-5.7901,-2.8233,-0.0106,-122.4262
152426,-107.1749,14.6849,-0.0111,0.0167,-103.754,0.2701,-2.3308,12.2243,0.0003,-5.7901,-2.8233,-0.0106,-122.4262
152442,-107.1749,14.6849,-0.0111,0.0167,-103.754,0.2701,-2.3308,12.2243,0.0003,-5.7901,-2.8233,-0.0106,-122.4262
152458,-107.1749,14.6849,-0.0111,0.0167,-103.754,0.2701,-2.3308,12.2243,0.0003,-5.7901,-2.8233,-0.0106,-122.4262
152474,-107.1749,14.6849,-0.0111,0.0167,-103.754,0.2701,-2.3308,12.2243,0.0003,-5.7901,-2.8233,-0.0106,-122.4262
152490,-107.2898,15.7325,-0.0111,0.0189,-117.2864,0.1733,-2.2514,12.069,-0.0009,0.8901,-1.7407,-0.013,-175.3038
152506,-107.2898,15.7325,-0.0111,0.0189,-117.2864,0.1733,-2.2514,12.069,-0.0009,0.8901,-1.7407,-0.013,-175.3038
152522,-107.2898,15.7325,-0.0111,0.0189,-117.2864,0.1733,-2.2514,12.069,-0.0009,0.8901,-1.7407,-0.013,-175.3038
152538,-107.2898,15.7325,-0.0111,0.0189,-117.2864,0.1733,-2.2514,12.069,-0.0009,0.8901,-1.7407,-0.013,-175.3038
152554,-107.2898,15.7325,-0.0111,0.0189,-117.2864,0.1733,-2.2514,12.069,-0.0009,0.8901,-1.7407,-0.013,-175.3038
152570,-107.3319,16.7704,-0.0108,-0.0466,-135.2369,-0.0532,-0.9095,12.0986,-0.0009,14.5393,0.3206,-0.0,-205.8331
152586,-107.3319,16.7704,-0.0108,-0.0466,-135.2369,-0.0532,-0.9095,12.0986,-0.0009,14.5393,0.3206,-0.0,-205.8331
152602,-107.3319,16.7704,-0.0108,-0.0466,-135.2369,-0.0532,-0.9095,12.0986,-0.0009,14.5393,0.3206,-0.0,-205.8331
152618,-107.3319,16.7704,-0.0108,-0.0466,-135.2369,-0.0532,-0.9095,12.0986,-0.0009,14.5393,0.3206,-0.0,-205.8331
152634,-107.3319,16.7704,-0.0108,-0.0466,-135.2369,-0.0532,-0.9095,12.0986,-0.0009,14.5393,0.3206,-0.0,-205.8331
152650,-107.3319,16.7704,-0.0108,-0.0466,-135.2369,-0.0532,-0.9095,12.0986,-0.0009,14.5393,0.3206,-0.0,-205.8331
152666,-107.22,17.7916,-0.0098,-0.1643,-155.7924,-0.3217,1.2756,11.6701,0.002,22.7285,-4.4564,0.03,-218.8125
152682,-107.22,17.7916,-0.0098,-0.1643,-155.7924,-0.3217,1.2756,11.6701,0.002,22.7285,-4.4564,0.03,-218.8125
152698,-107.22,17.7916,-0.0098,-0.1643,-155.7924,-0.3217,1.2756,11.6701,0.002,22.7285,-4.4564,0.03,-218.8125
152714,-107.22,17.7916,-0.0098,-0.1643,-155.7924,-0.3217,1.2756,11.6701,0.002,22.7285,-4.4564,0.03,-218.8125
152730,-107.22,17.7916,-0.0098,-0.1643,-155.7924,-0.3217,1.2756,11.6701,0.002,22.7285,-4.4564,0.03,-218.8125
152746,-107.22,17.7916,-0.0098,-0.1643,-155.7924,-0.3217,1.2756,11.6701,0.002,22.7285,-4.4564,0.03,-218.8125
152762,-107.22,17.7916,-0.0098,-0.1643,-155.7924,-0.3217,1.2756,11.6701,0.002,22.7285,-4.4564,0.03,-218.8125
152778,-106.9394,18.7076,-0.0089,-0.2626,-177.4822,-0.5257,3.4912,10.4337,0.0018,22.8543,-12.7539,-0.0018,-228.0245
152810,-106.9394,18.7076,-0.0089,-0.2626,-177.4822,-0.5257,3.4912,10.4337,0.0018,22.8543,-12.7539,-0.0018,-228.0245
152826,-106.9394,18.7076,-0.0089,-0.2626,-177.4822,-0.5257,3.4912,10.4337,0.0018,22.8543,-12.7539,-0.0018,-228.0245
152842,-106.9394,18.7076,-0.0089,-0.2626,-177.4822,-0.5257,3.4912,10.4337,0.0018,22.8543,-12.7539,-0.0018,-228.0245
152858,-106.5676,19.4288,-0.0084,-0.2985,160.5847,-0.7283,4.4146,8.1258,0.0019,9.6762,-24.1845,0.0008,-229.6169
152874,-106.5676,19.4288,-0.0084,-0.2985,160.5847,-0.7283,4.4146,8.1258,0.0019,9.6762,-24.1845,0.0008,-229.6169
152890,-106.5676,19.4288,-0.0084,-0.2985,160.5847,-0.7283,4.4146,8.1258,0.0019,9.6762,-24.1845,0.0008,-229.6169
152906,-106.5676,19.4288,-0.0084,-0.2985,160.5847,-0.7283,4.4146,8.1258,0.0019,9.6762,-24.1845,0.0008,-229.6169
152922,-106.5676,19.4288,-0.0084,-0.2985,160.5847,-0.7283,4.4146,8.1258,0.0019,9.6762,-24.1845,0.0008,-229.6169
152938,-106.5676,19.4288,-0.0084,-0.2985,160.5847,-0.7283,4.4146,8.1258,0.0019,9.6762,-24.1845,0.0008,-229.6169
152956,-106.3037,19.9574,-0.0091,-0.2062,141.7893,-0.8615,2.8309,6.8126,0.0044,-17.7404,-14.7104,0.0274,-192.6455
152970,-106.3037,19.9574,-0.0091,-0.2062,141.7893,-0.8615,2.8309,6.8126,0.0044,-17.7404,-14.7104,0.0274,-192.6455
152986,-106.3037,19.9574,-0.0091,-0.2062,141.7893,-0.8615,2.8309,6.8126,0.0044,-17.7404,-14.7104,0.0274,-192.6455
153002,-106.3037,19.9574,-0.0091,-0.2062,141.7893,-0.8615,2.8309,6.8126,0.0044,-17.7404,-14.7104,0.0274,-192.6455
153018,-106.3037,19.9574,-0.0091,-0.2062,141.7893,-0.8615,2.8309,6.8126,0.0044,-17.7404,-14.7104,0.0274,-192.6455
153034,-106.2425,20.4621,-0.0101,-0.0451,126.7974,-0.9056,0.6829,6.8221,0.0008,-24.7425,0.1103,-0.0415,-151.2364
153050,-106.2425,20.4621,-0.0101,-0.0451,126.7974,-0.9056,0.6829,6.8221,0.0008,-24.7425,0.1103,-0.0415,-151.2364
153066,-106.2425,20.4621,-0.0101,-0.0451,126.7974,-0.9056,0.6829,6.8221,0.0008,-24.7425,0.1103,-0.0415,-151.2364
153082,-106.2425,20.4621,-0.0101,-0.0451,126.7974,-0.9056,0.6829,6.8221,0.0008,-24.7425,0.1103,-0.0415,-151.2364
153098,-106.2425,20.4621,-0.0101,-0.0451,126.7974,-0.9056,0.6829,6.8221,0.0008,-24.7425,0.1103,-0.0415,-151.2364
153114,-106.2425,20.4621,-0.0101,-0.0451,126.7974,-0.9056,0.6829,6.8221,0.0008,-24.7425,0.1103,-0.0415,-151.2364
153131,-106.3386,21.0854,-0.0112,0.1051,115.8788,-0.7794,-0.866,7.7669,-0.0011,-17.0926,10.4254,-0.0202,-99.4915
153146,-106.3386,21.0854,-0.0112,0.1051,115.8788,-0.7794,-0.866,7.7669,-0.0011,-17.0926,10.4254,-0.0202,-99.4915
153162,-106.3386,21.0854,-0.0112,0.1051,115.8788,-0.7794,-0.866,7.7669,-0.0011,-17.0926,10.4254,-0.0202,-99.4915
153178,-106.3386,21.0854,-0.0112,0.1051,115.8788,-0.7794,-0.866,7.7669,-0.0011,-17.0926,10.4254,-0.0202,-99.4915
153194,-106.3386,21.0854,-0.0112,0.1051,115.8788,-0.7794,-0.866,7.7669,-0.0011,-17.0926,10.4254,-0.0202,-99.4915
153210,-106.4579,21.764,-0.0118,0.1596,107.9294,-0.4438,-0.5769,8.5627,-0.0028,3.407,9.3816,-0.0205,-91.8784
153226,-106.4579,21.764,-0.0118,0.1596,107.9294,-0.4438,-0.5769,8.5627,-0.0028,3.407,9.3816,-0.0205,-91.8784
153242,-106.4579,21.764,-0.0118,0.1596,107.9294,-0.4438,-0.5769,8.5627,-0.0028,3.407,9.3816,-0.0205,-91.8784
153258,-106.4579,21.764,-0.0118,0.1596,107.9294,-0.4438,-0.5769,8.5627,-0.0028,3.407,9.3816,-0.0205,-91.8784
153274,-106.4579,21.764,-0.0118,0.1596,107.9294,-0.4438,-0.5769,8.5627,-0.0028,3.407,9.3816,-0.0205,-91.8784
153290,-106.4579,21.764,-0.0118,0.1596,107.9294,-0.4438,-0.5769,8.5627,-0.0028,3.407,9.3816,-0.0205,-91.8784
153322,-106.5216,22.5356,-0.0121,0.1556,99.79,-0.0837,0.3425,9.0549,-0.0033,10.3741,5.5531,-0.006,-92.5597
153338,-106.5216,22.5356,-0.0121,0.1556,99.79,-0.0837,0.3425,9.0549,-0.0033,10.3741,5.5531,-0.006,-92.5597
153354,-106.5216,22.5356,-0.0121,0.1556,99.79,-0.0837,0.3425,9.0549,-0.0033,10.3741,5.5531,-0.006,-92.5597
153370,-106.5216,22.5356,-0.0121,0.1556,99.79,-0.0837,0.3425,9.0549,-0.0033,10.3741,5.5531,-0.006,-92.5597
153386,-106.5216,22.5356,-0.0121,0.1556,99.79,-0.0837,0.3425,9.0549,-0.0033,10.3741,5.5531,-0.006,-92.5597
153402,-106.529,23.3647,-0.0122,0.1381,93.157,0.0177,0.2827,9.5081,-0.0012,-0.6686,5.0628,0.0244,-51.2691
153418,-106.529,23.3647,-0.0122,0.1381,93.157,0.0177,0.2827,9.5081,-0.0012,-0.6686,5.0628,0.0244,-51.2691
153434,-106.529,23.3647,-0.0122,0.1381,93.157,0.0177,0.2827,9.5081,-0.0012,-0.6686,5.0628,0.0244,-51.2691
153450,-106.529,23.3647,-0.0122,0.1381,93.157,0.0177,0.2827,9.5081,-0.0012,-0.6686,5.0628,0.0244,-51.2691
153466,-106.529,23.3647,-0.0122,0.1381,93.157,0.0177,0.2827,9.5081,-0.0012,-0.6686,5.0628,0.0244,-51.2691
153482,-106.546,24.2691,-0.012,0.1048,90.5819,-0.0564,-0.0669,9.7252,0.0005,-3.7235,2.3114,0.0175,-13.0843
153498,-106.546,24.2691,-0.012,0.1048,90.5819,-0.0564,-0.0669,9.7252,0.0005,-3.7235,2.3114,0.0175,-13.0843
153514,-106.546,24.2691,-0.012,0.1048,90.5819,-0.0564,-0.0669,9.7252,0.0005,-3.7235,2.3114,0.0175,-13.0843
153530,-106.546,24.2691,-0.012,0.1048,90.5819,-0.0564,-0.0669,9.7252,0.0005,-3.7235,2.3114,0.0175,-13.0843
153546,-106.546,24.2691,-0.012,0.1048,90.5819,-0.0564,-0.0669,9.7252,0.0005,-3.7235,2.3114,0.0175,-13.0843
153562,-106.546,24.2691,-0.012,0.1048,90.5819,-0.0564,-0.0669,9.7252,0.0005,-3.7235,2.3114,0.0175,-13.0843
153580,-106.5562,25.1715,-0.0117,0.0728,89.9052,-0.0385,-0.0374,9.84,0.0001,0.3201,1.2462,-0.0038,-3.1746
153594,-106.5562,25.1715,-0.0117,0.0728,89.9052,-0.0385,-0.0374,9.84,0.0001,0.3201,1.2462,-0.0038,-3.1746
153610,-106.5562,25.1715,-0.0117,0.0728,89.9052,-0.0385,-0.0374,9.84,0.0001,0.3201,1.2462,-0.0038,-3.1746
153626,-106.5562,25.1715,-0.0117,0.0728,89.9052,-0.0385,-0.0374,9.84,0.0001,0.3201,1.2462,-0.0038,-3.1746
153642,-106.5562,25.1715,-0.0117,0.0728,89.9052,-0.0385,-0.0374,9.84,0.0001,0.3201,1.2462,-0.0038,-3.1746
153658,-106.5562,25.1715,-0.0117,0.0728,89.9052,-0.0385,-0.0374,9.84,0.0001,0.3201,1.2462,-0.0038,-3.1746
153676,-106.5582,26.1285,-0.0115,0.0472,89.7087,-0.0118,0.0141,9.9083,0.0,0.5314,0.7048,-0.001,-0.3085
153690,-106.5582,26.1285,-0.0115,0.0472,89.7087,-0.0118,0.0141,9.9083,0.0,0.5314,0.7048,-0.001,-0.3085
153706,-106.5582,26.1285,-0.0115,0.0472,89.7087,-0.0118,0.0141,9.9083,0.0,0.5314,0.7048,-0.001,-0.3085
153722,-106.5582,26.1285,-0.0115,0.0472,89.7087,-0.0118,0.0141,9.9083,0.0,0.5314,0.7048,-0.001,-0.3085
153738,-106.5582,26.1285,-0.0115,0.0472,89.7087,-0.0118,0.0141,9.9083,0.0,0.5314,0.7048,-0.001,-0.3085
153754,-106.5582,26.1285,-0.0115,0.0472,89.7087,-0.0118,0.0141,9.9083,0.0,0.5314,0.7048,-0.001,-0.3085
153771,-106.5555,27.0751,-0.0114,0.0319,89.6535,-0.0002,0.0434,9.9699,0.0,0.3076,0.6469,-0.0002,0.4103
153786,-106.5555,27.0751,-0.0114,0.0319,89.6535,-0.0002,0.0434,9.9699,0.0,0.3076,0.6469,-0.0002,0.4103
153802,-106.5555,27.0751,-0.0114,0.0319,89.6535,-0.0002,0.0434,9.9699,0.0,0.3076,0.6469,-0.0002,0.4103
153818,-106.5555,27.0751,-0.0114,0.0319,89.6535,-0.0002,0.0434,9.9699,0.0,0.3076,0.6469,-0.0002,0.4103
153834,-106.5555,27.0751,-0.0114,0.0319,89.6535,-0.0002,0.0434,9.9699,0.0,0.3076,0.6469,-0.0002,0.4103
153850,-106.5555,27.0751,-0.0114,0.0319,89.6535,-0.0002,0.0434,9.9699,0.0,0.3076,0.6469,-0.0002,0.4103
153866,-106.5509,27.9842,-0.0113,0.0235,89.6379,0.0032,0.0566,10.0327,0.0001,0.1456,0.6908,0.0009,0.5155
153882,-106.5509,27.9842,-0.0113,0.0235,89.6379,0.0032,0.0566,10.0327,0.0001,0.1456,0.6908,0.0009,0.5155
153898,-106.5509,27.9842,-0.0113,0.0235,89.6379,0.0032,0.0566,10.0327,0.0001,0.1456,0.6908,0.0009,0.5155
153914,-106.5509,27.9842,-0.0113,0.0235,89.6379,0.0032,0.0566,10.0327,0.0001,0.1456,0.6908,0.0009,0.5155
153930,-106.5509,27.9842,-0.0113,0.0235,89.6379,0.0032,0.0566,10.0327,0.0001,0.1456,0.6908,0.0009,0.5155
153946,-106.5509,27.9842,-0.0113,0.0235,89.6379,0.0032,0.0566,10.0327,0.0001,0.1456,0.6908,0.0009,0.5155
153963,-106.5461,28.9332,-0.0116,0.0027,89.6593,0.0404,0.0524,10.0865,-0.0004,-0.0447,0.5712,-0.0056,0.8034
153978,-106.5461,28.9332,-0.0116,0.0027,89.6593,0.0404,0.0524,10.0865,-0.0004,-0.0447,0.5712,-0.0056,0.8034
153994,-106.5461,28.9332,-0.0116,0.0027,89.6593,0.0404,0.0524,10.0865,-0.0004,-0.0447,0.5712,-0.0056,0.8034
154010,-106.5461,28.9332,-0.0116,0.0027,89.6593,0.0404,0.0524,10.0865,-0.0004,-0.0447,0.5712,-0.0056,0.8034
154026,-106.5461,28.9332,-0.0116,0.0027,89.6593,0.0404,0.0524,10.0865,-0.0004,-0.0447,0.5712,-0.0056,0.8034
154042,-106.5461,28.9332,-0.0116,0.0027,89.6593,0.0404,0.0524,10.0865,-0.0004,-0.0447,0.5712,-0.0056,0.8034
154058,-106.541,29.8625,-0.0115,0.0034,89.6649,0.028,0.0584,10.1377,0.0016,0.0652,0.5566,0.0219,0.645
154074,-106.541,29.8625,-0.0115,0.0034,89.6649,0.028,0.0584,10.1377,0.0016,0.0652,0.5566,0.0219,0.645
154090,-106.541,29.8625,-0.0115,0.0034,89.6649,0.028,0.0584,10.1377,0.0016,0.0652,0.5566,0.0219,0.645
154106,-106.541,29.8625,-0.0115,0.0034,89.6649,0.028,0.0584,10.1377,0.0016,0.0652,0.5566,0.0219,0.645
154122,-106.541,29.8625,-0.0115,0.0034,89.6649,0.028,0.0584,10.1377,0.0016,0.0652,0.5566,0.0219,0.645
154139,-106.5356,30.8086,-0.0112,-0.0077,89.6707,0.0013,0.061,10.1695,-0.002,0.0281,0.3419,-0.0381,1.0197
154154,-106.5356,30.8086,-0.0112,-0.0077,89.6707,0.0013,0.061,10.1695,-0.002,0.0281,0.3419,-0.0381,1.0197
154170,-106.5356,30.8086,-0.0112,-0.0077,89.6707,0.0013,0.061,10.1695,-0.002,0.0281,0.3419,-0.0381,1.0197
154186,-106.5356,30.8086,-0.0112,-0.0077,89.6707,0.0013,0.061,10.1695,-0.002,0.0281,0.3419,-0.0381,1.0197
154202,-106.5356,30.8086,-0.0112,-0.0077,89.6707,0.0013,0.061,10.1695,-0.002,0.0281,0.3419,-0.0381,1.0197
154218,-106.5356,30.8086,-0.0112,-0.0077,89.6707,0.0013,0.061,10.1695,-0.002,0.0281,0.3419,-0.0381,1.0197
154236,-106.53,31.7494,-0.0113,0.0066,89.6711,0.0104,0.0601,10.2293,0.0002,-0.0098,0.6491,0.0233,1.1962
154250,-106.53,31.7494,-0.0113,0.0066,89.6711,0.0104,0.0601,10.2293,0.0002,-0.0098,0.6491,0.0233,1.1962
154266,-106.53,31.7494,-0.0113,0.0066,89.6711,0.0104,0.0601,10.2293,0.0002,-0.0098,0.6491,0.0233,1.1962
154282,-106.53,31.7494,-0.0113,0.0066,89.6711,0.0104,0.0601,10.2293,0.0002,-0.0098,0.6491,0.0233,1.1962
154298,-106.53,31.7494,-0.0113,0.0066,89.6711,0.0104,0.0601,10.2293,0.0002,-0.0098,0.6491,0.0233,1.1962
154314,-106.53,31.7494,-0.0113,0.0066,89.6711,0.0104,0.0601,10.2293,0.0002,-0.0098,0.6491,0.0233,1.1962
154332,-106.5245,32.6872,-0.0113,0.009,89.6784,0.0068,0.06,10.2804,0.0004,-0.0008,0.5596,0.0021,1.3416
154346,-106.5245,32.6872,-0.0113,0.009,89.6784,0.0068,0.06,10.2804,0.0004,-0.0008,0.5596,0.0021,1.3416
154362,-106.5245,32.6872,-0.0113,0.009,89.6784,0.0068,0.06,10.2804,0.0004,-0.0008,0.5596,0.0021,1.3416
154378,-106.5245,32.6872,-0.0113,0.009,89.6784,0.0068,0.06,10.2804,0.0004,-0.0008,0.5596,0.0021,1.3416
154394,-106.5245,32.6872,-0.0113,0.009,89.6784,0.0068,0.06,10.2804,0.0004,-0.0008,0.5596,0.0021,1.3416
154410,-106.5245,32.6872,-0.0113,0.009,89.6784,0.0068,0.06,10.2804,0.0004,-0.0008,0.5596,0.0021,1.3416
154426,-106.5188,33.6652,-0.0113,0.0087,89.6888,0.0038,0.0591,10.3222,0.0003,-0.0095,0.4401,-0.0011,2.0577
154442,-106.5188,33.6652,-0.0113,0.0087,89.6888,0.0038,0.0591,10.3222,0.0003,-0.0095,0.4401,-0.0011,2.0577
154458,-106.5188,33.6652,-0.0113,0.0087,89.6888,0.0038,0.0591,10.3222,0.0003,-0.0095,0.4401,-0.0011,2.0577
154474,-106.5188,33.6652,-0.0113,0.0087,89.6888,0.0038,0.0591,10.3222,0.0003,-0.0095,0.4401,-0.0011,2.0577
154490,-106.5188,33.6652,-0.0113,0.0087,89.6888,0.0038,0.0591,10.3222,0.0003,-0.0095,0.4401,-0.0011,2.0577
154507,-106.5135,34.6038,-0.0112,0.0084,89.6904,0.0021,0.0583,10.3645,0.0001,-0.0091,0.4658,-0.0012,1.685
