timestamp,x,y,z,pitch,yaw,roll,vx,vy,vz,ax,ay,az,yaw_rate
109068,-106.6867,-4.8475,-0.0798,0.0,-89.3578,0.0,-0.0,0.0,0.0468,0.0,0.0,7.1713,0.0
109084,-106.6867,-4.8475,-0.0798,0.0,-89.3578,0.0,-0.0,0.0,0.0468,0.0,0.0,7.1713,0.0
109100,-106.6867,-4.8475,-0.0798,0.0,-89.3578,0.0,-0.0,0.0,0.0468,0.0,0.0,7.1713,0.0
109116,-106.6867,-4.8475,-0.0798,0.0,-89.3578,0.0,-0.0,0.0,0.0468,0.0,0.0,7.1713,0.0
109132,-106.6867,-4.8475,-0.0798,0.0,-89.3578,0.0,-0.0,0.0,0.0468,0.0,0.0,7.1713,0.0
109148,-106.6867,-4.8475,-0.0798,0.0,-89.3578,0.0,-0.0,0.0,0.0468,0.0,0.0,7.1713,0.0
109164,-106.6867,-4.8475,-0.0798,0.0,-89.3578,0.0,-0.0,0.0,0.0468,0.0,0.0,7.1713,0.0
109180,-106.6867,-4.8475,-0.0798,0.0,-89.3578,0.0,-0.0,0.0,0.0468,0.0,0.0,7.1713,0.0
109196,-106.6867,-4.8475,-0.0798,0.0,-89.3578,0.0,-0.0,0.0,0.0468,0.0,0.0,7.1713,0.0
109212,-106.6867,-4.8475,-0.0798,0.0,-89.3578,0.0,-0.0,0.0,0.0468,0.0,0.0,7.1713,0.0
109228,-106.6867,-4.8475,-0.0798,0.0,-89.3578,0.0,-0.0,0.0,0.0468,0.0,0.0,7.1713,0.0
109244,-106.6867,-4.8475,-0.0798,0.0,-89.3578,0.0,-0.0,0.0,0.0468,0.0,0.0,7.1713,0.0
109260,-106.6867,-4.8475,-0.0798,0.0,-89.3578,0.0,-0.0,0.0,0.0468,0.0,0.0,7.1713,0.0
109276,-106.6867,-4.8475,-0.0798,0.0,-89.3578,0.0,-0.0,0.0,0.0468,0.0,0.0,7.1713,0.0
109292,-106.6867,-4.8475,-0.0798,0.0,-89.3578,0.0,-0.0,0.0,0.0468,0.0,0.0,7.1713,0.0
109308,-106.6867,-4.8475,-0.0798,0.0,-89.3578,0.0,-0.0,0.0,0.0468,0.0,0.0,7.1713,0.0
109324,-106.6867,-4.8475,-0.0798,0.0,-89.3578,0.0,-0.0,0.0,0.0468,0.0,0.0,7.1713,0.0
109340,-106.6867,-4.8475,-0.0798,0.0,-89.3578,0.0,-0.0,0.0,0.0468,0.0,0.0,7.1713,0.0
109356,-106.6867,-4.8475,-0.0798,0.0,-89.3578,0.0,-0.0,0.0,0.0468,0.0,0.0,7.1713,0.0
109372,-106.6867,-4.8458,-0.0606,-0.0015,-89.3578,0.0,-0.0004,0.0396,0.2364,-0.0015,0.1357,0.6495,-0.0
109388,-106.6867,-4.8458,-0.0606,-0.0015,-89.3578,0.0,-0.0004,0.0396,0.2364,-0.0015,0.1357,0.6495,-0.0
109404,-106.6867,-4.8458,-0.0606,-0.0015,-89.3578,0.0,-0.0004,0.0396,0.2364,-0.0015,0.1357,0.6495,-0.0
109420,-106.6867,-4.8458,-0.0606,-0.0015,-89.3578,0.0,-0.0004,0.0396,0.2364,-0.0015,0.1357,0.6495,-0.0
109436,-106.6867,-4.8458,-0.0606,-0.0015,-89.3578,0.0,-0.0004,0.0396,0.2364,-0.0015,0.1357,0.6495,-0.0
109452,-106.6867,-4.8458,-0.0606,-0.0015,-89.3578,0.0,-0.0004,0.0396,0.2364,-0.0015,0.1357,0.6495,-0.0
109468,-106.6867,-4.8458,-0.0606,-0.0015,-89.3578,0.0,-0.0004,0.0396,0.2364,-0.0015,0.1357,0.6495,-0.0
109484,-106.6867,-4.8458,-0.0606,-0.0015,-89.3578,0.0,-0.0004,0.0396,0.2364,-0.0015,0.1357,0.6495,-0.0
109500,-106.6867,-4.8458,-0.0606,-0.0015,-89.3578,0.0,-0.0004,0.0396,0.2364,-0.0015,0.1357,0.6495,-0.0
109516,-106.6868,-4.8411,-0.0395,-0.0049,-89.3578,0.0,-0.0011,0.1021,0.1791,-0.0044,0.3958,-0.3627,-0.0006
109532,-106.6868,-4.8411,-0.0395,-0.0049,-89.3578,0.0,-0.0011,0.1021,0.1791,-0.0044,0.3958,-0.3627,-0.0006
109548,-106.6868,-4.8411,-0.0395,-0.0049,-89.3578,0.0,-0.0011,0.1021,0.1791,-0.0044,0.3958,-0.3627,-0.0006
109564,-106.6868,-4.8411,-0.0395,-0.0049,-89.3578,0.0,-0.0011,0.1021,0.1791,-0.0044,0.3958,-0.3627,-0.0006
109580,-106.6868,-4.8411,-0.0395,-0.0049,-89.3578,0.0,-0.0011,0.1021,0.1791,-0.0044,0.3958,-0.3627,-0.0006
109596,-106.6868,-4.8411,-0.0395,-0.0049,-89.3578,0.0,-0.0011,0.1021,0.1791,-0.0044,0.3958,-0.3627,-0.0006
109614,-106.6867,-4.8132,-0.0267,-0.0241,-89.3926,-0.0003,-0.0041,0.5213,0.1109,-0.0334,4.6654,-0.7587,-0.2179
109628,-106.6867,-4.8132,-0.0267,-0.0241,-89.3926,-0.0003,-0.0041,0.5213,0.1109,-0.0334,4.6654,-0.7587,-0.2179
109644,-106.6867,-4.8132,-0.0267,-0.0241,-89.3926,-0.0003,-0.0041,0.5213,0.1109,-0.0334,4.6654,-0.7587,-0.2179
109660,-106.6867,-4.8132,-0.0267,-0.0241,-89.3926,-0.0003,-0.0041,0.5213,0.1109,-0.0334,4.6654,-0.7587,-0.2179
109676,-106.6867,-4.8132,-0.0267,-0.0241,-89.3926,-0.0003,-0.0041,0.5213,0.1109,-0.0334,4.6654,-0.7587,-0.2179
109692,-106.6867,-4.8132,-0.0267,-0.0241,-89.3926,-0.0003,-0.0041,0.5213,0.1109,-0.0334,4.6654,-0.7587,-0.2179
109710,-106.6874,-4.7402,-0.0189,-0.0487,-89.3971,-0.0001,-0.0103,0.9921,0.0611,-0.0662,5.0627,-0.5359,-0.0271
109724,-106.6874,-4.7402,-0.0189,-0.0487,-89.3971,-0.0001,-0.0103,0.9921,0.0611,-0.0662,5.0627,-0.5359,-0.0271
109740,-106.6874,-4.7402,-0.0189,-0.0487,-89.3971,-0.0001,-0.0103,0.9921,0.0611,-0.0662,5.0627,-0.5359,-0.0271
109756,-106.6874,-4.7402,-0.0189,-0.0487,-89.3971,-0.0001,-0.0103,0.9921,0.0611,-0.0662,5.0627,-0.5359,-0.0271
109772,-106.6874,-4.7402,-0.0189,-0.0487,-89.3971,-0.0001,-0.0103,0.9921,0.0611,-0.0662,5.0627,-0.5359,-0.0271
109788,-106.6874,-4.7402,-0.0189,-0.0487,-89.3971,-0.0001,-0.0103,0.9921,0.0611,-0.0662,5.0627,-0.5359,-0.0271
109806,-106.6891,-4.6316,-0.0143,-0.0534,-89.354,0.0007,-0.0166,1.2874,0.0324,-0.0652,3.0367,-0.2957,-0.1117
109820,-106.6891,-4.6316,-0.0143,-0.0534,-89.354,0.0007,-0.0166,1.2874,0.0324,-0.0652,3.0367,-0.2957,-0.1117
109836,-106.6891,-4.6316,-0.0143,-0.0534,-89.354,0.0007,-0.0166,1.2874,0.0324,-0.0652,3.0367,-0.2957,-0.1117
109852,-106.6891,-4.6316,-0.0143,-0.0534,-89.354,0.0007,-0.0166,1.2874,0.0324,-0.0652,3.0367,-0.2957,-0.1117
109868,-106.6891,-4.6316,-0.0143,-0.0534,-89.354,0.0007,-0.0166,1.2874,0.0324,-0.0652,3.0367,-0.2957,-0.1117
109884,-106.6891,-4.6316,-0.0143,-0.0534,-89.354,0.0007,-0.0166,1.2874,0.0324,-0.0652,3.0367,-0.2957,-0.1117
109900,-106.6896,-4.5143,-0.0125,-0.0397,-89.4305,-0.0008,-0.0107,1.2999,0.0138,0.0642,0.1358,-0.2006,-0.2979
109916,-106.6896,-4.5143,-0.0125,-0.0397,-89.4305,-0.0008,-0.0107,1.2999,0.0138,0.0642,0.1358,-0.2006,-0.2979
109932,-106.6896,-4.5143,-0.0125,-0.0397,-89.4305,-0.0008,-0.0107,1.2999,0.0138,0.0642,0.1358,-0.2006,-0.2979
109948,-106.6896,-4.5143,-0.0125,-0.0397,-89.4305,-0.0008,-0.0107,1.2999,0.0138,0.0642,0.1358,-0.2006,-0.2979
109964,-106.6896,-4.5143,-0.0125,-0.0397,-89.4305,-0.0008,-0.0107,1.2999,0.0138,0.0642,0.1358,-0.2006,-0.2979
109980,-106.6896,-4.5143,-0.0125,-0.0397,-89.4305,-0.0008,-0.0107,1.2999,0.0138,0.0642,0.1358,-0.2006,-0.2979
109996,-106.6907,-4.4,-0.0118,-0.0227,-89.4259,-0.0002,-0.013,1.2837,0.0063,-0.0244,-0.1768,-0.0811,0.1648
110012,-106.6907,-4.4,-0.0118,-0.0227,-89.4259,-0.0002,-0.013,1.2837,0.0063,-0.0244,-0.1768,-0.0811,0.1648
110028,-106.6907,-4.4,-0.0118,-0.0227,-89.4259,-0.0002,-0.013,1.2837,0.0063,-0.0244,-0.1768,-0.0811,0.1648
110044,-106.6907,-4.4,-0.0118,-0.0227,-89.4259,-0.0002,-0.013,1.2837,0.0063,-0.0244,-0.1768,-0.0811,0.1648
110060,-106.6907,-4.4,-0.0118,-0.0227,-89.4259,-0.0002,-0.013,1.2837,0.0063,-0.0244,-0.1768,-0.0811,0.1648
110076,-106.6907,-4.4,-0.0118,-0.0227,-89.4259,-0.0002,-0.013,1.2837,0.0063,-0.0244,-0.1768,-0.0811,0.1648
110092,-106.6918,-4.2626,-0.0113,-0.0293,-89.4394,-0.0007,-0.0137,1.622,0.0029,-0.008,3.4786,-0.0351,1.2833
110108,-106.6918,-4.2626,-0.0113,-0.0293,-89.4394,-0.0007,-0.0137,1.622,0.0029,-0.008,3.4786,-0.0351,1.2833
110124,-106.6918,-4.2626,-0.0113,-0.0293,-89.4394,-0.0007,-0.0137,1.622,0.0029,-0.008,3.4786,-0.0351,1.2833
110140,-106.6918,-4.2626,-0.0113,-0.0293,-89.4394,-0.0007,-0.0137,1.622,0.0029,-0.008,3.4786,-0.0351,1.2833
110156,-106.6918,-4.2626,-0.0113,-0.0293,-89.4394,-0.0007,-0.0137,1.622,0.0029,-0.008,3.4786,-0.0351,1.2833
110173,-106.6918,-4.2626,-0.0113,-0.0293,-89.4394,-0.0007,-0.0137,1.622,0.0029,-0.008,3.4786,-0.0351,1.2833
110188,-106.6931,-4.0779,-0.0109,-0.0528,-89.472,-0.0004,-0.0195,2.1612,0.0014,-0.0591,5.5579,-0.0161,-2.1288
110204,-106.6931,-4.0779,-0.0109,-0.0528,-89.472,-0.0004,-0.0195,2.1612,0.0014,-0.0591,5.5579,-0.0161,-2.1288
110220,-106.6931,-4.0779,-0.0109,-0.0528,-89.472,-0.0004,-0.0195,2.1612,0.0014,-0.0591,5.5579,-0.0161,-2.1288
110236,-106.6931,-4.0779,-0.0109,-0.0528,-89.472,-0.0004,-0.0195,2.1612,0.0014,-0.0591,5.5579,-0.0161,-2.1288
110252,-106.6931,-4.0779,-0.0109,-0.0528,-89.472,-0.0004,-0.0195,2.1612,0.0014,-0.0591,5.5579,-0.0161,-2.1288
110269,-106.695,-3.844,-0.0107,-0.0718,-89.4737,-0.0004,-0.0232,2.8234,0.0007,-0.0393,6.9842,-0.0073,1.5152
110284,-106.695,-3.844,-0.0107,-0.0718,-89.4737,-0.0004,-0.0232,2.8234,0.0007,-0.0393,6.9842,-0.0073,1.5152
110300,-106.695,-3.844,-0.0107,-0.0718,-89.4737,-0.0004,-0.0232,2.8234,0.0007,-0.0393,6.9842,-0.0073,1.5152
110316,-106.695,-3.844,-0.0107,-0.0718,-89.4737,-0.0004,-0.0232,2.8234,0.0007,-0.0393,6.9842,-0.0073,1.5152
110332,-106.695,-3.844,-0.0107,-0.0718,-89.4737,-0.0004,-0.0232,2.8234,0.0007,-0.0393,6.9842,-0.0073,1.5152
110348,-106.695,-3.844,-0.0107,-0.0718,-89.4737,-0.0004,-0.0232,2.8234,0.0007,-0.0393,6.9842,-0.0073,1.5152
110365,-106.6966,-3.5725,-0.0106,-0.0835,-89.5287,-0.0011,-0.0237,3.2236,0.0004,-0.0052,4.4498,-0.0034,-0.635
110380,-106.6966,-3.5725,-0.0106,-0.0835,-89.5287,-0.0011,-0.0237,3.2236,0.0004,-0.0052,4.4498,-0.0034,-0.635
110396,-106.6966,-3.5725,-0.0106,-0.0835,-89.5287,-0.0011,-0.0237,3.2236,0.0004,-0.0052,4.4498,-0.0034,-0.635
110412,-106.6966,-3.5725,-0.0106,-0.0835,-89.5287,-0.0011,-0.0237,3.2236,0.0004,-0.0052,4.4498,-0.0034,-0.635
110428,-106.6966,-3.5725,-0.0106,-0.0835,-89.5287,-0.0011,-0.0237,3.2236,0.0004,-0.0052,4.4498,-0.0034,-0.635
110444,-106.6966,-3.5725,-0.0106,-0.0835,-89.5287,-0.0011,-0.0237,3.2236,0.0004,-0.0052,4.4498,-0.0034,-0.635
110462,-106.6998,-3.244,-0.0106,-0.0847,-89.4577,0.0005,-0.034,3.6692,0.0002,-0.1112,4.7864,-0.002,2.3113
110476,-106.6998,-3.244,-0.0106,-0.0847,-89.4577,0.0005,-0.034,3.6692,0.0002,-0.1112,4.7864,-0.002,2.3113
110492,-106.6998,-3.244,-0.0106,-0.0847,-89.4577,0.0005,-0.034,3.6692,0.0002,-0.1112,4.7864,-0.002,2.3113
110508,-106.6998,-3.244,-0.0106,-0.0847,-89.4577,0.0005,-0.034,3.6692,0.0002,-0.1112,4.7864,-0.002,2.3113
110524,-106.6998,-3.244,-0.0106,-0.0847,-89.4577,0.0005,-0.034,3.6692,0.0002,-0.1112,4.7864,-0.002,2.3113
110540,-106.6998,-3.244,-0.0106,-0.0847,-89.4577,0.0005,-0.034,3.6692,0.0002,-0.1112,4.7864,-0.002,2.3113
110556,-106.7042,-2.8666,-0.0106,-0.0822,-89.3895,0.002,-0.0458,4.1525,0.0001,-0.1239,5.0928,-0.0009,-0.7666
110572,-106.7042,-2.8666,-0.0106,-0.0822,-89.3895,0.002,-0.0458,4.1525,0.0001,-0.1239,5.0928,-0.0009,-0.7666
110588,-106.7042,-2.8666,-0.0106,-0.0822,-89.3895,0.002,-0.0458,4.1525,0.0001,-0.1239,5.0928,-0.0009,-0.7666
110604,-106.7042,-2.8666,-0.0106,-0.0822,-89.3895,0.002,-0.0458,4.1525,0.0001,-0.1239,5.0928,-0.0009,-0.7666
110620,-106.7042,-2.8666,-0.0106,-0.0822,-89.3895,0.002,-0.0458,4.1525,0.0001,-0.1239,5.0928,-0.0009,-0.7666
110636,-106.7042,-2.8666,-0.0106,-0.0822,-89.3895,0.002,-0.0458,4.1525,0.0001,-0.1239,5.0928,-0.0009,-0.7666
110652,-106.7093,-2.4563,-0.0105,-0.092,-89.3278,0.0021,-0.0559,4.8159,0.0001,-0.1121,7.3632,-0.0005,1.8778
110668,-106.7093,-2.4563,-0.0105,-0.092,-89.3278,0.0021,-0.0559,4.8159,0.0001,-0.1121,7.3632,-0.0005,1.8778
110684,-106.7093,-2.4563,-0.0105,-0.092,-89.3278,0.0021,-0.0559,4.8159,0.0001,-0.1121,7.3632,-0.0005,1.8778
110700,-106.7093,-2.4563,-0.0105,-0.092,-89.3278,0.0021,-0.0559,4.8159,0.0001,-0.1121,7.3632,-0.0005,1.8778
110716,-106.7093,-2.4563,-0.0105,-0.092,-89.3278,0.0021,-0.0559,4.8159,0.0001,-0.1121,7.3632,-0.0005,1.8778
110732,-106.7149,-1.9697,-0.0104,-0.1006,-89.3462,0.0013,-0.0633,5.4445,0.0,-0.0796,6.7119,-0.0003,-1.6274
110748,-106.7149,-1.9697,-0.0104,-0.1006,-89.3462,0.0013,-0.0633,5.4445,0.0,-0.0796,6.7119,-0.0003,-1.6274
110764,-106.7149,-1.9697,-0.0104,-0.1006,-89.3462,0.0013,-0.0633,5.4445,0.0,-0.0796,6.7119,-0.0003,-1.6274
110780,-106.7149,-1.9697,-0.0104,-0.1006,-89.3462,0.0013,-0.0633,5.4445,0.0,-0.0796,6.7119,-0.0003,-1.6274
110796,-106.7149,-1.9697,-0.0104,-0.1006,-89.3462,0.0013,-0.0633,5.4445,0.0,-0.0796,6.7119,-0.0003,-1.6274
110812,-106.7149,-1.9697,-0.0104,-0.1006,-89.3462,0.0013,-0.0633,5.4445,0.0,-0.0796,6.7119,-0.0003,-1.6274
110830,-106.7214,-1.4213,-0.0104,-0.1076,-89.3218,0.0009,-0.0719,6.1335,0.0,-0.0912,7.3567,-0.0002,1.0731
110844,-106.7214,-1.4213,-0.0104,-0.1076,-89.3218,0.0009,-0.0719,6.1335,0.0,-0.0912,7.3567,-0.0002,1.0731
110860,-106.7214,-1.4213,-0.0104,-0.1076,-89.3218,0.0009,-0.0719,6.1335,0.0,-0.0912,7.3567,-0.0002,1.0731
110876,-106.7214,-1.4213,-0.0104,-0.1076,-89.3218,0.0009,-0.0719,6.1335,0.0,-0.0912,7.3567,-0.0002,1.0731
110892,-106.7214,-1.4213,-0.0104,-0.1076,-89.3218,0.0009,-0.0719,6.1335,0.0,-0.0912,7.3567,-0.0002,1.0731
110908,-106.7214,-1.4213,-0.0104,-0.1076,-89.3218,0.0009,-0.0719,6.1335,0.0,-0.0912,7.3567,-0.0002,1.0731
110926,-106.7285,-0.8109,-0.0103,-0.1164,-89.3375,0.0005,-0.0801,6.8884,0.0,-0.0886,8.1355,0.0001,-0.4377
110940,-106.7285,-0.8109,-0.0103,-0.1164,-89.3375,0.0005,-0.0801,6.8884,0.0,-0.0886,8.1355,0.0001,-0.4377
110956,-106.7285,-0.8109,-0.0103,-0.1164,-89.3375,0.0005,-0.0801,6.8884,0.0,-0.0886,8.1355,0.0001,-0.4377
110972,-106.7285,-0.8109,-0.0103,-0.1164,-89.3375,0.0005,-0.0801,6.8884,0.0,-0.0886,8.1355,0.0001,-0.4377
110988,-106.7285,-0.8109,-0.0103,-0.1164,-89.3375,0.0005,-0.0801,6.8884,0.0,-0.0886,8.1355,0.0001,-0.4377
111004,-106.7285,-0.8109,-0.0103,-0.1164,-89.3375,0.0005,-0.0801,6.8884,0.0,-0.0886,8.1355,0.0001,-0.4377
111020,-106.7361,-0.1594,-0.0103,-0.1161,-89.329,0.0003,-0.0874,7.5228,0.0,-0.0814,7.0565,-0.0001,1.1159
111036,-106.7361,-0.1594,-0.0103,-0.1161,-89.329,0.0003,-0.0874,7.5228,0.0,-0.0814,7.0565,-0.0001,1.1159
111052,-106.7361,-0.1594,-0.0103,-0.1161,-89.329,0.0003,-0.0874,7.5228,0.0,-0.0814,7.0565,-0.0001,1.1159
111068,-106.7361,-0.1594,-0.0103,-0.1161,-89.329,0.0003,-0.0874,7.5228,0.0,-0.0814,7.0565,-0.0001,1.1159
111084,-106.7361,-0.1594,-0.0103,-0.1161,-89.329,0.0003,-0.0874,7.5228,0.0,-0.0814,7.0565,-0.0001,1.1159
111100,-106.7361,-0.1594,-0.0103,-0.1161,-89.329,0.0003,-0.0874,7.5228,0.0,-0.0814,7.0565,-0.0001,1.1159
111116,-106.7447,0.5818,-0.0103,-0.1163,-89.3325,0.0002,-0.0958,8.2067,-0.0,-0.0895,7.2613,-0.0,-0.2926
111132,-106.7447,0.5818,-0.0103,-0.1163,-89.3325,0.0002,-0.0958,8.2067,-0.0,-0.0895,7.2613,-0.0,-0.2926
111148,-106.7447,0.5818,-0.0103,-0.1163,-89.3325,0.0002,-0.0958,8.2067,-0.0,-0.0895,7.2613,-0.0,-0.2926
111164,-106.7447,0.5818,-0.0103,-0.1163,-89.3325,0.0002,-0.0958,8.2067,-0.0,-0.0895,7.2613,-0.0,-0.2926
111180,-106.7447,0.5818,-0.0103,-0.1163,-89.3325,0.0002,-0.0958,8.2067,-0.0,-0.0895,7.2613,-0.0,-0.2926
111196,-106.7541,1.3819,-0.0103,-0.1143,-89.3317,0.0001,-0.1027,8.8062,-0.0,-0.0731,6.3909,-0.0,0.0655
111212,-106.7541,1.3819,-0.0103,-0.1143,-89.3317,0.0001,-0.1027,8.8062,-0.0,-0.0731,6.3909,-0.0,0.0655
111228,-106.7541,1.3819,-0.0103,-0.1143,-89.3317,0.0001,-0.1027,8.8062,-0.0,-0.0731,6.3909,-0.0,0.0655
111244,-106.7541,1.3819,-0.0103,-0.1143,-89.3317,0.0001,-0.1027,8.8062,-0.0,-0.0731,6.3909,-0.0,0.0655
111260,-106.7541,1.3819,-0.0103,-0.1143,-89.3317,0.0001,-0.1027,8.8062,-0.0,-0.0731,6.3909,-0.0,0.0655
111276,-106.7541,1.3819,-0.0103,-0.1143,-89.3317,0.0001,-0.1027,8.8062,-0.0,-0.0731,6.3909,-0.0,0.0655
111293,-106.7637,2.2114,-0.0104,-0.1094,-89.3318,0.0001,-0.1092,9.3618,0.0,-0.0712,6.0937,0.0001,0.0
111308,-106.7637,2.2114,-0.0104,-0.1094,-89.3318,0.0001,-0.1092,9.3618,0.0,-0.0712,6.0937,0.0001,0.0
111324,-106.7637,2.2114,-0.0104,-0.1094,-89.3318,0.0001,-0.1092,9.3618,0.0,-0.0712,6.0937,0.0001,0.0
111340,-106.7637,2.2114,-0.0104,-0.1094,-89.3318,0.0001,-0.1092,9.3618,0.0,-0.0712,6.0937,0.0001,0.0
111356,-106.7637,2.2114,-0.0104,-0.1094,-89.3318,0.0001,-0.1092,9.3618,0.0,-0.0712,6.0937,0.0001,0.0
111372,-106.7637,2.2114,-0.0104,-0.1094,-89.3318,0.0001,-0.1092,9.3618,0.0,-0.0712,6.0937,0.0001,0.0
111390,-106.7739,3.0819,-0.0104,-0.1039,-89.3318,0.0,-0.1151,9.8657,-0.0,-0.065,5.5784,-0.0002,-0.0001
111404,-106.7739,3.0819,-0.0104,-0.1039,-89.3318,0.0,-0.1151,9.8657,-0.0,-0.065,5.5784,-0.0002,-0.0001
111420,-106.7739,3.0819,-0.0104,-0.1039,-89.3318,0.0,-0.1151,9.8657,-0.0,-0.065,5.5784,-0.0002,-0.0001
111436,-106.7739,3.0819,-0.0104,-0.1039,-89.3318,0.0,-0.1151,9.8657,-0.0,-0.065,5.5784,-0.0002,-0.0001
111452,-106.7739,3.0819,-0.0104,-0.1039,-89.3318,0.0,-0.1151,9.8657,-0.0,-0.065,5.5784,-0.0002,-0.0001
111468,-106.7847,4.005,-0.0104,-0.0963,-89.3318,0.0,-0.1203,10.3164,0.0,-0.0576,4.9368,0.0003,-0.0001
111484,-106.7847,4.005,-0.0104,-0.0963,-89.3318,0.0,-0.1203,10.3164,0.0,-0.0576,4.9368,0.0003,-0.0001
111500,-106.7847,4.005,-0.0104,-0.0963,-89.3318,0.0,-0.1203,10.3164,0.0,-0.0576,4.9368,0.0003,-0.0001
111516,-106.7847,4.005,-0.0104,-0.0963,-89.3318,0.0,-0.1203,10.3164,0.0,-0.0576,4.9368,0.0003,-0.0001
111532,-106.7847,4.005,-0.0104,-0.0963,-89.3318,0.0,-0.1203,10.3164,0.0,-0.0576,4.9368,0.0003,-0.0001
111548,-106.7847,4.005,-0.0104,-0.0963,-89.3318,0.0,-0.1203,10.3164,0.0,-0.0576,4.9368,0.0003,-0.0001
111566,-106.7961,4.984,-0.0105,-0.0883,-89.3313,-0.0004,-0.1251,10.7292,0.0002,-0.0512,4.4451,0.0015,-0.0025
111580,-106.7961,4.984,-0.0105,-0.0883,-89.3313,-0.0004,-0.1251,10.7292,0.0002,-0.0512,4.4451,0.0015,-0.0025
111596,-106.7961,4.984,-0.0105,-0.0883,-89.3313,-0.0004,-0.1251,10.7292,0.0002,-0.0512,4.4451,0.0015,-0.0025
111612,-106.7961,4.984,-0.0105,-0.0883,-89.3313,-0.0004,-0.1251,10.7292,0.0002,-0.0512,4.4451,0.0015,-0.0025
111628,-106.7961,4.984,-0.0105,-0.0883,-89.3313,-0.0004,-0.1251,10.7292,0.0002,-0.0512,4.4451,0.0015,-0.0025
111644,-106.7961,4.984,-0.0105,-0.0883,-89.3313,-0.0004,-0.1251,10.7292,0.0002,-0.0512,4.4451,0.0015,-0.0025
111662,-106.8079,6.0013,-0.0106,-0.0807,-89.3311,0.0,-0.1297,11.1139,0.0,-0.0494,4.135,-0.0013,-0.006
111676,-106.8079,6.0013,-0.0106,-0.0807,-89.3311,0.0,-0.1297,11.1139,0.0,-0.0494,4.135,-0.0013,-0.006
111692,-106.8079,6.0013,-0.0106,-0.0807,-89.3311,0.0,-0.1297,11.1139,0.0,-0.0494,4.135,-0.0013,-0.006
111708,-106.8079,6.0013,-0.0106,-0.0807,-89.3311,0.0,-0.1297,11.1139,0.0,-0.0494,4.135,-0.0013,-0.006
111724,-106.8079,6.0013,-0.0106,-0.0807,-89.3311,0.0,-0.1297,11.1139,0.0,-0.0494,4.135,-0.0013,-0.006
111740,-106.8079,6.0013,-0.0106,-0.0807,-89.3311,0.0,-0.1297,11.1139,0.0,-0.0494,4.135,-0.0013,-0.006
111758,-106.82,7.0315,-0.0106,-0.075,-89.3311,0.0,-0.1339,11.4721,0.0,-0.0466,3.9329,-0.0003,-0.0081
111772,-106.82,7.0315,-0.0106,-0.075,-89.3311,0.0,-0.1339,11.4721,0.0,-0.0466,3.9329,-0.0003,-0.0081
111788,-106.82,7.0315,-0.0106,-0.075,-89.3311,0.0,-0.1339,11.4721,0.0,-0.0466,3.9329,-0.0003,-0.0081
111804,-106.82,7.0315,-0.0106,-0.075,-89.3311,0.0,-0.1339,11.4721,0.0,-0.0466,3.9329,-0.0003,-0.0081
111820,-106.82,7.0315,-0.0106,-0.075,-89.3311,0.0,-0.1339,11.4721,0.0,-0.0466,3.9329,-0.0003,-0.0081
111836,-106.82,7.0315,-0.0106,-0.075,-89.3311,0.0,-0.1339,11.4721,0.0,-0.0466,3.9329,-0.0003,-0.0081
111852,-106.8323,8.0857,-0.0106,-0.0702,-89.3311,0.0,-0.1378,11.8055,0.0,-0.0433,3.686,-0.0,-0.0075
111868,-106.8323,8.0857,-0.0106,-0.0702,-89.3311,0.0,-0.1378,11.8055,0.0,-0.0433,3.686,-0.0,-0.0075
111884,-106.8323,8.0857,-0.0106,-0.0702,-89.3311,0.0,-0.1378,11.8055,0.0,-0.0433,3.686,-0.0,-0.0075
111900,-106.8323,8.0857,-0.0106,-0.0702,-89.3311,0.0,-0.1378,11.8055,0.0,-0.0433,3.686,-0.0,-0.0075
111916,-106.8323,8.0857,-0.0106,-0.0702,-89.3311,0.0,-0.1378,11.8055,0.0,-0.0433,3.686,-0.0,-0.0075
111932,-106.8456,9.2279,-0.0107,-0.0653,-89.3312,0.0,-0.1416,12.1316,-0.0,-0.04,3.4218,-0.0002,-0.0135
111948,-106.8456,9.2279,-0.0107,-0.0653,-89.3312,0.0,-0.1416,12.1316,-0.0,-0.04,3.4218,-0.0002,-0.0135
111964,-106.8456,9.2279,-0.0107,-0.0653,-89.3312,0.0,-0.1416,12.1316,-0.0,-0.04,3.4218,-0.0002,-0.0135
111980,-106.8456,9.2279,-0.0107,-0.0653,-89.3312,0.0,-0.1416,12.1316,-0.0,-0.04,3.4218,-0.0002,-0.0135
111996,-106.8456,9.2279,-0.0107,-0.0653,-89.3312,0.0,-0.1416,12.1316,-0.0,-0.04,3.4218,-0.0002,-0.0135
112012,-106.8456,9.2279,-0.0107,-0.0653,-89.3312,0.0,-0.1416,12.1316,-0.0,-0.04,3.4218,-0.0002,-0.0135
112030,-106.8591,10.3853,-0.0107,-0.0609,-89.3312,0.0,-0.1451,12.4313,0.0,-0.0372,3.1849,0.0001,-0.0141
112044,-106.8591,10.3853,-0.0107,-0.0609,-89.3312,0.0,-0.1451,12.4313,0.0,-0.0372,3.1849,0.0001,-0.0141
112060,-106.8591,10.3853,-0.0107,-0.0609,-89.3312,0.0,-0.1451,12.4313,0.0,-0.0372,3.1849,0.0001,-0.0141
112092,-106.8591,10.3853,-0.0107,-0.0609,-89.3312,0.0,-0.1451,12.4313,0.0,-0.0372,3.1849,0.0001,-0.0141
112108,-106.8591,10.3853,-0.0107,-0.0609,-89.3312,0.0,-0.1451,12.4313,0.0,-0.0372,3.1849,0.0001,-0.0141
112126,-106.8978,11.545,-0.0108,-0.0485,-90.5029,0.1101,-0.9035,12.5155,0.0009,-8.1804,0.9079,0.0097,-27.63
112140,-106.8978,11.545,-0.0108,-0.0485,-90.5029,0.1101,-0.9035,12.5155,0.0009,-8.1804,0.9079,0.0097,-27.63
112156,-106.8978,11.545,-0.0108,-0.0485,-90.5029,0.1101,-0.9035,12.5155,0.0009,-8.1804,0.9079,0.0097,-27.63
112172,-106.8978,11.545,-0.0108,-0.0485,-90.5029,0.1101,-0.9035,12.5155,0.0009,-8.1804,0.9079,0.0097,-27.63
112188,-106.8978,11.545,-0.0108,-0.0485,-90.5029,0.1101,-0.9035,12.5155,0.0009,-8.1804,0.9079,0.0097,-27.63
112204,-106.8978,11.545,-0.0108,-0.0485,-90.5029,0.1101,-0.9035,12.5155,0.0009,-8.1804,0.9079,0.0097,-27.63
112221,-106.9992,12.7324,-0.0109,-0.014,-95.5325,0.2509,-1.8385,12.3071,0.0012,-9.7616,-2.1756,0.0029,-74.8461
112236,-106.9992,12.7324,-0.0109,-0.014,-95.5325,0.2509,-1.8385,12.3071,0.0012,-9.7616,-2.1756,0.0029,-74.8461
112252,-106.9992,12.7324,-0.0109,-0.014,-95.5325,0.2509,-1.8385,12.3071,0.0012,-9.7616,-2.1756,0.0029,-74.8461
112268,-106.9992,12.7324,-0.0109,-0.014,-95.5325,0.2509,-1.8385,12.3071,0.0012,-9.7616,-2.1756,0.0029,-74.8461
112284,-106.9992,12.7324,-0.0109,-0.014,-95.5325,0.2509,-1.8385,12.3071,0.0012,-9.7616,-2.1756,0.0029,-74.8461
112300,-106.9992,12.7324,-0.0109,-0.014,-95.5325,0.2509,-1.8385,12.3071,0.0012,-9.7616,-2.1756,0.0029,-74.8461
112316,-107.125,13.8128,-0.0111,0.0159,-104.7657,0.2661,-2.3127,12.0712,0.0002,-5.2844,-2.6286,-0.0111,-126.1449
112332,-107.125,13.8128,-0.0111,0.0159,-104.7657,0.2661,-2.3127,12.0712,0.0002,-5.2844,-2.6286,-0.0111,-126.1449
112348,-107.125,13.8128,-0.0111,0.0159,-104.7657,0.2661,-2.3127,12.0712,0.0002,-5.2844,-2.6286,-0.0111,-126.1449
112364,-107.125,13.8128,-0.0111,0.0159,-104.7657,0.2661,-2.3127,12.0712,0.0002,-5.2844,-2.6286,-0.0111,-126.1449
112380,-107.125,13.8128,-0.0111,0.0159,-104.7657,0.2661,-2.3127,12.0712,0.0002,-5.2844,-2.6286,-0.0111,-126.1449
112398,-107.2341,14.8452,-0.0111,0.0148,-118.5945,0.1609,-2.1634,11.9439,-0.0009,1.6728,-1.4274,-0.0124,-177.7578
112412,-107.2341,14.8452,-0.0111,0.0148,-118.5945,0.1609,-2.1634,11.9439,-0.0009,1.6728,-1.4274,-0.0124,-177.7578
112428,-107.2341,14.8452,-0.0111,0.0148,-118.5945,0.1609,-2.1634,11.9439,-0.0009,1.6728,-1.4274,-0.0124,-177.7578
112444,-107.2341,14.8452,-0.0111,0.0148,-118.5945,0.1609,-2.1634,11.9439,-0.0009,1.6728,-1.4274,-0.0124,-177.7578
112460,-107.2341,14.8452,-0.0111,0.0148,-118.5945,0.1609,-2.1634,11.9439,-0.0009,1.6728,-1.4274,-0.0124,-177.7578
112476,-107.2341,14.8452,-0.0111,0.0148,-118.5945,0.1609,-2.1634,11.9439,-0.0009,1.6728,-1.4274,-0.0124,-177.7578
112493,-107.2603,15.9476,-0.0106,-0.0649,-138.1462,-0.0948,-0.5881,11.963,-0.0001,15.8275,0.1916,0.0084,-207.2741
112508,-107.2603,15.9476,-0.0106,-0.0649,-138.1462,-0.0948,-0.5881,11.963,-0.0001,15.8275,0.1916,0.0084,-207.2741
112524,-107.2603,15.9476,-0.0106,-0.0649,-138.1462,-0.0948,-0.5881,11.963,-0.0001,15.8275,0.1916,0.0084,-207.2741
112540,-107.2603,15.9476,-0.0106,-0.0649,-138.1462,-0.0948,-0.5881,11.963,-0.0001,15.8275,0.1916,0.0084,-207.2741
112556,-107.2603,15.9476,-0.0106,-0.0649,-138.1462,-0.0948,-0.5881,11.963,-0.0001,15.8275,0.1916,0.0084,-207.2741
112572,-107.2603,15.9476,-0.0106,-0.0649,-138.1462,-0.0948,-0.5881,11.963,-0.0001,15.8275,0.1916,0.0084,-207.2741
112588,-107.2603,15.9476,-0.0106,-0.0649,-138.1462,-0.0948,-0.5881,11.963,-0.0001,15.8275,0.1916,0.0084,-207.2741
112604,-107.1177,16.9612,-0.0096,-0.1825,-159.0817,-0.3567,1.6681,11.4206,0.0021,23.0994,-5.5525,0.0222,-218.9271
112620,-107.1177,16.9612,-0.0096,-0.1825,-159.0817,-0.3567,1.6681,11.4206,0.0021,23.0994,-5.5525,0.0222,-218.9271
112636,-107.1177,16.9612,-0.0096,-0.1825,-159.0817,-0.3567,1.6681,11.4206,0.0021,23.0994,-5.5525,0.0222,-218.9271
112652,-107.1177,16.9612,-0.0096,-0.1825,-159.0817,-0.3567,1.6681,11.4206,0.0021,23.0994,-5.5525,0.0222,-218.9271
112668,-107.1177,16.9612,-0.0096,-0.1825,-159.0817,-0.3567,1.6681,11.4206,0.0021,23.0994,-5.5525,0.0222,-218.9271
112700,-106.8142,17.8366,-0.0087,-0.2733,179.4525,-0.546,3.8127,10.0862,0.0017,22.3527,-13.9087,-0.0039,-228.0631
112716,-106.8142,17.8366,-0.0087,-0.2733,179.4525,-0.546,3.8127,10.0862,0.0017,22.3527,-13.9087,-0.0039,-228.0631
112732,-106.8142,17.8366,-0.0087,-0.2733,179.4525,-0.546,3.8127,10.0862,0.0017,22.3527,-13.9087,-0.0039,-228.0631
112748,-106.8142,17.8366,-0.0087,-0.2733,179.4525,-0.546,3.8127,10.0862,0.0017,22.3527,-13.9087,-0.0039,-228.0631
112764,-106.8142,17.8366,-0.0087,-0.2733,179.4525,-0.546,3.8127,10.0862,0.0017,22.3527,-13.9087,-0.0039,-228.0631
112782,-106.4475,18.4915,-0.0083,-0.3043,158.7431,-0.7265,4.6219,7.8825,0.0018,8.9808,-24.4567,0.0012,-229.7015
112796,-106.4475,18.4915,-0.0083,-0.3043,158.7431,-0.7265,4.6219,7.8825,0.0018,8.9808,-24.4567,0.0012,-229.7015
112812,-106.4475,18.4915,-0.0083,-0.3043,158.7431,-0.7265,4.6219,7.8825,0.0018,8.9808,-24.4567,0.0012,-229.7015
112828,-106.4475,18.4915,-0.0083,-0.3043,158.7431,-0.7265,4.6219,7.8825,0.0018,8.9808,-24.4567,0.0012,-229.7015
112844,-106.4475,18.4915,-0.0083,-0.3043,158.7431,-0.7265,4.6219,7.8825,0.0018,8.9808,-24.4567,0.0012,-229.7015
112860,-106.4475,18.4915,-0.0083,-0.3043,158.7431,-0.7265,4.6219,7.8825,0.0018,8.9808,-24.4567,0.0012,-229.7015
112877,-106.166,18.9951,-0.009,-0.2189,140.0126,-0.8585,3.1163,6.5846,0.0043,-16.9908,-14.6458,0.028,-192.1087
112892,-106.166,18.9951,-0.009,-0.2189,140.0126,-0.8585,3.1163,6.5846,0.0043,-16.9908,-14.6458,0.028,-192.1087
112908,-106.166,18.9951,-0.009,-0.2189,140.0126,-0.8585,3.1163,6.5846,0.0043,-16.9908,-14.6458,0.028,-192.1087
112924,-106.166,18.9951,-0.009,-0.2189,140.0126,-0.8585,3.1163,6.5846,0.0043,-16.9908,-14.6458,0.028,-192.1087
112940,-106.166,18.9951,-0.009,-0.2189,140.0126,-0.8585,3.1163,6.5846,0.0043,-16.9908,-14.6458,0.028,-192.1087
112958,-106.0816,19.4748,-0.01,-0.0594,125.3582,-0.9041,1.0152,6.6344,0.0008,-24.7112,0.5851,-0.0416,-151.4968
112972,-106.0816,19.4748,-0.01,-0.0594,125.3582,-0.9041,1.0152,6.6344,0.0008,-24.7112,0.5851,-0.0416,-151.4968
112988,-106.0816,19.4748,-0.01,-0.0594,125.3582,-0.9041,1.0152,6.6344,0.0008,-24.7112,0.5851,-0.0416,-151.4968
113004,-106.0816,19.4748,-0.01,-0.0594,125.3582,-0.9041,1.0152,6.6344,0.0008,-24.7112,0.5851,-0.0416,-151.4968
113020,-106.0816,19.4748,-0.01,-0.0594,125.3582,-0.9041,1.0152,6.6344,0.0008,-24.7112,0.5851,-0.0416,-151.4968
113036,-106.1437,20.0531,-0.0111,0.0916,114.8415,-0.7915,-0.4957,7.5822,-0.001,-17.5348,10.9997,-0.0205,-101.8793
113052,-106.1437,20.0531,-0.0111,0.0916,114.8415,-0.7915,-0.4957,7.5822,-0.001,-17.5348,10.9997,-0.0205,-101.8793
113068,-106.1437,20.0531,-0.0111,0.0916,114.8415,-0.7915,-0.4957,7.5822,-0.001,-17.5348,10.9997,-0.0205,-101.8793
113084,-106.1437,20.0531,-0.0111,0.0916,114.8415,-0.7915,-0.4957,7.5822,-0.001,-17.5348,10.9997,-0.0205,-101.8793
113100,-106.1437,20.0531,-0.0111,0.0916,114.8415,-0.7915,-0.4957,7.5822,-0.001,-17.5348,10.9997,-0.0205,-101.8793
113116,-106.1437,20.0531,-0.0111,0.0916,114.8415,-0.7915,-0.4957,7.5822,-0.001,-17.5348,10.9997,-0.0205,-101.8793
113134,-106.2413,20.7362,-0.0118,0.1552,106.6916,-0.4673,-0.3284,8.3888,-0.0026,1.9216,9.2655,-0.0188,-91.3097
113148,-106.2413,20.7362,-0.0118,0.1552,106.6916,-0.4673,-0.3284,8.3888,-0.0026,1.9216,9.2655,-0.0188,-91.3097
113164,-106.2413,20.7362,-0.0118,0.1552,106.6916,-0.4673,-0.3284,8.3888,-0.0026,1.9216,9.2655,-0.0188,-91.3097
113180,-106.2413,20.7362,-0.0118,0.1552,106.6916,-0.4673,-0.3284,8.3888,-0.0026,1.9216,9.2655,-0.0188,-91.3097
113212,-106.2838,21.4744,-0.012,0.1539,98.9448,-0.121,0.5324,8.8683,-0.0033,9.9579,5.5468,-0.0072,-89.0423
113228,-106.2838,21.4744,-0.012,0.1539,98.9448,-0.121,0.5324,8.8683,-0.0033,9.9579,5.5468,-0.0072,-89.0423
113244,-106.2838,21.4744,-0.012,0.1539,98.9448,-0.121,0.5324,8.8683,-0.0033,9.9579,5.5468,-0.0072,-89.0423
113260,-106.2838,21.4744,-0.012,0.1539,98.9448,-0.121,0.5324,8.8683,-0.0033,9.9579,5.5468,-0.0072,-89.0423
113276,-106.2838,21.4744,-0.012,0.1539,98.9448,-0.121,0.5324,8.8683,-0.0033,9.9579,5.5468,-0.0072,-89.0423
113292,-106.2838,21.4744,-0.012,0.1539,98.9448,-0.121,0.5324,8.8683,-0.0033,9.9579,5.5468,-0.0072,-89.0423
113308,-106.2758,22.2905,-0.0122,0.1385,92.4246,-0.0143,0.4246,9.3266,-0.0016,-1.1995,5.101,0.0185,-51.4696
113324,-106.2758,22.2905,-0.0122,0.1385,92.4246,-0.0143,0.4246,9.3266,-0.0016,-1.1995,5.101,0.0185,-51.4696
113340,-106.2758,22.2905,-0.0122,0.1385,92.4246,-0.0143,0.4246,9.3266,-0.0016,-1.1995,5.101,0.0185,-51.4696
113356,-106.2758,22.2905,-0.0122,0.1385,92.4246,-0.0143,0.4246,9.3266,-0.0016,-1.1995,5.101,0.0185,-51.4696
113372,-106.2758,22.2905,-0.0122,0.1385,92.4246,-0.0143,0.4246,9.3266,-0.0016,-1.1995,5.101,0.0185,-51.4696
113388,-106.2758,22.2905,-0.0122,0.1385,92.4246,-0.0143,0.4246,9.3266,-0.0016,-1.1995,5.101,0.0185,-51.4696
113404,-106.2799,23.1625,-0.0119,0.106,89.9495,-0.0816,0.0551,9.5489,0.0005,-4.0075,2.4107,0.0227,-14.5796
113420,-106.2799,23.1625,-0.0119,0.106,89.9495,-0.0816,0.0551,9.5489,0.0005,-4.0075,2.4107,0.0227,-14.5796
113436,-106.2799,23.1625,-0.0119,0.106,89.9495,-0.0816,0.0551,9.5489,0.0005,-4.0075,2.4107,0.0227,-14.5796
113452,-106.2799,23.1625,-0.0119,0.106,89.9495,-0.0816,0.0551,9.5489,0.0005,-4.0075,2.4107,0.0227,-14.5796
113468,-106.2799,23.1625,-0.0119,0.106,89.9495,-0.0816,0.0551,9.5489,0.0005,-4.0075,2.4107,0.0227,-14.5796
113484,-106.2799,23.1625,-0.0119,0.106,89.9495,-0.0816,0.0551,9.5489,0.0005,-4.0075,2.4107,0.0227,-14.5796
113500,-106.2793,24.0783,-0.0117,0.0722,89.267,-0.0561,0.0736,9.6594,0.0001,0.1943,1.16,-0.0045,-4.5237
113516,-106.2793,24.0783,-0.0117,0.0722,89.267,-0.0561,0.0736,9.6594,0.0001,0.1943,1.16,-0.0045,-4.5237
113532,-106.2793,24.0783,-0.0117,0.0722,89.267,-0.0561,0.0736,9.6594,0.0001,0.1943,1.16,-0.0045,-4.5237
113548,-106.2793,24.0783,-0.0117,0.0722,89.267,-0.0561,0.0736,9.6594,0.0001,0.1943,1.16,-0.0045,-4.5237
113564,-106.2793,24.0783,-0.0117,0.0722,89.267,-0.0561,0.0736,9.6594,0.0001,0.1943,1.16,-0.0045,-4.5237
113580,-106.2711,24.9746,-0.0115,0.0493,89.0828,-0.0252,0.1208,9.7437,-0.0001,0.5114,0.9128,-0.0022,-1.7542
113596,-106.2711,24.9746,-0.0115,0.0493,89.0828,-0.0252,0.1208,9.7437,-0.0001,0.5114,0.9128,-0.0022,-1.7542
113612,-106.2711,24.9746,-0.0115,0.0493,89.0828,-0.0252,0.1208,9.7437,-0.0001,0.5114,0.9128,-0.0022,-1.7542
113628,-106.2711,24.9746,-0.0115,0.0493,89.0828,-0.0252,0.1208,9.7437,-0.0001,0.5114,0.9128,-0.0022,-1.7542
113644,-106.2711,24.9746,-0.0115,0.0493,89.0828,-0.0252,0.1208,9.7437,-0.0001,0.5114,0.9128,-0.0022,-1.7542
113660,-106.2711,24.9746,-0.0115,0.0493,89.0828,-0.0252,0.1208,9.7437,-0.0001,0.5114,0.9128,-0.0022,-1.7542
113676,-106.2711,24.9746,-0.0115,0.0493,89.0828,-0.0252,0.1208,9.7437,-0.0001,0.5114,0.9128,-0.0022,-1.7542
113692,-106.2579,25.9314,-0.0114,0.0326,89.0278,-0.0081,0.149,9.7995,-0.0001,0.2876,0.5698,0.0005,-1.1013
113708,-106.2579,25.9314,-0.0114,0.0326,89.0278,-0.0081,0.149,9.7995,-0.0001,0.2876,0.5698,0.0005,-1.1013
113724,-106.2579,25.9314,-0.0114,0.0326,89.0278,-0.0081,0.149,9.7995,-0.0001,0.2876,0.5698,0.0005,-1.1013
113740,-106.2579,25.9314,-0.0114,0.0326,89.0278,-0.0081,0.149,9.7995,-0.0001,0.2876,0.5698,0.0005,-1.1013
113756,-106.2579,25.9314,-0.0114,0.0326,89.0278,-0.0081,0.149,9.7995,-0.0001,0.2876,0.5698,0.0005,-1.1013
113773,-106.2579,25.9314,-0.0114,0.0326,89.0278,-0.0081,0.149,9.7995,-0.0001,0.2876,0.5698,0.0005,-1.1013
113788,-106.2426,26.8952,-0.0113,0.0225,89.0121,-0.0016,0.1622,9.8533,-0.0,0.1352,0.5484,0.0008,-0.8844
113804,-106.2426,26.8952,-0.0113,0.0225,89.0121,-0.0016,0.1622,9.8533,-0.0,0.1352,0.5484,0.0008,-0.8844
113820,-106.2426,26.8952,-0.0113,0.0225,89.0121,-0.0016,0.1622,9.8533,-0.0,0.1352,0.5484,0.0008,-0.8844
113836,-106.2426,26.8952,-0.0113,0.0225,89.0121,-0.0016,0.1622,9.8533,-0.0,0.1352,0.5484,0.0008,-0.8844
113852,-106.2426,26.8952,-0.0113,0.0225,89.0121,-0.0016,0.1622,9.8533,-0.0,0.1352,0.5484,0.0008,-0.8844
113868,-106.2426,26.8952,-0.0113,0.0225,89.0121,-0.0016,0.1622,9.8533,-0.0,0.1352,0.5484,0.0008,-0.8844
113884,-106.2266,27.8488,-0.0113,0.0171,89.0078,0.0004,0.1683,9.9097,0.0,0.0623,0.5856,0.0003,-0.7794
113900,-106.2266,27.8488,-0.0113,0.0171,89.0078,0.0004,0.1683,9.9097,0.0,0.0623,0.5856,0.0003,-0.7794
113916,-106.2266,27.8488,-0.0113,0.0171,89.0078,0.0004,0.1683,9.9097,0.0,0.0623,0.5856,0.0003,-0.7794
113932,-106.2266,27.8488,-0.0113,0.0171,89.0078,0.0004,0.1683,9.9097,0.0,0.0623,0.5856,0.0003,-0.7794
113948,-106.2266,27.8488,-0.0113,0.0171,89.0078,0.0004,0.1683,9.9097,0.0,0.0623,0.5856,0.0003,-0.7794
113964,-106.2266,27.8488,-0.0113,0.0171,89.0078,0.0004,0.1683,9.9097,0.0,0.0623,0.5856,0.0003,-0.7794
113982,-106.2101,28.8245,-0.0106,0.0367,89.0116,-0.0452,0.1672,9.9696,-0.0114,-0.0108,0.6096,-0.1166,-0.6297
113996,-106.2101,28.8245,-0.0106,0.0367,89.0116,-0.0452,0.1672,9.9696,-0.0114,-0.0108,0.6096,-0.1166,-0.6297
114012,-106.2101,28.8245,-0.0106,0.0367,89.0116,-0.0452,0.1672,9.9696,-0.0114,-0.0108,0.6096,-0.1166,-0.6297
114028,-106.2101,28.8245,-0.0106,0.0367,89.0116,-0.0452,0.1672,9.9696,-0.0114,-0.0108,0.6096,-0.1166,-0.6297
114044,-106.2101,28.8245,-0.0106,0.0367,89.0116,-0.0452,0.1672,9.9696,-0.0114,-0.0108,0.6096,-0.1166,-0.6297
114060,-106.1947,29.7253,-0.011,0.0187,89.0191,-0.0112,0.1688,10.0301,-0.0037,0.0179,0.6724,0.0854,-0.5488
114076,-106.1947,29.7253,-0.011,0.0187,89.0191,-0.0112,0.1688,10.0301,-0.0037,0.0179,0.6724,0.0854,-0.5488
114092,-106.1947,29.7253,-0.011,0.0187,89.0191,-0.0112,0.1688,10.0301,-0.0037,0.0179,0.6724,0.0854,-0.5488
114108,-106.1947,29.7253,-0.011,0.0187,89.0191,-0.0112,0.1688,10.0301,-0.0037,0.0179,0.6724,0.0854,-0.5488
114124,-106.1947,29.7253,-0.011,0.0187,89.0191,-0.0112,0.1688,10.0301,-0.0037,0.0179,0.6724,0.0854,-0.5488
114140,-106.1947,29.7253,-0.011,0.0187,89.0191,-0.0112,0.1688,10.0301,-0.0037,0.0179,0.6724,0.0854,-0.5488
114158,-106.179,30.661,-0.0108,-0.0068,89.0202,-0.0333,0.1704,10.0804,0.0242,0.017,0.5405,0.2998,-0.7128
114172,-106.179,30.661,-0.0108,-0.0068,89.0202,-0.0333,0.1704,10.0804,0.0242,0.017,0.5405,0.2998,-0.7128
114188,-106.179,30.661,-0.0108,-0.0068,89.0202,-0.0333,0.1704,10.0804,0.0242,0.017,0.5405,0.2998,-0.7128
114204,-106.179,30.661,-0.0108,-0.0068,89.0202,-0.0333,0.1704,10.0804,0.0242,0.017,0.5405,0.2998,-0.7128
114220,-106.179,30.661,-0.0108,-0.0068,89.0202,-0.0333,0.1704,10.0804,0.0242,0.017,0.5405,0.2998,-0.7128
114236,-106.179,30.661,-0.0108,-0.0068,89.0202,-0.0333,0.1704,10.0804,0.0242,0.017,0.5405,0.2998,-0.7128
114252,-106.1624,31.6262,-0.0108,-0.0046,89.014,-0.015,0.1718,10.1291,-0.0055,0.0148,0.5096,-0.3107,-0.6835
114268,-106.1624,31.6262,-0.0108,-0.0046,89.014,-0.015,0.1718,10.1291,-0.0055,0.0148,0.5096,-0.3107,-0.6835
114284,-106.1624,31.6262,-0.0108,-0.0046,89.014,-0.015,0.1718,10.1291,-0.0055,0.0148,0.5096,-0.3107,-0.6835
114300,-106.1624,31.6262,-0.0108,-0.0046,89.014,-0.015,0.1718,10.1291,-0.0055,0.0148,0.5096,-0.3107,-0.6835
114316,-106.1624,31.6262,-0.0108,-0.0046,89.014,-0.015,0.1718,10.1291,-0.0055,0.0148,0.5096,-0.3107,-0.6835
114332,-106.1624,31.6262,-0.0108,-0.0046,89.014,-0.015,0.1718,10.1291,-0.0055,0.0148,0.5096,-0.3107,-0.6835
114348,-106.1461,32.5767,-0.0111,0.0079,89.0148,-0.0037,0.1733,10.1746,-0.0014,0.0158,0.4867,0.0433,-0.6401
114364,-106.1461,32.5767,-0.0111,0.0079,89.0148,-0.0037,0.1733,10.1746,-0.0014,0.0158,0.4867,0.0433,-0.6401
114380,-106.1461,32.5767,-0.0111,0.0079,89.0148,-0.0037,0.1733,10.1746,-0.0014,0.0158,0.4867,0.0433,-0.6401
