timestamp,x,y,z,pitch,yaw,roll,vx,vy,vz,ax,ay,az,yaw_rate
29883,-106.6867,-4.8475,0.473,0.0,-89.3578,0.0,0.0,0.0,-1.5308,0.0,0.0,-9.8,0.0
29899,-106.6867,-4.8475,0.4536,0.0,-89.3578,0.0,0.0,0.0,-1.6484,0.0,0.0,-9.8,0.0
29915,-106.6867,-4.8475,0.4536,0.0,-89.3578,0.0,0.0,0.0,-1.6484,0.0,0.0,-9.8,0.0
29931,-106.6867,-4.8475,0.4536,0.0,-89.3578,0.0,0.0,0.0,-1.6484,0.0,0.0,-9.8,0.0
29949,-106.6867,-4.8475,0.3753,0.0,-89.3578,0.0,0.0,0.0,-2.0542,0.0,0.0,-9.8,0.0
29963,-106.6867,-4.8475,0.3211,0.0,-89.3578,0.0,0.0,0.0,-2.2941,0.0,0.0,-9.8,0.0
29979,-106.6867,-4.8475,0.3211,0.0,-89.3578,0.0,0.0,0.0,-2.2941,0.0,0.0,-9.8,0.0
29995,-106.6867,-4.8475,0.2661,0.0,-89.3578,0.0,0.0,0.0,-2.515,0.0,0.0,-9.8,0.0
30012,-106.6867,-4.8475,0.2106,0.0,-89.3578,0.0,0.0,0.0,-2.7201,0.0,0.0,-9.8,0.0
30029,-106.6867,-4.8475,0.1485,0.0,-89.3578,0.0,0.0,0.0,-2.9326,0.0,0.0,-9.8,0.0
30043,-106.6867,-4.8475,0.1485,0.0,-89.3578,0.0,0.0,0.0,-2.9326,0.0,0.0,-9.8,0.0
30059,-106.6867,-4.8475,0.0842,0.0,-89.3578,0.0,0.0,0.0,-3.1379,0.0,0.0,-9.8,0.0
30077,-106.6867,-4.8466,0.0191,-0.0011,-89.3578,0.0,0.0002,-0.0209,-2.5411,0.0103,-0.9237,26.4033,0.0
30091,-106.6868,-4.8453,-0.024,-0.0027,-89.3578,0.0,-0.0012,0.1042,-1.7033,-0.0638,5.6935,38.1325,0.0
30107,-106.6868,-4.8453,-0.024,-0.0027,-89.3578,0.0,-0.0012,0.1042,-1.7033,-0.0638,5.6935,38.1325,0.0
30123,-106.6868,-4.8449,-0.0523,-0.0018,-89.3578,0.0,0.0002,-0.0138,-1.0887,0.0599,-5.3453,27.8409,0.0001
30140,-106.6868,-4.8419,-0.0694,-0.0053,-89.3578,0.0,-0.0017,0.1473,-0.6458,-0.0824,7.339,20.1757,0.0006
30155,-106.6868,-4.8419,-0.0694,-0.0053,-89.3578,0.0,-0.0017,0.1473,-0.6458,-0.0824,7.339,20.1757,0.0006
30171,-106.6868,-4.8383,-0.0787,-0.0081,-89.3578,0.0,-0.0019,0.1733,-0.334,-0.0135,1.206,14.4468,-0.0031
30188,-106.6869,-4.8312,-0.0827,-0.0141,-89.3572,0.0,-0.0037,0.3234,-0.1004,-0.0732,6.3847,9.9332,0.0239
30203,-106.6869,-4.8226,-0.0825,-0.0193,-89.371,0.0001,-0.0053,0.4536,0.0504,-0.0741,5.7547,6.6682,-0.0659
30219,-106.6869,-4.8226,-0.0825,-0.0193,-89.371,0.0001,-0.0053,0.4536,0.0504,-0.0741,5.7547,6.6682,-0.0659
30235,-106.6871,-4.8109,-0.0799,-0.0263,-89.3714,0.0,-0.007,0.5829,0.1447,-0.0756,5.9177,4.3163,-0.5828
30253,-106.6873,-4.7969,-0.076,-0.0334,-89.3599,0.0001,-0.0088,0.7053,0.2004,-0.0887,5.867,2.6705,0.2822
30267,-106.6875,-4.7795,-0.0711,-0.0407,-89.3555,0.0001,-0.0097,0.8435,0.2328,-0.038,6.3486,1.4877,0.31
30283,-106.6875,-4.7795,-0.0711,-0.0407,-89.3555,0.0001,-0.0097,0.8435,0.2328,-0.038,6.3486,1.4877,0.31
30299,-106.6878,-4.7583,-0.0653,-0.0465,-89.3521,0.0001,-0.0109,0.9172,0.247,-0.0519,3.1022,0.599,0.0165
30316,-106.6881,-4.7357,-0.0596,-0.0517,-89.3522,0.0001,-0.0122,1.0221,0.2735,-0.0602,4.7528,1.1987,-0.5855
30333,-106.6881,-4.7357,-0.0596,-0.0517,-89.3522,0.0001,-0.0122,1.0221,0.2735,-0.0602,4.7528,1.1987,-0.5855
30347,-106.6883,-4.7116,-0.0538,-0.0553,-89.3472,-0.0001,-0.0083,1.0758,0.2546,0.1805,2.4437,-0.8581,-1.9706
30366,-106.6887,-4.6869,-0.0485,-0.0553,-89.3265,-0.0005,-0.0081,1.1348,0.2332,0.0057,2.6765,-0.973,2.3889
30379,-106.6887,-4.6636,-0.0439,-0.0526,-89.3425,-0.0009,-0.005,1.0875,0.2105,0.1477,-2.2286,-1.0699,-2.4199
30395,-106.6887,-4.6636,-0.0439,-0.0526,-89.3425,-0.0009,-0.005,1.0875,0.2105,0.1477,-2.2286,-1.0699,-2.4199
30411,-106.6887,-4.638,-0.0397,-0.0518,-89.3531,-0.0013,-0.0054,1.1906,0.1893,-0.0186,4.8182,-0.9908,0.6336
30429,-106.6888,-4.6122,-0.0361,-0.0508,-89.3785,-0.0006,-0.0159,1.2713,0.1686,-0.5071,3.888,-0.9944,-2.3259
30444,-106.6893,-4.5846,-0.0326,-0.0475,-89.3582,0.0003,-0.0186,1.2181,0.1498,-0.118,-2.3806,-0.8421,2.4392
30459,-106.6893,-4.5846,-0.0326,-0.0475,-89.3582,0.0003,-0.0186,1.2181,0.1498,-0.118,-2.3806,-0.8421,2.4392
30477,-106.6899,-4.5535,-0.0294,-0.0472,-89.3439,0.0012,-0.0211,1.3212,0.1307,-0.1071,4.4489,-0.8234,-1.294
30493,-106.6906,-4.5195,-0.0265,-0.046,-89.3138,0.0009,-0.0161,1.434,0.1126,0.2023,4.5905,-0.7367,1.8408
30507,-106.6906,-4.5195,-0.0265,-0.046,-89.3138,0.0009,-0.0161,1.434,0.1126,0.2023,4.5905,-0.7367,1.8408
30525,-106.6906,-4.4856,-0.024,-0.0382,-89.3333,-0.0273,-0.0189,1.5717,0.1036,-0.1216,6.039,-0.3924,-0.6197
30541,-106.6908,-4.4514,-0.0221,-0.0361,-89.3566,-0.0355,-0.0161,1.5306,0.0873,0.1266,-1.912,-0.7588,-1.1727
30555,-106.6908,-4.4514,-0.0221,-0.0361,-89.3566,-0.0355,-0.0161,1.5306,0.0873,0.1266,-1.912,-0.7588,-1.1727
30571,-106.6911,-4.414,-0.0203,-0.037,-89.3711,-0.0374,-0.02,1.7483,0.0741,-0.1735,9.8187,-0.5982,0.7877
30588,-106.6916,-4.3705,-0.0187,-0.0406,-89.3687,-0.036,-0.0186,1.7938,0.0622,0.0594,1.9176,-0.4975,-0.2563
30604,-106.6919,-4.3305,-0.0176,-0.0428,-89.3829,-0.0338,-0.0201,1.9666,0.0521,-0.0712,8.1695,-0.4819,0.0065
30619,-106.6919,-4.3305,-0.0176,-0.0428,-89.3829,-0.0338,-0.0201,1.9666,0.0521,-0.0712,8.1695,-0.4819,0.0065
30635,-106.6923,-4.2893,-0.0165,-0.0432,-89.3851,-0.0309,-0.0193,1.904,0.0443,0.0344,-2.9198,-0.3597,-0.0068
30653,-106.6929,-4.2444,-0.0156,-0.0446,-89.3726,-0.0278,-0.0211,2.095,0.0376,-0.0793,8.5723,-0.302,-0.0794
30667,-106.6934,-4.2006,-0.0149,-0.0451,-89.3698,-0.0249,-0.0214,2.0573,0.0318,-0.0154,-1.7811,-0.2749,-0.382
30683,-106.6934,-4.2006,-0.0149,-0.0451,-89.3698,-0.0249,-0.0214,2.0573,0.0318,-0.0154,-1.7811,-0.2749,-0.382
30699,-106.6939,-4.1524,-0.0143,-0.0487,-89.368,-0.0221,-0.0238,2.2783,0.0271,-0.1105,10.1786,-0.2178,1.3108
30715,-106.6943,-4.1016,-0.0137,-0.0495,-89.3908,-0.0196,-0.0225,2.2762,0.0229,0.0595,-0.0938,-0.184,-0.6108
30732,-106.6947,-4.0494,-0.0133,-0.052,-89.4119,-0.0176,-0.0227,2.4454,0.0193,-0.008,7.7065,-0.1646,0.2508
30747,-106.6947,-4.0494,-0.0133,-0.052,-89.4119,-0.0176,-0.0227,2.4454,0.0193,-0.008,7.7065,-0.1646,0.2508
30763,-106.695,-3.997,-0.0129,-0.0536,-89.4333,-0.0159,-0.0226,2.4982,0.0164,0.0008,2.4699,-0.137,-1.2799
30779,-106.6955,-3.9408,-0.0125,-0.0573,-89.4363,-0.0142,-0.026,2.6656,0.0139,-0.1579,7.7563,-0.1132,-1.2502
30795,-106.6955,-3.9408,-0.0125,-0.0573,-89.4363,-0.0142,-0.026,2.6656,0.0139,-0.1579,7.7563,-0.1132,-1.2502
30811,-106.6962,-3.8828,-0.0123,-0.0588,-89.4217,-0.0124,-0.0273,2.6837,0.0118,-0.0554,0.8293,-0.0966,0.8317
30828,-106.6969,-3.8206,-0.012,-0.0616,-89.4164,-0.0108,-0.0293,2.8794,0.01,-0.0923,8.7954,-0.0812,0.8153
30845,-106.6978,-3.76,-0.0118,-0.0642,-89.3885,-0.0094,-0.0315,2.9329,0.0085,-0.1054,2.5761,-0.0739,1.6589
30859,-106.6978,-3.76,-0.0118,-0.0642,-89.3885,-0.0094,-0.0315,2.9329,0.0085,-0.1054,2.5761,-0.0739,1.6589
30875,-106.6986,-3.6919,-0.0116,-0.0676,-89.3801,-0.008,-0.0337,3.1092,0.0072,-0.0981,7.9007,-0.0556,1.7823
30893,-106.6994,-3.6257,-0.0114,-0.0691,-89.3732,-0.0068,-0.0355,3.1494,0.0061,-0.0865,1.9043,-0.0527,-0.2944
30907,-106.7003,-3.5564,-0.0113,-0.0721,-89.356,-0.0058,-0.039,3.3484,0.0052,-0.1672,9.4201,-0.0426,-0.5723
30923,-106.7003,-3.5564,-0.0113,-0.0721,-89.356,-0.0058,-0.039,3.3484,0.0052,-0.1672,9.4201,-0.0426,-0.5723
30939,-106.7013,-3.4835,-0.0112,-0.0742,-89.3415,-0.005,-0.0392,3.4052,0.0045,-0.0081,2.6426,-0.0357,1.4616
30957,-106.7021,-3.4026,-0.0111,-0.0773,-89.3489,-0.0043,-0.0407,3.6088,0.0038,-0.0664,8.9075,-0.0298,1.0443
30971,-106.703,-3.3227,-0.011,-0.0791,-89.3542,-0.0038,-0.0424,3.6798,0.0032,-0.0762,3.2451,-0.0271,-1.6963
30987,-106.703,-3.3227,-0.011,-0.0791,-89.3542,-0.0038,-0.0424,3.6798,0.0032,-0.0762,3.2451,-0.0271,-1.6963
31005,-106.7041,-3.2383,-0.0109,-0.0825,-89.3415,-0.0033,-0.0454,3.8902,0.0027,-0.1338,9.5293,-0.0218,-0.8605
31019,-106.7051,-3.1503,-0.0108,-0.0851,-89.3357,-0.0029,-0.0456,3.9831,0.0023,-0.0117,4.1751,-0.0186,1.3892
31035,-106.706,-3.0638,-0.0108,-0.0887,-89.3473,-0.0027,-0.0474,4.1988,0.0019,-0.087,10.2882,-0.0173,0.7229
31051,-106.706,-3.0638,-0.0108,-0.0887,-89.3473,-0.0027,-0.0474,4.1988,0.0019,-0.087,10.2882,-0.0173,0.7229
31068,-106.7071,-2.9702,-0.0107,-0.0924,-89.3537,-0.0024,-0.049,4.3288,0.0017,-0.0733,5.9701,-0.0127,-0.9741
31085,-106.7082,-2.8756,-0.0106,-0.0966,-89.347,-0.0021,-0.0521,4.547,0.0014,-0.145,10.3215,-0.0112,-0.8248
31099,-106.7093,-2.778,-0.0106,-0.0999,-89.3433,-0.0019,-0.0533,4.6692,0.0012,-0.0571,5.7922,-0.0097,0.7473
31115,-106.7093,-2.778,-0.0106,-0.0999,-89.3433,-0.0019,-0.0533,4.6692,0.0012,-0.0571,5.7922,-0.0097,0.7473
31134,-106.7104,-2.6764,-0.0105,-0.1041,-89.3486,-0.0017,-0.0554,4.8994,0.001,-0.0999,10.928,-0.0086,0.6651
31148,-106.7116,-2.5689,-0.0105,-0.1075,-89.3535,-0.0015,-0.0568,5.03,0.0009,-0.0661,6.0671,-0.007,-0.4808
31163,-106.7116,-2.5689,-0.0105,-0.1075,-89.3535,-0.0015,-0.0568,5.03,0.0009,-0.0661,6.0671,-0.007,-0.4808
31179,-106.7129,-2.4598,-0.0104,-0.111,-89.3506,-0.0013,-0.0598,5.2473,0.0008,-0.1387,10.3079,-0.0063,-0.6819
31197,-106.7142,-2.3442,-0.0104,-0.1135,-89.3462,-0.0012,-0.0612,5.3756,0.0006,-0.0664,5.9199,-0.0052,0.3144
31212,-106.7156,-2.2238,-0.0104,-0.1159,-89.3482,-0.0011,-0.0631,5.582,0.0006,-0.0887,9.4549,-0.004,0.6745
31227,-106.7156,-2.2238,-0.0104,-0.1159,-89.3482,-0.0011,-0.0631,5.582,0.0006,-0.0887,9.4549,-0.004,0.6745
31243,-106.717,-2.0962,-0.0104,-0.1166,-89.3538,-0.001,-0.0643,5.6884,0.0005,-0.0524,4.7136,-0.004,-0.3442
31261,-106.7185,-1.9693,-0.0103,-0.1173,-89.3511,-0.0009,-0.067,5.8858,0.0004,-0.1207,9.0545,-0.0036,-0.6411
31275,-106.7199,-1.8424,-0.0103,-0.1175,-89.3487,-0.0007,-0.0683,6.0135,0.0003,-0.064,6.006,-0.0032,0.1407
31291,-106.7199,-1.8424,-0.0103,-0.1175,-89.3487,-0.0007,-0.0683,6.0135,0.0003,-0.064,6.006,-0.0032,0.1407
31309,-106.7216,-1.6969,-0.0103,-0.1186,-89.3502,-0.0007,-0.0704,6.2223,0.0003,-0.09,8.835,-0.0015,0.3003
31325,-106.7232,-1.5524,-0.0103,-0.1175,-89.3537,-0.0006,-0.0714,6.3144,0.0002,-0.0413,4.005,-0.0026,-0.2101
31339,-106.7232,-1.5524,-0.0103,-0.1175,-89.3537,-0.0006,-0.0714,6.3144,0.0002,-0.0413,4.005,-0.0026,-0.2101
31355,-106.7247,-1.4146,-0.0103,-0.1169,-89.3519,-0.0005,-0.0737,6.4978,0.0002,-0.1072,8.5621,-0.0006,-0.3732
31372,-106.7264,-1.2674,-0.0103,-0.1166,-89.351,-0.0005,-0.0752,6.6422,0.0002,-0.0683,6.4716,-0.0017,0.0261
31387,-106.7281,-1.1152,-0.0103,-0.1171,-89.3514,-0.0004,-0.0774,6.8353,0.0001,-0.096,8.5892,-0.0008,0.0115
31403,-106.7281,-1.1152,-0.0103,-0.1171,-89.3514,-0.0004,-0.0774,6.8353,0.0001,-0.096,8.5892,-0.0008,0.0115
31421,-106.73,-0.9533,-0.0103,-0.1171,-89.3514,-0.0004,-0.0789,6.9735,0.0001,-0.067,5.9129,-0.0013,-0.0002
31437,-106.7317,-0.7967,-0.0103,-0.117,-89.3514,-0.0003,-0.0809,7.1451,0.0001,-0.0879,7.7684,-0.0007,-0.0005
31451,-106.7317,-0.7967,-0.0103,-0.117,-89.3514,-0.0003,-0.0809,7.1451,0.0001,-0.0879,7.7684,-0.0007,-0.0005
31467,-106.7336,-0.631,-0.0103,-0.1164,-89.3514,-0.0003,-0.0824,7.278,0.0001,-0.0657,5.8044,-0.0007,-0.0
31485,-106.7355,-0.461,-0.0103,-0.1159,-89.3514,-0.0002,-0.0843,7.4473,0.0001,-0.0833,7.361,-0.0006,-0.0001
31499,-106.7373,-0.2996,-0.0103,-0.115,-89.3514,-0.0002,-0.0857,7.5711,0.0001,-0.0654,5.7697,-0.0005,-0.0001
31515,-106.7373,-0.2996,-0.0103,-0.115,-89.3514,-0.0002,-0.0857,7.5711,0.0001,-0.0654,5.7697,-0.0005,-0.0001
31533,-106.7392,-0.1318,-0.0103,-0.1144,-89.3514,-0.0002,-0.0875,7.7282,0.0001,-0.0814,7.1909,-0.0004,-0.0
31547,-106.7413,0.0511,-0.0103,-0.1135,-89.3514,-0.0002,-0.0891,7.8672,0.0,-0.0673,5.9403,-0.0006,-0.0002
31563,-106.7413,0.0511,-0.0103,-0.1135,-89.3514,-0.0002,-0.0891,7.8672,0.0,-0.0673,5.9403,-0.0006,-0.0002
31579,-106.7433,0.2311,-0.0103,-0.1126,-89.3514,-0.0002,-0.0908,8.0187,0.0,-0.0759,6.7081,-0.0003,0.0001
31596,-106.7454,0.4098,-0.0103,-0.1115,-89.3514,-0.0002,-0.0922,8.146,0.0,-0.0655,5.7743,-0.0005,-0.0002
31611,-106.7473,0.584,-0.0103,-0.1106,-89.3514,-0.0002,-0.0937,8.2812,0.0,-0.0724,6.3928,-0.0002,0.0
31627,-106.7473,0.584,-0.0103,-0.1106,-89.3514,-0.0002,-0.0937,8.2812,0.0,-0.0724,6.3928,-0.0002,0.0
31644,-106.7496,0.7871,-0.0104,-0.1093,-89.3514,-0.0001,-0.0953,8.4223,0.0,-0.0658,5.8168,0.0001,0.0
31660,-106.7517,0.9676,-0.0104,-0.1082,-89.3514,-0.0001,-0.0968,8.55,0.0,-0.0682,6.0187,0.0005,-0.0001
31675,-106.7517,0.9676,-0.0104,-0.1082,-89.3514,-0.0001,-0.0968,8.55,0.0,-0.0682,6.0187,0.0005,-0.0001
31691,-106.7538,1.1524,-0.0104,-0.107,-89.3514,-0.0001,-0.0982,8.6717,0.0,-0.0644,5.6819,-0.0002,-0.0
31708,-106.7559,1.3427,-0.0104,-0.1057,-89.3514,-0.0001,-0.0996,8.7953,0.0,-0.0644,5.6875,-0.0002,-0.0
31725,-106.7581,1.5315,-0.0104,-0.1044,-89.3514,-0.0001,-0.1009,8.9127,0.0,-0.0625,5.52,0.0001,0.0
31740,-106.7581,1.5315,-0.0104,-0.1044,-89.3514,-0.0001,-0.1009,8.9127,0.0,-0.0625,5.52,0.0001,0.0
31755,-106.7604,1.7359,-0.0104,-0.1029,-89.3514,-0.0001,-0.1023,9.0365,0.0,-0.0617,5.4456,-0.0001,-0.0
31773,-106.7628,1.9486,-0.0104,-0.1013,-89.3514,-0.0,-0.1037,9.1608,0.0,-0.0603,5.3285,-0.0003,0.0
31787,-106.7628,1.9486,-0.0104,-0.1013,-89.3514,-0.0,-0.1037,9.1608,0.0,-0.0603,5.3285,-0.0003,0.0
31803,-106.7651,2.1498,-0.0104,-0.0999,-89.3514,-0.0,-0.105,9.275,0.0,-0.0593,5.2428,-0.0,-0.0
31820,-106.7675,2.3644,-0.0104,-0.0984,-89.3514,-0.0001,-0.1063,9.3931,0.0,-0.0585,5.1489,0.0003,-0.0
31837,-106.77,2.5846,-0.0104,-0.0968,-89.3514,-0.0,-0.1077,9.5109,0.0,-0.0573,5.0633,-0.0002,-0.0
31851,-106.77,2.5846,-0.0104,-0.0968,-89.3514,-0.0,-0.1077,9.5109,0.0,-0.0573,5.0633,-0.0002,-0.0
31867,-106.7725,2.8033,-0.0105,-0.0952,-89.3514,-0.0,-0.109,9.6244,0.0,-0.0563,4.9772,-0.0002,-0.0
31885,-106.7751,3.0324,-0.0105,-0.0937,-89.3514,0.0,-0.1103,9.74,0.0,-0.0554,4.8962,0.0003,-0.0
31899,-106.7751,3.0324,-0.0105,-0.0937,-89.3514,0.0,-0.1103,9.74,0.0,-0.0554,4.8962,0.0003,-0.0
31915,-106.7775,3.2477,-0.0105,-0.0923,-89.3514,-0.0,-0.1115,9.8457,0.0,-0.0546,4.8172,-0.0002,-0.0
31931,-106.78,3.467,-0.0105,-0.0909,-89.3514,-0.0,-0.1126,9.9507,0.0,-0.0537,4.7443,-0.0003,-0.0
31948,-106.7824,3.6834,-0.0105,-0.0895,-89.3514,-0.0,-0.1138,10.0516,0.0,-0.0529,4.6731,0.0001,-0.0
31963,-106.7824,3.6834,-0.0105,-0.0895,-89.3514,-0.0,-0.1138,10.0516,0.0,-0.0529,4.6731,0.0001,-0.0
31979,-106.7849,3.9017,-0.0105,-0.0882,-89.3514,-0.0,-0.1149,10.151,0.0,-0.0521,4.6047,0.0,-0.0
31997,-106.7874,4.1228,-0.0105,-0.0869,-89.3514,-0.0,-0.116,10.2492,0.0,-0.0514,4.5378,-0.0001,-0.0
32011,-106.7901,4.3602,-0.0105,-0.0855,-89.3514,0.0,-0.1172,10.352,-0.0,-0.0507,4.4702,-0.0006,-0.0
32027,-106.7901,4.3602,-0.0105,-0.0855,-89.3514,0.0,-0.1172,10.352,-0.0,-0.0507,4.4702,-0.0006,-0.0
32044,-106.7927,4.5923,-0.0105,-0.0842,-89.3514,-0.0,-0.1183,10.4501,-0.0,-0.0498,4.4023,-0.0003,-0.0
32059,-106.7953,4.8256,-0.0105,-0.0829,-89.3514,0.0,-0.1194,10.5464,0.0,-0.0491,4.3376,0.0011,-0.0
32075,-106.7953,4.8256,-0.0105,-0.0829,-89.3514,0.0,-0.1194,10.5464,0.0,-0.0491,4.3376,0.0011,-0.0
32091,-106.798,5.0569,-0.0106,-0.0817,-89.3514,0.0,-0.1204,10.6396,-0.0,-0.0484,4.2743,-0.0003,-0.0
32107,-106.8007,5.3012,-0.0106,-0.0805,-89.3514,0.0,-0.1215,10.7357,0.0,-0.0477,4.2115,0.0003,-0.0
32123,-106.8033,5.5299,-0.0106,-0.0793,-89.3514,0.0,-0.1225,10.8236,0.0,-0.047,4.1501,-0.0001,-0.0
32139,-106.8033,5.5299,-0.0106,-0.0793,-89.3514,0.0,-0.1225,10.8236,0.0,-0.047,4.1501,-0.0001,-0.0
32155,-106.806,5.7642,-0.0106,-0.0782,-89.3514,0.0,-0.1235,10.9117,0.0,-0.0463,4.092,-0.0,-0.0
32172,-106.8086,5.9936,-0.0106,-0.0772,-89.3514,0.0,-0.1245,10.9961,0.0,-0.0457,4.0347,0.0003,-0.0
32187,-106.8112,6.2297,-0.0106,-0.076,-89.3514,0.0,-0.1254,11.0811,-0.0,-0.045,3.979,-0.0004,-0.0
32203,-106.8112,6.2297,-0.0106,-0.076,-89.3514,0.0,-0.1254,11.0811,-0.0,-0.045,3.979,-0.0004,-0.0
32219,-106.814,6.4787,-0.0106,-0.075,-89.3514,0.0,-0.1264,11.1688,-0.0,-0.0443,3.922,-0.0005,-0.0
32237,-106.8169,6.7318,-0.0106,-0.0738,-89.3514,0.0,-0.1274,11.2559,-0.0,-0.0437,3.8643,0.0004,-0.0
32251,-106.8169,6.7318,-0.0106,-0.0738,-89.3514,0.0,-0.1274,11.2559,-0.0,-0.0437,3.8643,0.0004,-0.0
32267,-106.8196,6.9734,-0.0106,-0.0728,-89.3514,0.0,-0.1283,11.3373,0.0,-0.0432,3.8087,0.0006,-0.0
32285,-106.8226,7.2324,-0.0106,-0.0718,-89.3514,-0.0,-0.1293,11.4226,0.0,-0.0425,3.7541,-0.0003,-0.0
32299,-106.8257,7.5038,-0.0106,-0.0707,-89.3514,0.0,-0.1303,11.51,0.0,-0.0419,3.6972,0.0002,-0.0
32315,-106.8257,7.5038,-0.0106,-0.0707,-89.3514,0.0,-0.1303,11.51,0.0,-0.0419,3.6972,0.0002,-0.0
32333,-106.8286,7.7654,-0.0106,-0.0696,-89.3514,-0.0,-0.1312,11.5924,0.0,-0.0412,3.6411,-0.0001,-0.0
32349,-106.8316,8.0303,-0.0107,-0.0686,-89.3514,0.0,-0.1322,11.674,0.0,-0.0406,3.5872,-0.0001,-0.0
32363,-106.8316,8.0303,-0.0107,-0.0686,-89.3514,0.0,-0.1322,11.674,0.0,-0.0406,3.5872,-0.0001,-0.0
32379,-106.8345,8.2854,-0.0107,-0.0677,-89.3514,0.0,-0.133,11.7509,-0.0,-0.0401,3.5349,-0.0003,-0.0
32397,-106.8374,8.5426,-0.0107,-0.0667,-89.3514,0.0,-0.1339,11.8268,-0.0,-0.0393,3.4847,-0.0003,0.0
32411,-106.8406,8.8241,-0.0107,-0.0657,-89.3514,0.0,-0.1348,11.9082,0.0,-0.0389,3.4332,0.0007,-0.0
32427,-106.8406,8.8241,-0.0107,-0.0657,-89.3514,0.0,-0.1348,11.9082,0.0,-0.0389,3.4332,0.0007,-0.0
32444,-106.8436,9.0864,-0.0107,-0.0648,-89.3514,0.0,-0.1356,11.9823,0.0,-0.0383,3.3816,0.0003,-0.0
32461,-106.8464,9.3404,-0.0107,-0.0639,-89.3514,0.0,-0.1364,12.0527,0.0,-0.0378,3.334,-0.0002,-0.0
32475,-106.8464,9.3404,-0.0107,-0.0639,-89.3514,0.0,-0.1364,12.0527,0.0,-0.0378,3.334,-0.0002,-0.0
32491,-106.8494,9.6043,-0.0107,-0.063,-89.3514,0.0,-0.1373,12.1244,0.0,-0.0372,3.2874,-0.0001,-0.0
32507,-106.8524,9.8714,-0.0107,-0.0622,-89.3514,-0.0,-0.1381,12.1955,0.0,-0.0367,3.2404,0.0,-0.0
32525,-106.8554,10.1289,-0.0107,-0.0613,-89.3514,0.0,-0.1388,12.2627,-0.0,-0.0361,3.1946,-0.0004,-0.0
32539,-106.8554,10.1289,-0.0107,-0.0613,-89.3514,0.0,-0.1388,12.2627,-0.0,-0.0361,3.1946,-0.0004,-0.0
32555,-106.8585,10.4036,-0.0107,-0.0605,-89.3514,0.0,-0.1396,12.333,-0.0,-0.0356,3.1497,-0.0002,-0.0
32573,-106.8617,10.6868,-0.0107,-0.0596,-89.3514,0.0,-0.1404,12.404,0.0,-0.0351,3.1032,0.0005,-0.0
32587,-106.8646,10.9442,-0.0107,-0.0588,-89.3514,0.0,-0.1411,12.4673,-0.0,-0.0346,3.0587,-0.0004,-0.0
32603,-106.8646,10.9442,-0.0107,-0.0588,-89.3514,0.0,-0.1411,12.4673,-0.0,-0.0346,3.0587,-0.0004,-0.0
32619,-106.8676,11.2084,-0.0107,-0.058,-89.3514,0.0,-0.1419,12.531,-0.0,-0.0341,3.017,-0.0002,-0.0
32637,-106.8706,11.4772,-0.0107,-0.0573,-89.3514,0.0,-0.1426,12.5946,0.0,-0.0337,2.9751,0.0005,-0.0
32651,-106.8737,11.7468,-0.0107,-0.0565,-89.3514,0.0,-0.1433,12.6561,0.0,-0.0326,2.881,0.0003,-0.0
32667,-106.8737,11.7468,-0.0107,-0.0565,-89.3514,0.0,-0.1433,12.6561,0.0,-0.0326,2.881,0.0003,-0.0
32683,-106.8768,12.0246,-0.0107,-0.0555,-89.3514,0.0,-0.1439,12.7141,0.0,-0.03,2.6537,-0.0001,-0.0
32701,-106.88,12.3059,-0.0108,-0.0544,-89.3514,0.0,-0.1445,12.7678,0.0,-0.0276,2.4344,-0.0001,-0.0
32715,-106.88,12.3059,-0.0108,-0.0544,-89.3514,0.0,-0.1445,12.7678,0.0,-0.0276,2.4344,-0.0001,-0.0
32731,-106.8836,12.6244,-0.0108,-0.0529,-89.3514,0.0,-0.1452,12.8233,-0.0,-0.0252,2.2289,-0.0004,-0.0
32748,-106.8868,12.9083,-0.0108,-0.0513,-89.3514,0.0,-0.1457,12.868,-0.0,-0.0229,2.0233,0.0,-0.0
32763,-106.89,13.1881,-0.0108,-0.0496,-89.3514,0.0,-0.1461,12.9081,-0.0,-0.021,1.8508,-0.0003,-0.0
32779,-106.89,13.1881,-0.0108,-0.0496,-89.3514,0.0,-0.1461,12.9081,-0.0,-0.021,1.8508,-0.0003,-0.0
32795,-106.8931,13.463,-0.0108,-0.0478,-89.3514,0.0,-0.1465,12.9442,-0.0,-0.0192,1.697,0.0003,-0.0
32811,-106.8962,13.7382,-0.0108,-0.0459,-89.3514,0.0,-0.1469,12.9773,0.0,-0.0177,1.5585,0.0005,-0.0
32827,-106.8994,14.0168,-0.0108,-0.0439,-89.3514,0.0,-0.1473,13.008,0.0,-0.0162,1.432,-0.0001,-0.0
32843,-106.8994,14.0168,-0.0108,-0.0439,-89.3514,0.0,-0.1473,13.008,0.0,-0.0162,1.432,-0.0001,-0.0
32859,-106.9026,14.299,-0.0108,-0.0418,-89.3514,0.0,-0.1476,13.0365,-0.0,-0.0149,1.3146,-0.0005,-0.0
32877,-106.9057,14.5809,-0.0109,-0.0398,-89.3514,0.0,-0.1479,13.0625,-0.0,-0.0137,1.2055,0.0002,-0.0
32907,-106.9089,14.8551,-0.0109,-0.0378,-89.3514,-0.0,-0.1481,13.0856,0.0,-0.0126,1.1039,0.0006,-0.0
32923,-106.9128,15.1375,-0.0109,-0.0357,-89.3839,0.0056,-0.2227,13.102,0.0,-3.4574,0.7587,0.0005,-2.5503
32941,-106.9188,15.422,-0.0109,-0.0331,-89.5095,0.0227,-0.3676,13.1028,0.0002,-6.675,0.0377,0.0076,-7.5886
32957,-106.9283,15.7183,-0.0109,-0.0297,-89.7862,0.0516,-0.5651,13.0858,0.0005,-8.7259,-0.7542,0.0124,-14.6912
32971,-106.9283,15.7183,-0.0109,-0.0297,-89.7862,0.0516,-0.5651,13.0858,0.0005,-8.7259,-0.7542,0.0124,-14.6912
32989,-106.9406,16.0016,-0.0109,-0.0254,-90.2201,0.0856,-0.7779,13.0537,0.0007,-9.8136,-1.4801,0.0132,-22.7635
33005,-106.9575,16.3004,-0.011,-0.0198,-90.8894,0.1252,-1.016,13.0045,0.001,-10.3737,-2.1423,0.0113,-32.4381
33019,-106.9575,16.3004,-0.011,-0.0198,-90.8894,0.1252,-1.016,13.0045,0.001,-10.3737,-2.1423,0.0113,-32.4381
33035,-106.9769,16.5829,-0.011,-0.0136,-91.7412,0.1618,-1.2415,12.9467,0.0012,-10.3412,-2.6523,0.0081,-42.4457
33052,-107.0001,16.8708,-0.011,-0.0064,-92.8524,0.1964,-1.4652,12.8785,0.0012,-10.0141,-3.0519,0.0024,-53.4451
33069,-107.0261,17.1559,-0.011,0.0013,-94.2142,0.2257,-1.6734,12.8047,0.0012,-9.3492,-3.3123,0.0003,-65.0374
33083,-107.0261,17.1559,-0.011,0.0013,-94.2142,0.2257,-1.6734,12.8047,0.0012,-9.3492,-3.3123,0.0003,-65.0374
33099,-107.053,17.425,-0.0111,0.0087,-95.7524,0.2474,-1.8513,12.7324,0.0011,-8.4054,-3.4157,-0.0061,-76.5135
33117,-107.0827,17.7028,-0.0111,0.0162,-97.6201,0.2631,-2.0134,12.6566,0.0009,-7.3579,-3.4429,-0.0075,-88.9097
33133,-107.1157,17.9963,-0.0111,0.0236,-99.922,0.2716,-2.1562,12.5775,0.0007,-6.0756,-3.3634,-0.01,-102.5491
33147,-107.1157,17.9963,-0.0111,0.0236,-99.922,0.2716,-2.1562,12.5775,0.0007,-6.0756,-3.3634,-0.01,-102.5491
33164,-107.1467,18.2664,-0.0112,0.0293,-102.3471,0.2712,-2.2536,12.5098,0.0004,-4.4651,-3.1025,-0.0121,-115.4236
33179,-107.1782,18.5395,-0.0112,0.0336,-105.1183,0.2627,-2.3181,12.4468,0.0002,-2.8928,-2.8298,-0.0134,-128.7674
33195,-107.1782,18.5395,-0.0112,0.0336,-105.1183,0.2627,-2.3181,12.4468,0.0002,-2.8928,-2.8298,-0.0134,-128.7674
33213,-107.2098,18.8206,-0.0112,0.0362,-108.3222,0.2456,-2.3456,12.3887,-0.0002,-1.1862,-2.5041,-0.0132,-142.7959
33229,-107.2368,19.0718,-0.0112,0.0363,-111.4921,0.224,-2.3302,12.3451,-0.0005,0.7347,-2.0785,-0.0141,-155.4149
33243,-107.262,19.3238,-0.0112,0.0343,-114.9812,0.196,-2.279,12.3074,-0.0007,2.405,-1.7706,-0.011,-168.2395
33259,-107.262,19.3238,-0.0112,0.0343,-114.9812,0.196,-2.279,12.3074,-0.0007,2.405,-1.7706,-0.011,-168.2395
33275,-107.2841,19.5709,-0.0112,0.0294,-118.6998,0.1624,-2.1654,12.2869,-0.0009,5.384,-0.9726,-0.01,-179.9652
33293,-107.3026,19.8301,-0.0111,0.0193,-122.8751,0.1166,-1.9355,12.2924,-0.0012,10.2793,0.2441,-0.0117,-189.6961
33308,-107.3143,20.0734,-0.0111,0.0046,-127.0004,0.0649,-1.6333,12.3038,-0.0015,14.2574,0.5404,-0.0141,-196.9335
33323,-107.3143,20.0734,-0.0111,0.0046,-127.0004,0.0649,-1.6333,12.3038,-0.0015,14.2574,0.5404,-0.0141,-196.9335
33339,-107.3191,20.3416,-0.0109,-0.0176,-131.7537,-0.0013,-1.2252,12.3062,-0.0018,17.2864,0.1021,-0.015,-203.4085
33357,-107.3152,20.593,-0.0108,-0.0423,-136.3829,-0.0663,-0.7824,12.2862,-0.0006,19.7749,-0.8955,0.0522,-208.2912
33371,-107.3152,20.593,-0.0108,-0.0423,-136.3829,-0.0663,-0.7824,12.2862,-0.0006,19.7749,-0.8955,0.0522,-208.2912
33389,-107.3022,20.843,-0.0106,-0.0699,-141.1436,-0.1328,-0.2975,12.2355,0.0005,21.4934,-2.2474,0.0488,-212.2574
33403,-107.2795,21.0911,-0.0103,-0.0991,-146.0245,-0.1984,0.2192,12.1471,0.0012,22.7031,-3.8843,0.034,-215.4958
33419,-107.2795,21.0911,-0.0103,-0.0991,-146.0245,-0.1984,0.2192,12.1471,0.0012,22.7031,-3.8843,0.034,-215.4958
33435,-107.2477,21.3309,-0.0101,-0.1279,-150.8995,-0.2603,0.7457,12.0185,0.0017,23.4664,-5.7324,0.021,-218.1555
33451,-107.2084,21.5563,-0.0099,-0.1548,-155.6358,-0.3162,1.2592,11.8531,0.002,23.8169,-7.6704,0.0118,-220.3837
33469,-107.1606,21.776,-0.0096,-0.1806,-160.4172,-0.369,1.7727,11.6456,0.0021,23.8124,-9.6213,0.0063,-222.4368
33483,-107.1606,21.776,-0.0096,-0.1806,-160.4172,-0.369,1.7727,11.6456,0.0021,23.8124,-9.6213,0.0063,-222.4368
33516,-107.0483,22.1733,-0.0092,-0.2247,-169.5711,-0.4581,2.7178,11.1398,0.002,22.9062,-13.2854,-0.003,-226.262
33532,-106.9744,22.3826,-0.009,-0.2457,-174.7284,-0.5065,3.1697,10.7392,0.0021,19.8975,-17.6402,0.0023,-227.346
33547,-106.9744,22.3826,-0.009,-0.2457,-174.7284,-0.5065,3.1697,10.7392,0.0021,19.8975,-17.6402,0.0023,-227.346
33563,-106.901,22.5676,-0.0088,-0.2604,-179.5596,-0.5552,3.4911,10.2761,0.0022,15.1771,-21.8711,0.0027,-228.5863
33579,-106.8209,22.7507,-0.0087,-0.2715,175.3331,-0.6101,3.7539,9.7383,0.0022,11.7985,-24.1402,0.0008,-229.522
33597,-106.7459,22.9088,-0.0086,-0.2783,170.6077,-0.6613,3.9224,9.2059,0.0022,8.1952,-25.8955,0.0002,-229.9296
33611,-106.7459,22.9088,-0.0086,-0.2783,170.6077,-0.6613,3.9224,9.2059,0.0022,8.1952,-25.8955,0.0002,-229.9296
33627,-106.6622,23.0734,-0.0085,-0.2822,165.2941,-0.7209,4.0227,8.5805,0.0021,4.3377,-27.0555,-0.0014,-229.8188
33645,-106.5981,23.2064,-0.0086,-0.2707,160.9186,-0.7646,3.6524,8.2343,0.002,-18.7697,-17.5468,-0.0054,-219.0716
33661,-106.5432,23.3362,-0.0088,-0.2496,156.7451,-0.7906,3.2669,7.9403,-0.0035,-19.5027,-14.8795,-0.2814,-208.5522
33677,-106.4971,23.4644,-0.009,-0.2222,152.69,-0.8163,2.8251,7.6479,0.0005,-22.0613,-14.5973,0.2019,-199.8427
33691,-106.4971,23.4644,-0.009,-0.2222,152.69,-0.8163,2.8251,7.6479,0.0005,-22.0613,-14.5973,0.2019,-199.8427
33707,-106.4598,23.5947,-0.0092,-0.1878,148.5818,-0.8477,2.3508,7.3558,0.0032,-22.5778,-13.9053,0.1281,-193.6665
33724,-106.434,23.7223,-0.0094,-0.1526,144.5423,-0.8796,1.854,7.1107,0.0025,-23.4446,-11.5684,-0.0342,-189.1432
33739,-106.4216,23.8386,-0.0096,-0.1178,140.9401,-0.9042,1.3587,6.9866,0.002,-25.3198,-6.3413,-0.0246,-182.2265
33755,-106.4216,23.8386,-0.0096,-0.1178,140.9401,-0.9042,1.3587,6.9866,0.002,-25.3198,-6.3413,-0.0246,-182.2265
33771,-106.4189,23.9627,-0.0098,-0.0825,137.3117,-0.9161,0.8265,6.971,0.0014,-25.777,-0.7561,-0.0306,-172.2466
33789,-106.4269,24.0832,-0.0101,-0.0449,134.1037,-0.9154,0.3288,7.0286,0.0009,-25.4764,2.9461,-0.0234,-161.4572
33805,-106.4442,24.2089,-0.0104,-0.007,131.0905,-0.9049,-0.1536,7.141,0.0004,-24.4778,5.7026,-0.0251,-150.004
33819,-106.4707,24.3453,-0.0106,0.0287,128.1681,-0.8882,-0.6218,7.2899,-0.0001,-22.6506,7.2041,-0.0233,-136.9565
33836,-106.4707,24.3453,-0.0106,0.0287,128.1681,-0.8882,-0.6218,7.2899,-0.0001,-22.6506,7.2041,-0.0233,-136.9565
33851,-106.505,24.4871,-0.0109,0.0624,125.5246,-0.8644,-1.039,7.4693,-0.0004,-20.2197,8.6973,-0.0173,-123.752
33867,-106.5468,24.6387,-0.0111,0.0937,123.0721,-0.8298,-1.369,7.6836,-0.0008,-15.5723,10.1114,-0.0166,-112.073
33885,-106.5942,24.8022,-0.0113,0.1208,120.7338,-0.7763,-1.5481,7.921,-0.0011,-8.1625,10.8232,-0.0163,-104.3185
33899,-106.5942,24.8022,-0.0113,0.1208,120.7338,-0.7763,-1.5481,7.921,-0.0011,-8.1625,10.8232,-0.0163,-104.3185
33915,-106.6435,24.9738,-0.0115,0.1417,118.4937,-0.7034,-1.6016,8.1524,-0.0015,-2.4111,10.4276,-0.0189,-99.604
33933,-106.6936,25.1564,-0.0117,0.1566,116.2624,-0.6134,-1.5554,8.3747,-0.002,2.023,9.7392,-0.0214,-97.0022
33947,-106.6936,25.1564,-0.0117,0.1566,116.2624,-0.6134,-1.5554,8.3747,-0.002,2.023,9.7392,-0.0214,-97.0022
33963,-106.7409,25.3424,-0.0118,0.1657,114.0913,-0.5162,-1.4371,8.5776,-0.0025,5.2354,8.9812,-0.0209,-95.7622
33981,-106.7867,25.5419,-0.0119,0.1705,111.8416,-0.4108,-1.2595,8.7712,-0.0029,7.5276,8.2053,-0.0178,-95.2424
33995,-106.8277,25.7458,-0.012,0.1715,109.5997,-0.3074,-1.0407,8.9462,-0.0032,9.2894,7.4289,-0.0121,-95.1804
34029,-106.8644,25.9616,-0.0121,0.1695,107.2749,-0.2043,-0.7804,9.1087,-0.0034,10.6663,6.6578,-0.0071,-95.3982
34043,-106.8939,26.1669,-0.0121,0.1668,105.1517,-0.1231,-0.6239,9.2678,-0.0034,6.8889,7.0049,-0.001,-91.9444
34059,-106.8939,26.1669,-0.0121,0.1668,105.1517,-0.1231,-0.6239,9.2678,-0.0034,6.8889,7.0049,-0.001,-91.9444
34076,-106.9222,26.3844,-0.0122,0.1641,103.1171,-0.0657,-0.6016,9.4237,-0.0032,0.9452,6.609,0.008,-83.0066
34091,-106.9493,26.6006,-0.0122,0.1607,101.3912,-0.0396,-0.6829,9.5422,-0.0027,-3.5306,5.1471,0.0222,-70.641
34107,-106.9493,26.6006,-0.0122,0.1607,101.3912,-0.0396,-0.6829,9.5422,-0.0027,-3.5306,5.1471,0.0222,-70.641
34126,-106.9799,26.8375,-0.0122,0.1546,99.8998,-0.0411,-0.8667,9.6208,-0.002,-7.3822,3.1553,0.0298,-54.357
34139,-107.0112,27.0656,-0.0122,0.1463,98.8497,-0.06,-1.0463,9.667,-0.001,-7.5581,1.9461,0.039,-39.4782
34155,-107.0112,27.0656,-0.0122,0.1463,98.8497,-0.06,-1.0463,9.667,-0.001,-7.5581,1.9461,0.039,-39.4782
34173,-107.0476,27.3243,-0.0122,0.135,98.0276,-0.0808,-1.1682,9.7195,-0.0002,-4.5523,1.9592,0.0302,-26.7923
34187,-107.0476,27.3243,-0.0122,0.135,98.0276,-0.0808,-1.1682,9.7195,-0.0002,-4.5523,1.9592,0.0302,-26.7923
34203,-107.0839,27.5833,-0.0121,0.1233,97.4786,-0.0905,-1.225,9.7697,0.0002,-2.1336,1.887,0.0153,-17.8987
34221,-107.1168,27.8235,-0.012,0.1127,97.135,-0.0899,-1.2411,9.8121,0.0003,-0.6556,1.7251,0.0038,-12.2739
34235,-107.1168,27.8235,-0.012,0.1127,97.135,-0.0899,-1.2411,9.8121,0.0003,-0.6556,1.7251,0.0038,-12.2739
34253,-107.1478,28.0621,-0.0111,0.146,96.8898,0.0476,-1.2415,9.8327,0.0348,-0.0179,0.8512,1.4234,-8.7768
34267,-107.1793,28.3019,-0.0111,0.1281,96.7144,0.0207,-1.2265,9.8593,0.0059,0.6156,1.0903,-1.1884,-6.4404
34283,-107.1793,28.3019,-0.0111,0.1281,96.7144,0.0207,-1.2265,9.8593,0.0059,0.6156,1.0903,-1.1884,-6.4404
34300,-107.2091,28.5356,-0.0112,0.1051,96.5994,-0.0154,-1.2063,9.891,-0.0124,0.8541,1.3398,-0.7717,-4.0828
34315,-107.2378,28.7679,-0.0113,0.0885,96.5171,-0.0272,-1.1884,9.9168,-0.0085,0.7623,1.0973,0.1666,-3.3322
34331,-107.2378,28.7679,-0.0113,0.0885,96.5171,-0.0272,-1.1884,9.9168,-0.0085,0.7623,1.0973,0.1666,-3.3322
34349,-107.2677,29.0166,-0.0114,0.0751,96.4636,-0.0282,-1.1726,9.9404,-0.0058,0.6295,0.9437,0.1083,-1.4213
34364,-107.2968,29.2634,-0.0114,0.0648,96.4195,-0.0247,-1.1608,9.9632,-0.0039,0.4775,0.9197,0.075,-2.0913
34379,-107.2968,29.2634,-0.0114,0.0648,96.4195,-0.0247,-1.1608,9.9632,-0.0039,0.4775,0.9197,0.075,-2.0913
34397,-107.3257,29.5122,-0.0115,0.0565,96.4006,-0.02,-1.1505,9.9779,-0.0026,0.4128,0.5866,0.0513,-0.025
34411,-107.3537,29.7544,-0.0115,0.0499,96.3768,-0.0155,-1.1438,9.998,-0.0018,0.2766,0.8287,0.035,-1.4716
34427,-107.3537,29.7544,-0.0115,0.0499,96.3768,-0.0155,-1.1438,9.998,-0.0018,0.2766,0.8287,0.035,-1.4716
34445,-107.3817,30.0009,-0.0115,0.0443,96.3732,-0.0116,-1.138,10.0125,-0.0012,0.2336,0.5907,0.025,0.5947
34459,-107.4086,30.2372,-0.0114,0.0397,96.3584,-0.0086,-1.1344,10.0277,-0.0008,0.1549,0.6447,0.0176,-1.168
34475,-107.4086,30.2372,-0.0114,0.0397,96.3584,-0.0086,-1.1344,10.0277,-0.0008,0.1549,0.6447,0.0176,-1.168
34493,-107.4353,30.4741,-0.0114,0.0357,96.3599,-0.0062,-1.1316,10.0426,-0.0005,0.1174,0.6292,0.012,0.6497
34507,-107.4619,30.7133,-0.0106,-0.0094,96.3498,0.0483,-1.1333,10.0582,0.0186,-0.0701,0.6565,0.8,-0.9694
34523,-107.4619,30.7133,-0.0106,-0.0094,96.3498,0.0483,-1.1333,10.0582,0.0186,-0.0701,0.6565,0.8,-0.9694
34539,-107.4901,30.9634,-0.0105,-0.0136,96.3554,0.0435,-1.1325,10.0709,-0.0093,0.0313,0.5093,-1.1216,0.8494
34555,-107.4901,30.9634,-0.0105,-0.0136,96.3554,0.0435,-1.1325,10.0709,-0.0093,0.0313,0.5093,-1.1216,0.8494
34571,-107.5188,31.2173,-0.0108,0.0023,96.3445,0.0192,-1.1285,10.0849,-0.0068,0.1593,0.5575,0.0993,-1.2014
34589,-107.5477,31.4765,-0.011,0.0109,96.354,0.0082,-1.1268,10.0967,-0.0048,0.0652,0.4579,0.0786,1.276
34603,-107.5477,31.4765,-0.011,0.0109,96.354,0.0082,-1.1268,10.0967,-0.0048,0.0652,0.4579,0.0786,1.276
34619,-107.5745,31.7155,-0.0111,0.0148,96.3448,0.0038,-1.1269,10.1092,-0.0033,-0.0062,0.5285,0.0626,-0.985
34636,-107.6015,31.9582,-0.0112,0.0166,96.3517,0.0018,-1.1276,10.1226,-0.0023,-0.0255,0.5612,0.0427,0.8959
34651,-107.6015,31.9582,-0.0112,0.0166,96.3517,0.0018,-1.1276,10.1226,-0.0023,-0.0255,0.5612,0.0427,0.8959
34667,-107.6282,32.1979,-0.0112,0.0173,96.3445,0.0008,-1.1286,10.1357,-0.0015,-0.0443,0.5546,0.0325,-0.856
34685,-107.6554,32.4422,-0.0113,0.0172,96.3512,0.0004,-1.1297,10.1488,-0.001,-0.044,0.5424,0.0216,0.8705
34699,-107.6554,32.4422,-0.0113,0.0172,96.3512,0.0004,-1.1297,10.1488,-0.001,-0.044,0.5424,0.0216,0.8705
34715,-107.6825,32.6856,-0.0113,0.0167,96.3441,0.0002,-1.1309,10.1615,-0.0006,-0.0528,0.5283,0.0155,-0.8799
34733,-107.7093,32.9268,-0.0113,0.0161,96.3506,0.0002,-1.1321,10.1741,-0.0003,-0.0496,0.5321,0.0118,0.8195
34747,-107.7093,32.9268,-0.0113,0.0161,96.3506,0.0002,-1.1321,10.1741,-0.0003,-0.0496,0.5321,0.0118,0.8195
34763,-107.7363,33.1683,-0.0113,0.0155,96.3441,0.0001,-1.1335,10.1866,-0.0002,-0.0568,0.5293,0.0064,-0.8047
34781,-107.7641,33.4191,-0.0113,0.0147,96.3513,0.0001,-1.1347,10.1989,-0.0001,-0.0493,0.4987,0.0053,0.9313
34795,-107.7641,33.4191,-0.0113,0.0147,96.3513,0.0001,-1.1347,10.1989,-0.0001,-0.0493,0.4987,0.0053,0.9313
34811,-107.7926,33.6746,-0.0113,0.014,96.3427,0.0001,-1.136,10.2104,0.0,-0.052,0.4589,0.003,-1.0674
34827,-107.8215,33.9347,-0.0113,0.0133,96.3525,0.0001,-1.1371,10.2213,0.0001,-0.0425,0.4295,0.0021,1.1922
34843,-107.8215,33.9347,-0.0113,0.0133,96.3525,0.0001,-1.1371,10.2213,0.0001,-0.0425,0.4295,0.0021,1.1922
34860,-107.8502,34.1922,-0.0113,0.0126,96.3426,0.0002,-1.1383,10.2323,0.0001,-0.0513,0.4345,0.0003,-1.1731
34875,-107.8774,34.4379,-0.0113,0.012,96.3507,0.0001,-1.1395,10.2442,0.0001,-0.0503,0.4974,0.0009,0.9381
34891,-107.8774,34.4379,-0.0113,0.012,96.3507,0.0001,-1.1395,10.2442,0.0001,-0.0503,0.4974,0.0009,0.9381
34907,-107.908,34.7117,-0.0113,0.0115,96.3397,0.0001,-1.1408,10.2553,0.0001,-0.047,0.4164,0.0002,-1.3793
34923,-107.908,34.7117,-0.0113,0.0115,96.3397,0.0001,-1.1408,10.2553,0.0001,-0.047,0.4164,0.0002,-1.3793
34939,-107.9356,34.9604,-0.0113,0.011,96.3488,0.0001,-1.1419,10.2666,0.0001,-0.0435,0.4666,-0.0004,1.0185
34957,-107.9638,35.2139,-0.0112,0.0107,96.3405,0.0001,-1.1432,10.2789,0.0001,-0.0547,0.4973,-0.0005,-1.0059
34971,-107.9638,35.2139,-0.0112,0.0107,96.3405,0.0001,-1.1432,10.2789,0.0001,-0.0547,0.4973,-0.0005,-1.0059
34987,-107.9933,35.4797,-0.0112,0.0103,96.3503,0.0001,-1.1443,10.2903,0.0001,-0.0432,0.4414,-0.0001,1.2159
35004,-108.0217,35.734,-0.0112,0.0101,96.3412,0.0001,-1.1457,10.3017,0.0001,-0.0544,0.4615,-0.0003,-1.0581
35019,-108.0217,35.734,-0.0112,0.0101,96.3412,0.0001,-1.1457,10.3017,0.0001,-0.0544,0.4615,-0.0003,-1.0581
35035,-108.0504,35.9932,-0.0112,0.0098,96.3503,0.0001,-1.1469,10.3134,0.0,-0.0484,0.4673,-0.0011,1.0928
35053,-108.0794,36.2527,-0.0112,0.0096,96.3411,0.0001,-1.1483,10.3249,0.0,-0.0543,0.4559,-0.0,-1.0985
35067,-108.0794,36.2527,-0.0112,0.0096,96.3411,0.0001,-1.1483,10.3249,0.0,-0.0543,0.4559,-0.0,-1.0985
35085,-108.1076,36.5069,-0.0112,0.0094,96.3495,0.0001,-1.1495,10.3366,0.0,-0.0491,0.4762,-0.0,0.9981
35099,-108.135,36.753,-0.0112,0.0093,96.3426,0.0001,-1.1509,10.3487,0.0,-0.0599,0.5089,-0.0001,-0.8234
35115,-108.135,36.753,-0.0112,0.0093,96.3426,0.0001,-1.1509,10.3487,0.0,-0.0599,0.5089,-0.0001,-0.8234
35133,-108.1646,37.0198,-0.0112,0.0092,96.3511,0.0001,-1.1521,10.3605,0.0,-0.0489,0.4578,-0.0001,1.0903
35147,-108.1646,37.0198,-0.0112,0.0092,96.3511,0.0001,-1.1521,10.3605,0.0,-0.0489,0.4578,-0.0001,1.0903
35163,-108.1942,37.2853,-0.0112,0.0091,96.3414,0.0001,-1.1534,10.371,0.0,-0.0506,0.4108,-0.0003,-1.1719
35180,-108.2232,37.5466,-0.0112,0.0089,96.3509,0.0,-1.1546,10.3819,0.0,-0.0446,0.4305,-0.0003,1.1087
35195,-108.2232,37.5466,-0.0112,0.0089,96.3509,0.0,-1.1546,10.3819,0.0,-0.0446,0.4305,-0.0003,1.1087
