timestamp,x,y,z,pitch,yaw,roll,vx,vy,vz,ax,ay,az,yaw_rate
58580,-106.6867,-4.8475,-0.0791,0.0,-89.3578,0.0,0.0,0.0,0.0808,0.0,0.0,6.2941,0.0
58596,-106.6867,-4.8475,-0.0791,0.0,-89.3578,0.0,0.0,0.0,0.0808,0.0,0.0,6.2941,0.0
58612,-106.6867,-4.8475,-0.0791,0.0,-89.3578,0.0,0.0,0.0,0.0808,0.0,0.0,6.2941,0.0
58628,-106.6867,-4.8475,-0.0791,0.0,-89.3578,0.0,0.0,0.0,0.0808,0.0,0.0,6.2941,0.0
58644,-106.6867,-4.8475,-0.0791,0.0,-89.3578,0.0,0.0,0.0,0.0808,0.0,0.0,6.2941,0.0
58660,-106.6867,-4.8475,-0.0791,0.0,-89.3578,0.0,0.0,0.0,0.0808,0.0,0.0,6.2941,0.0
58676,-106.6867,-4.8475,-0.0791,0.0,-89.3578,0.0,0.0,0.0,0.0808,0.0,0.0,6.2941,0.0
58692,-106.6867,-4.8475,-0.0791,0.0,-89.3578,0.0,0.0,0.0,0.0808,0.0,0.0,6.2941,0.0
58708,-106.6867,-4.8475,-0.0791,0.0,-89.3578,0.0,0.0,0.0,0.0808,0.0,0.0,6.2941,0.0
58724,-106.6867,-4.8475,-0.0791,0.0,-89.3578,0.0,0.0,0.0,0.0808,0.0,0.0,6.2941,0.0
58740,-106.6867,-4.8475,-0.0791,0.0,-89.3578,0.0,0.0,0.0,0.0808,0.0,0.0,6.2941,0.0
58756,-106.6867,-4.8475,-0.0791,0.0,-89.3578,0.0,0.0,0.0,0.0808,0.0,0.0,6.2941,0.0
58772,-106.6868,-4.8455,-0.0589,-0.0017,-89.3578,-0.0,-0.0005,0.0429,0.2357,-0.0025,0.2268,0.8184,-0.0
58788,-106.6868,-4.8455,-0.0589,-0.0017,-89.3578,-0.0,-0.0005,0.0429,0.2357,-0.0025,0.2268,0.8184,-0.0
58804,-106.6868,-4.8455,-0.0589,-0.0017,-89.3578,-0.0,-0.0005,0.0429,0.2357,-0.0025,0.2268,0.8184,-0.0
58820,-106.6868,-4.8455,-0.0589,-0.0017,-89.3578,-0.0,-0.0005,0.0429,0.2357,-0.0025,0.2268,0.8184,-0.0
58836,-106.6868,-4.8455,-0.0589,-0.0017,-89.3578,-0.0,-0.0005,0.0429,0.2357,-0.0025,0.2268,0.8184,-0.0
58852,-106.6868,-4.8455,-0.0589,-0.0017,-89.3578,-0.0,-0.0005,0.0429,0.2357,-0.0025,0.2268,0.8184,-0.0
58868,-106.6868,-4.8455,-0.0589,-0.0017,-89.3578,-0.0,-0.0005,0.0429,0.2357,-0.0025,0.2268,0.8184,-0.0
58884,-106.6868,-4.8455,-0.0589,-0.0017,-89.3578,-0.0,-0.0005,0.0429,0.2357,-0.0025,0.2268,0.8184,-0.0
58900,-106.6868,-4.8404,-0.0382,-0.0052,-89.3578,0.0,-0.0013,0.1143,0.1733,-0.0061,0.5462,-0.4783,-0.0043
58916,-106.6868,-4.8404,-0.0382,-0.0052,-89.3578,0.0,-0.0013,0.1143,0.1733,-0.0061,0.5462,-0.4783,-0.0043
58932,-106.6868,-4.8404,-0.0382,-0.0052,-89.3578,0.0,-0.0013,0.1143,0.1733,-0.0061,0.5462,-0.4783,-0.0043
58948,-106.6868,-4.8404,-0.0382,-0.0052,-89.3578,0.0,-0.0013,0.1143,0.1733,-0.0061,0.5462,-0.4783,-0.0043
58964,-106.6868,-4.8404,-0.0382,-0.0052,-89.3578,0.0,-0.0013,0.1143,0.1733,-0.0061,0.5462,-0.4783,-0.0043
58980,-106.6868,-4.8404,-0.0382,-0.0052,-89.3578,0.0,-0.0013,0.1143,0.1733,-0.0061,0.5462,-0.4783,-0.0043
58996,-106.6872,-4.8047,-0.0253,-0.0277,-89.3607,0.0,-0.0055,0.5698,0.1025,-0.0438,4.7566,-0.7397,0.091
59012,-106.6872,-4.8047,-0.0253,-0.0277,-89.3607,0.0,-0.0055,0.5698,0.1025,-0.0438,4.7566,-0.7397,0.091
59028,-106.6872,-4.8047,-0.0253,-0.0277,-89.3607,0.0,-0.0055,0.5698,0.1025,-0.0438,4.7566,-0.7397,0.091
59044,-106.6872,-4.8047,-0.0253,-0.0277,-89.3607,0.0,-0.0055,0.5698,0.1025,-0.0438,4.7566,-0.7397,0.091
59060,-106.6872,-4.8047,-0.0253,-0.0277,-89.3607,0.0,-0.0055,0.5698,0.1025,-0.0438,4.7566,-0.7397,0.091
59076,-106.6872,-4.8047,-0.0253,-0.0277,-89.3607,0.0,-0.0055,0.5698,0.1025,-0.0438,4.7566,-0.7397,0.091
59092,-106.6879,-4.7358,-0.0183,-0.0432,-89.371,-0.0002,-0.0093,0.906,0.0559,-0.0413,3.6234,-0.5018,0.7332
59108,-106.6879,-4.7358,-0.0183,-0.0432,-89.371,-0.0002,-0.0093,0.906,0.0559,-0.0413,3.6234,-0.5018,0.7332
59124,-106.6879,-4.7358,-0.0183,-0.0432,-89.371,-0.0002,-0.0093,0.906,0.0559,-0.0413,3.6234,-0.5018,0.7332
59140,-106.6879,-4.7358,-0.0183,-0.0432,-89.371,-0.0002,-0.0093,0.906,0.0559,-0.0413,3.6234,-0.5018,0.7332
59156,-106.6879,-4.7358,-0.0183,-0.0432,-89.371,-0.0002,-0.0093,0.906,0.0559,-0.0413,3.6234,-0.5018,0.7332
59172,-106.6879,-4.7358,-0.0183,-0.0432,-89.371,-0.0002,-0.0093,0.906,0.0559,-0.0413,3.6234,-0.5018,0.7332
59190,-106.6896,-4.6397,-0.0142,-0.0466,-89.3133,0.0008,-0.0153,1.0459,0.0318,-0.067,1.5518,-0.2677,0.2306
59204,-106.6896,-4.6397,-0.0142,-0.0466,-89.3133,0.0008,-0.0153,1.0459,0.0318,-0.067,1.5518,-0.2677,0.2306
59220,-106.6896,-4.6397,-0.0142,-0.0466,-89.3133,0.0008,-0.0153,1.0459,0.0318,-0.067,1.5518,-0.2677,0.2306
59236,-106.6896,-4.6397,-0.0142,-0.0466,-89.3133,0.0008,-0.0153,1.0459,0.0318,-0.067,1.5518,-0.2677,0.2306
59252,-106.6896,-4.6397,-0.0142,-0.0466,-89.3133,0.0008,-0.0153,1.0459,0.0318,-0.067,1.5518,-0.2677,0.2306
59268,-106.6896,-4.6397,-0.0142,-0.0466,-89.3133,0.0008,-0.0153,1.0459,0.0318,-0.067,1.5518,-0.2677,0.2306
59284,-106.6908,-4.5406,-0.0125,-0.0291,-89.3165,0.0001,-0.0124,1.0257,0.0134,0.032,-0.2202,-0.1991,-0.2028
59300,-106.6908,-4.5406,-0.0125,-0.0291,-89.3165,0.0001,-0.0124,1.0257,0.0134,0.032,-0.2202,-0.1991,-0.2028
59316,-106.6908,-4.5406,-0.0125,-0.0291,-89.3165,0.0001,-0.0124,1.0257,0.0134,0.032,-0.2202,-0.1991,-0.2028
59332,-106.6908,-4.5406,-0.0125,-0.0291,-89.3165,0.0001,-0.0124,1.0257,0.0134,0.032,-0.2202,-0.1991,-0.2028
59348,-106.6908,-4.5406,-0.0125,-0.0291,-89.3165,0.0001,-0.0124,1.0257,0.0134,0.032,-0.2202,-0.1991,-0.2028
59364,-106.6918,-4.4411,-0.0118,-0.0154,-89.3361,-0.0002,-0.0111,1.0074,0.006,0.0135,-0.1949,-0.0799,-0.1924
59380,-106.6918,-4.4411,-0.0118,-0.0154,-89.3361,-0.0002,-0.0111,1.0074,0.006,0.0135,-0.1949,-0.0799,-0.1924
59396,-106.6918,-4.4411,-0.0118,-0.0154,-89.3361,-0.0002,-0.0111,1.0074,0.006,0.0135,-0.1949,-0.0799,-0.1924
59412,-106.6918,-4.4411,-0.0118,-0.0154,-89.3361,-0.0002,-0.0111,1.0074,0.006,0.0135,-0.1949,-0.0799,-0.1924
59428,-106.6918,-4.4411,-0.0118,-0.0154,-89.3361,-0.0002,-0.0111,1.0074,0.006,0.0135,-0.1949,-0.0799,-0.1924
59444,-106.6918,-4.4411,-0.0118,-0.0154,-89.3361,-0.0002,-0.0111,1.0074,0.006,0.0135,-0.1949,-0.0799,-0.1924
59462,-106.6927,-4.3165,-0.0112,-0.0405,-89.3909,-0.001,-0.0135,1.7942,0.0028,-0.0258,8.7021,-0.0344,0.8903
59476,-106.6927,-4.3165,-0.0112,-0.0405,-89.3909,-0.001,-0.0135,1.7942,0.0028,-0.0258,8.7021,-0.0344,0.8903
59492,-106.6927,-4.3165,-0.0112,-0.0405,-89.3909,-0.001,-0.0135,1.7942,0.0028,-0.0258,8.7021,-0.0344,0.8903
59508,-106.6927,-4.3165,-0.0112,-0.0405,-89.3909,-0.001,-0.0135,1.7942,0.0028,-0.0258,8.7021,-0.0344,0.8903
59524,-106.6927,-4.3165,-0.0112,-0.0405,-89.3909,-0.001,-0.0135,1.7942,0.0028,-0.0258,8.7021,-0.0344,0.8903
59540,-106.6927,-4.3165,-0.0112,-0.0405,-89.3909,-0.001,-0.0135,1.7942,0.0028,-0.0258,8.7021,-0.0344,0.8903
59556,-106.6936,-4.1486,-0.0109,-0.0546,-89.452,-0.0009,-0.0195,2.0713,0.0014,-0.0669,3.064,-0.0159,-1.9319
59572,-106.6936,-4.1486,-0.0109,-0.0546,-89.452,-0.0009,-0.0195,2.0713,0.0014,-0.0669,3.064,-0.0159,-1.9319
59588,-106.6936,-4.1486,-0.0109,-0.0546,-89.452,-0.0009,-0.0195,2.0713,0.0014,-0.0669,3.064,-0.0159,-1.9319
59604,-106.6936,-4.1486,-0.0109,-0.0546,-89.452,-0.0009,-0.0195,2.0713,0.0014,-0.0669,3.064,-0.0159,-1.9319
59620,-106.6936,-4.1486,-0.0109,-0.0546,-89.452,-0.0009,-0.0195,2.0713,0.0014,-0.0669,3.064,-0.0159,-1.9319
59637,-106.6957,-3.9085,-0.0106,-0.0875,-89.4509,0.0001,-0.0297,2.9323,0.0007,-0.11,9.2554,-0.0078,4.5288
59652,-106.6957,-3.9085,-0.0106,-0.0875,-89.4509,0.0001,-0.0297,2.9323,0.0007,-0.11,9.2554,-0.0078,4.5288
59668,-106.6957,-3.9085,-0.0106,-0.0875,-89.4509,0.0001,-0.0297,2.9323,0.0007,-0.11,9.2554,-0.0078,4.5288
59684,-106.6957,-3.9085,-0.0106,-0.0875,-89.4509,0.0001,-0.0297,2.9323,0.0007,-0.11,9.2554,-0.0078,4.5288
59700,-106.6957,-3.9085,-0.0106,-0.0875,-89.4509,0.0001,-0.0297,2.9323,0.0007,-0.11,9.2554,-0.0078,4.5288
59716,-106.6957,-3.9085,-0.0106,-0.0875,-89.4509,0.0001,-0.0297,2.9323,0.0007,-0.11,9.2554,-0.0078,4.5288
59732,-106.6957,-3.9085,-0.0106,-0.0875,-89.4509,0.0001,-0.0297,2.9323,0.0007,-0.11,9.2554,-0.0078,4.5288
59748,-106.698,-3.6062,-0.0105,-0.093,-89.4784,-0.0002,-0.0311,3.4031,0.0003,-0.0145,4.9693,-0.0037,-1.4764
59764,-106.698,-3.6062,-0.0105,-0.093,-89.4784,-0.0002,-0.0311,3.4031,0.0003,-0.0145,4.9693,-0.0037,-1.4764
59780,-106.698,-3.6062,-0.0105,-0.093,-89.4784,-0.0002,-0.0311,3.4031,0.0003,-0.0145,4.9693,-0.0037,-1.4764
59796,-106.698,-3.6062,-0.0105,-0.093,-89.4784,-0.0002,-0.0311,3.4031,0.0003,-0.0145,4.9693,-0.0037,-1.4764
59812,-106.698,-3.6062,-0.0105,-0.093,-89.4784,-0.0002,-0.0311,3.4031,0.0003,-0.0145,4.9693,-0.0037,-1.4764
59828,-106.6996,-3.2696,-0.0106,-0.0797,-89.6178,-0.0017,-0.0235,3.7681,0.0002,0.0801,3.8235,-0.0015,0.1208
59844,-106.6996,-3.2696,-0.0106,-0.0797,-89.6178,-0.0017,-0.0235,3.7681,0.0002,0.0801,3.8235,-0.0015,0.1208
59860,-106.6996,-3.2696,-0.0106,-0.0797,-89.6178,-0.0017,-0.0235,3.7681,0.0002,0.0801,3.8235,-0.0015,0.1208
59876,-106.6996,-3.2696,-0.0106,-0.0797,-89.6178,-0.0017,-0.0235,3.7681,0.0002,0.0801,3.8235,-0.0015,0.1208
59892,-106.6996,-3.2696,-0.0106,-0.0797,-89.6178,-0.0017,-0.0235,3.7681,0.0002,0.0801,3.8235,-0.0015,0.1208
59908,-106.6996,-3.2696,-0.0106,-0.0797,-89.6178,-0.0017,-0.0235,3.7681,0.0002,0.0801,3.8235,-0.0015,0.1208
59925,-106.7012,-2.896,-0.0105,-0.0885,-89.697,-0.0023,-0.0234,4.3945,0.0001,0.0007,6.8318,-0.001,1.121
59940,-106.7012,-2.896,-0.0105,-0.0885,-89.697,-0.0023,-0.0234,4.3945,0.0001,0.0007,6.8318,-0.001,1.121
59956,-106.7012,-2.896,-0.0105,-0.0885,-89.697,-0.0023,-0.0234,4.3945,0.0001,0.0007,6.8318,-0.001,1.121
59972,-106.7012,-2.896,-0.0105,-0.0885,-89.697,-0.0023,-0.0234,4.3945,0.0001,0.0007,6.8318,-0.001,1.121
59988,-106.7012,-2.896,-0.0105,-0.0885,-89.697,-0.0023,-0.0234,4.3945,0.0001,0.0007,6.8318,-0.001,1.121
60004,-106.7012,-2.896,-0.0105,-0.0885,-89.697,-0.0023,-0.0234,4.3945,0.0001,0.0007,6.8318,-0.001,1.121
60021,-106.704,-2.4542,-0.0105,-0.0916,-89.6632,-0.0012,-0.03,4.9344,0.0,-0.0694,5.6684,-0.0007,-0.7949
60036,-106.704,-2.4542,-0.0105,-0.0916,-89.6632,-0.0012,-0.03,4.9344,0.0,-0.0694,5.6684,-0.0007,-0.7949
60052,-106.704,-2.4542,-0.0105,-0.0916,-89.6632,-0.0012,-0.03,4.9344,0.0,-0.0694,5.6684,-0.0007,-0.7949
60068,-106.704,-2.4542,-0.0105,-0.0916,-89.6632,-0.0012,-0.03,4.9344,0.0,-0.0694,5.6684,-0.0007,-0.7949
60084,-106.704,-2.4542,-0.0105,-0.0916,-89.6632,-0.0012,-0.03,4.9344,0.0,-0.0694,5.6684,-0.0007,-0.7949
60100,-106.704,-2.4542,-0.0105,-0.0916,-89.6632,-0.0012,-0.03,4.9344,0.0,-0.0694,5.6684,-0.0007,-0.7949
60118,-106.707,-1.9764,-0.0104,-0.0983,-89.6431,-0.0003,-0.0338,5.5587,0.0,-0.0418,6.8322,-0.0002,1.2781
60132,-106.707,-1.9764,-0.0104,-0.0983,-89.6431,-0.0003,-0.0338,5.5587,0.0,-0.0418,6.8322,-0.0002,1.2781
60148,-106.707,-1.9764,-0.0104,-0.0983,-89.6431,-0.0003,-0.0338,5.5587,0.0,-0.0418,6.8322,-0.0002,1.2781
60164,-106.707,-1.9764,-0.0104,-0.0983,-89.6431,-0.0003,-0.0338,5.5587,0.0,-0.0418,6.8322,-0.0002,1.2781
60180,-106.707,-1.9764,-0.0104,-0.0983,-89.6431,-0.0003,-0.0338,5.5587,0.0,-0.0418,6.8322,-0.0002,1.2781
60196,-106.7105,-1.4521,-0.0104,-0.1002,-89.6162,0.0002,-0.0388,6.0232,0.0,-0.0554,5.1617,-0.0001,1.3606
60212,-106.7105,-1.4521,-0.0104,-0.1002,-89.6162,0.0002,-0.0388,6.0232,0.0,-0.0554,5.1617,-0.0001,1.3606
60228,-106.7105,-1.4521,-0.0104,-0.1002,-89.6162,0.0002,-0.0388,6.0232,0.0,-0.0554,5.1617,-0.0001,1.3606
60244,-106.7105,-1.4521,-0.0104,-0.1002,-89.6162,0.0002,-0.0388,6.0232,0.0,-0.0554,5.1617,-0.0001,1.3606
60260,-106.7105,-1.4521,-0.0104,-0.1002,-89.6162,0.0002,-0.0388,6.0232,0.0,-0.0554,5.1617,-0.0001,1.3606
60276,-106.7105,-1.4521,-0.0104,-0.1002,-89.6162,0.0002,-0.0388,6.0232,0.0,-0.0554,5.1617,-0.0001,1.3606
60294,-106.7143,-0.8578,-0.0103,-0.1117,-89.6281,0.0002,-0.0445,6.8477,-0.0,-0.0616,9.0041,-0.0001,-0.3066
60308,-106.7143,-0.8578,-0.0103,-0.1117,-89.6281,0.0002,-0.0445,6.8477,-0.0,-0.0616,9.0041,-0.0001,-0.3066
60324,-106.7143,-0.8578,-0.0103,-0.1117,-89.6281,0.0002,-0.0445,6.8477,-0.0,-0.0616,9.0041,-0.0001,-0.3066
60340,-106.7143,-0.8578,-0.0103,-0.1117,-89.6281,0.0002,-0.0445,6.8477,-0.0,-0.0616,9.0041,-0.0001,-0.3066
60356,-106.7143,-0.8578,-0.0103,-0.1117,-89.6281,0.0002,-0.0445,6.8477,-0.0,-0.0616,9.0041,-0.0001,-0.3066
60372,-106.7143,-0.8578,-0.0103,-0.1117,-89.6281,0.0002,-0.0445,6.8477,-0.0,-0.0616,9.0041,-0.0001,-0.3066
60390,-106.7189,-0.1755,-0.0103,-0.1198,-89.6181,0.0003,-0.0497,7.5393,0.0,-0.0559,7.3724,0.0,0.3635
60404,-106.7189,-0.1755,-0.0103,-0.1198,-89.6181,0.0003,-0.0497,7.5393,0.0,-0.0559,7.3724,0.0,0.3635
60420,-106.7189,-0.1755,-0.0103,-0.1198,-89.6181,0.0003,-0.0497,7.5393,0.0,-0.0559,7.3724,0.0,0.3635
60436,-106.7189,-0.1755,-0.0103,-0.1198,-89.6181,0.0003,-0.0497,7.5393,0.0,-0.0559,7.3724,0.0,0.3635
60452,-106.7189,-0.1755,-0.0103,-0.1198,-89.6181,0.0003,-0.0497,7.5393,0.0,-0.0559,7.3724,0.0,0.3635
60468,-106.7189,-0.1755,-0.0103,-0.1198,-89.6181,0.0003,-0.0497,7.5393,0.0,-0.0559,7.3724,0.0,0.3635
60484,-106.7235,0.5419,-0.0103,-0.1211,-89.623,0.0002,-0.0542,8.2435,0.0,-0.0499,7.7944,0.0001,-0.0031
60500,-106.7235,0.5419,-0.0103,-0.1211,-89.623,0.0002,-0.0542,8.2435,0.0,-0.0499,7.7944,0.0001,-0.0031
60516,-106.7235,0.5419,-0.0103,-0.1211,-89.623,0.0002,-0.0542,8.2435,0.0,-0.0499,7.7944,0.0001,-0.0031
60532,-106.7235,0.5419,-0.0103,-0.1211,-89.623,0.0002,-0.0542,8.2435,0.0,-0.0499,7.7944,0.0001,-0.0031
60548,-106.7235,0.5419,-0.0103,-0.1211,-89.623,0.0002,-0.0542,8.2435,0.0,-0.0499,7.7944,0.0001,-0.0031
60565,-106.7287,1.3283,-0.0102,-0.117,-89.6247,-0.0042,-0.0583,8.8473,-0.0001,-0.0443,6.6031,-0.0009,-0.0198
60580,-106.7287,1.3283,-0.0102,-0.117,-89.6247,-0.0042,-0.0583,8.8473,-0.0001,-0.0443,6.6031,-0.0009,-0.0198
60596,-106.7287,1.3283,-0.0102,-0.117,-89.6247,-0.0042,-0.0583,8.8473,-0.0001,-0.0443,6.6031,-0.0009,-0.0198
60612,-106.7287,1.3283,-0.0102,-0.117,-89.6247,-0.0042,-0.0583,8.8473,-0.0001,-0.0443,6.6031,-0.0009,-0.0198
60628,-106.7287,1.3283,-0.0102,-0.117,-89.6247,-0.0042,-0.0583,8.8473,-0.0001,-0.0443,6.6031,-0.0009,-0.0198
60644,-106.7287,1.3283,-0.0102,-0.117,-89.6247,-0.0042,-0.0583,8.8473,-0.0001,-0.0443,6.6031,-0.0009,-0.0198
60662,-106.7341,2.161,-0.0103,-0.1088,-89.6251,-0.0026,-0.0613,9.3596,-0.0002,-0.0331,5.6249,-0.0015,-0.0019
60676,-106.7341,2.161,-0.0103,-0.1088,-89.6251,-0.0026,-0.0613,9.3596,-0.0002,-0.0331,5.6249,-0.0015,-0.0019
60692,-106.7341,2.161,-0.0103,-0.1088,-89.6251,-0.0026,-0.0613,9.3596,-0.0002,-0.0331,5.6249,-0.0015,-0.0019
60708,-106.7341,2.161,-0.0103,-0.1088,-89.6251,-0.0026,-0.0613,9.3596,-0.0002,-0.0331,5.6249,-0.0015,-0.0019
60724,-106.7341,2.161,-0.0103,-0.1088,-89.6251,-0.0026,-0.0613,9.3596,-0.0002,-0.0331,5.6249,-0.0015,-0.0019
60740,-106.7341,2.161,-0.0103,-0.1088,-89.6251,-0.0026,-0.0613,9.3596,-0.0002,-0.0331,5.6249,-0.0015,-0.0019
60758,-106.7399,3.0377,-0.0104,-0.1002,-89.6252,-0.0016,-0.0643,9.8347,-0.0002,-0.0334,5.2201,0.0006,-0.0004
60772,-106.7399,3.0377,-0.0104,-0.1002,-89.6252,-0.0016,-0.0643,9.8347,-0.0002,-0.0334,5.2201,0.0006,-0.0004
60788,-106.7399,3.0377,-0.0104,-0.1002,-89.6252,-0.0016,-0.0643,9.8347,-0.0002,-0.0334,5.2201,0.0006,-0.0004
60804,-106.7399,3.0377,-0.0104,-0.1002,-89.6252,-0.0016,-0.0643,9.8347,-0.0002,-0.0334,5.2201,0.0006,-0.0004
60820,-106.7399,3.0377,-0.0104,-0.1002,-89.6252,-0.0016,-0.0643,9.8347,-0.0002,-0.0334,5.2201,0.0006,-0.0004
60838,-106.7399,3.0377,-0.0104,-0.1002,-89.6252,-0.0016,-0.0643,9.8347,-0.0002,-0.0334,5.2201,0.0006,-0.0004
60852,-106.746,3.9677,-0.0105,-0.0924,-89.6252,-0.0009,-0.0672,10.2775,-0.0001,-0.0314,4.8028,0.0006,-0.0001
60868,-106.746,3.9677,-0.0105,-0.0924,-89.6252,-0.0009,-0.0672,10.2775,-0.0001,-0.0314,4.8028,0.0006,-0.0001
60884,-106.746,3.9677,-0.0105,-0.0924,-89.6252,-0.0009,-0.0672,10.2775,-0.0001,-0.0314,4.8028,0.0006,-0.0001
60900,-106.746,3.9677,-0.0105,-0.0924,-89.6252,-0.0009,-0.0672,10.2775,-0.0001,-0.0314,4.8028,0.0006,-0.0001
60916,-106.746,3.9677,-0.0105,-0.0924,-89.6252,-0.0009,-0.0672,10.2775,-0.0001,-0.0314,4.8028,0.0006,-0.0001
60933,-106.7522,4.9213,-0.0105,-0.086,-89.6251,-0.0005,-0.0699,10.6943,-0.0,-0.0302,4.5955,0.0005,-0.0002
60948,-106.7522,4.9213,-0.0105,-0.086,-89.6251,-0.0005,-0.0699,10.6943,-0.0,-0.0302,4.5955,0.0005,-0.0002
60964,-106.7522,4.9213,-0.0105,-0.086,-89.6251,-0.0005,-0.0699,10.6943,-0.0,-0.0302,4.5955,0.0005,-0.0002
60980,-106.7522,4.9213,-0.0105,-0.086,-89.6251,-0.0005,-0.0699,10.6943,-0.0,-0.0302,4.5955,0.0005,-0.0002
60996,-106.7522,4.9213,-0.0105,-0.086,-89.6251,-0.0005,-0.0699,10.6943,-0.0,-0.0302,4.5955,0.0005,-0.0002
61012,-106.7522,4.9213,-0.0105,-0.086,-89.6251,-0.0005,-0.0699,10.6943,-0.0,-0.0302,4.5955,0.0005,-0.0002
61029,-106.7588,5.9303,-0.0106,-0.0804,-89.6252,-0.0003,-0.0725,11.0894,-0.0,-0.0281,4.2753,0.0002,-0.0003
61044,-106.7588,5.9303,-0.0106,-0.0804,-89.6252,-0.0003,-0.0725,11.0894,-0.0,-0.0281,4.2753,0.0002,-0.0003
61060,-106.7588,5.9303,-0.0106,-0.0804,-89.6252,-0.0003,-0.0725,11.0894,-0.0,-0.0281,4.2753,0.0002,-0.0003
61076,-106.7588,5.9303,-0.0106,-0.0804,-89.6252,-0.0003,-0.0725,11.0894,-0.0,-0.0281,4.2753,0.0002,-0.0003
61092,-106.7588,5.9303,-0.0106,-0.0804,-89.6252,-0.0003,-0.0725,11.0894,-0.0,-0.0281,4.2753,0.0002,-0.0003
61108,-106.7588,5.9303,-0.0106,-0.0804,-89.6252,-0.0003,-0.0725,11.0894,-0.0,-0.0281,4.2753,0.0002,-0.0003
61124,-106.7656,6.9643,-0.0106,-0.0751,-89.6251,-0.0002,-0.0749,11.4538,-0.0,-0.0261,3.9799,0.0002,-0.0004
61140,-106.7656,6.9643,-0.0106,-0.0751,-89.6251,-0.0002,-0.0749,11.4538,-0.0,-0.0261,3.9799,0.0002,-0.0004
61156,-106.7656,6.9643,-0.0106,-0.0751,-89.6251,-0.0002,-0.0749,11.4538,-0.0,-0.0261,3.9799,0.0002,-0.0004
61172,-106.7656,6.9643,-0.0106,-0.0751,-89.6251,-0.0002,-0.0749,11.4538,-0.0,-0.0261,3.9799,0.0002,-0.0004
61188,-106.7656,6.9643,-0.0106,-0.0751,-89.6251,-0.0002,-0.0749,11.4538,-0.0,-0.0261,3.9799,0.0002,-0.0004
61204,-106.7726,8.0404,-0.0106,-0.0701,-89.6252,-0.0001,-0.0772,11.7948,-0.0,-0.0242,3.6901,0.0001,-0.0006
61220,-106.7726,8.0404,-0.0106,-0.0701,-89.6252,-0.0001,-0.0772,11.7948,-0.0,-0.0242,3.6901,0.0001,-0.0006
61236,-106.7726,8.0404,-0.0106,-0.0701,-89.6252,-0.0001,-0.0772,11.7948,-0.0,-0.0242,3.6901,0.0001,-0.0006
61252,-106.7726,8.0404,-0.0106,-0.0701,-89.6252,-0.0001,-0.0772,11.7948,-0.0,-0.0242,3.6901,0.0001,-0.0006
61268,-106.7726,8.0404,-0.0106,-0.0701,-89.6252,-0.0001,-0.0772,11.7948,-0.0,-0.0242,3.6901,0.0001,-0.0006
61284,-106.7726,8.0404,-0.0106,-0.0701,-89.6252,-0.0001,-0.0772,11.7948,-0.0,-0.0242,3.6901,0.0001,-0.0006
61300,-106.7726,8.0404,-0.0106,-0.0701,-89.6252,-0.0001,-0.0772,11.7948,-0.0,-0.0242,3.6901,0.0001,-0.0006
61316,-106.7803,9.2197,-0.0107,-0.065,-89.6252,-0.0001,-0.0794,12.1306,-0.0,-0.0224,3.4113,-0.0001,-0.002
61332,-106.7803,9.2197,-0.0107,-0.065,-89.6252,-0.0001,-0.0794,12.1306,-0.0,-0.0224,3.4113,-0.0001,-0.002
61348,-106.7803,9.2197,-0.0107,-0.065,-89.6252,-0.0001,-0.0794,12.1306,-0.0,-0.0224,3.4113,-0.0001,-0.002
61364,-106.7803,9.2197,-0.0107,-0.065,-89.6252,-0.0001,-0.0794,12.1306,-0.0,-0.0224,3.4113,-0.0001,-0.002
61380,-106.7803,9.2197,-0.0107,-0.065,-89.6252,-0.0001,-0.0794,12.1306,-0.0,-0.0224,3.4113,-0.0001,-0.002
61396,-106.7878,10.3625,-0.0107,-0.0607,-89.6252,-0.0,-0.0813,12.4269,-0.0,-0.0209,3.1886,0.0,-0.0016
61412,-106.7878,10.3625,-0.0107,-0.0607,-89.6252,-0.0,-0.0813,12.4269,-0.0,-0.0209,3.1886,0.0,-0.0016
61428,-106.7878,10.3625,-0.0107,-0.0607,-89.6252,-0.0,-0.0813,12.4269,-0.0,-0.0209,3.1886,0.0,-0.0016
61444,-106.7878,10.3625,-0.0107,-0.0607,-89.6252,-0.0,-0.0813,12.4269,-0.0,-0.0209,3.1886,0.0,-0.0016
61460,-106.7878,10.3625,-0.0107,-0.0607,-89.6252,-0.0,-0.0813,12.4269,-0.0,-0.0209,3.1886,0.0,-0.0016
61476,-106.7878,10.3625,-0.0107,-0.0607,-89.6252,-0.0,-0.0813,12.4269,-0.0,-0.0209,3.1886,0.0,-0.0016
61494,-106.7955,11.5374,-0.0107,-0.0567,-89.6252,-0.0,-0.0831,12.7016,-0.0,-0.0192,2.9407,0.0001,-0.0011
61508,-106.7955,11.5374,-0.0107,-0.0567,-89.6252,-0.0,-0.0831,12.7016,-0.0,-0.0192,2.9407,0.0001,-0.0011
61524,-106.7955,11.5374,-0.0107,-0.0567,-89.6252,-0.0,-0.0831,12.7016,-0.0,-0.0192,2.9407,0.0001,-0.0011
61540,-106.7955,11.5374,-0.0107,-0.0567,-89.6252,-0.0,-0.0831,12.7016,-0.0,-0.0192,2.9407,0.0001,-0.0011
61556,-106.7955,11.5374,-0.0107,-0.0567,-89.6252,-0.0,-0.0831,12.7016,-0.0,-0.0192,2.9407,0.0001,-0.0011
61572,-106.7955,11.5374,-0.0107,-0.0567,-89.6252,-0.0,-0.0831,12.7016,-0.0,-0.0192,2.9407,0.0001,-0.0011
61604,-106.803,12.6894,-0.0108,-0.0507,-89.6252,-0.0,-0.0844,12.9005,0.0,-0.0145,2.2135,0.0001,0.0029
61620,-106.803,12.6894,-0.0108,-0.0507,-89.6252,-0.0,-0.0844,12.9005,0.0,-0.0145,2.2135,0.0001,0.0029
61636,-106.803,12.6894,-0.0108,-0.0507,-89.6252,-0.0,-0.0844,12.9005,0.0,-0.0145,2.2135,0.0001,0.0029
61652,-106.803,12.6894,-0.0108,-0.0507,-89.6252,-0.0,-0.0844,12.9005,0.0,-0.0145,2.2135,0.0001,0.0029
61668,-106.803,12.6894,-0.0108,-0.0507,-89.6252,-0.0,-0.0844,12.9005,0.0,-0.0145,2.2135,0.0001,0.0029
61684,-106.8358,13.8861,-0.0109,-0.0353,-90.795,0.1098,-0.841,12.8936,0.0009,-8.1705,-0.0743,0.0101,-27.6389
61700,-106.8358,13.8861,-0.0109,-0.0353,-90.795,0.1098,-0.841,12.8936,0.0009,-8.1705,-0.0743,0.0101,-27.6389
61716,-106.8358,13.8861,-0.0109,-0.0353,-90.795,0.1098,-0.841,12.8936,0.0009,-8.1705,-0.0743,0.0101,-27.6389
61732,-106.8358,13.8861,-0.0109,-0.0353,-90.795,0.1098,-0.841,12.8936,0.0009,-8.1705,-0.0743,0.0101,-27.6389
61748,-106.8358,13.8861,-0.0109,-0.0353,-90.795,0.1098,-0.841,12.8936,0.0009,-8.1705,-0.0743,0.0101,-27.6389
61764,-106.8358,13.8861,-0.0109,-0.0353,-90.795,0.1098,-0.841,12.8936,0.0009,-8.1705,-0.0743,0.0101,-27.6389
61780,-106.9283,15.0766,-0.011,-0.0026,-95.6461,0.2479,-1.7592,12.6437,0.0012,-9.8319,-2.6764,0.0027,-73.8089
61796,-106.9283,15.0766,-0.011,-0.0026,-95.6461,0.2479,-1.7592,12.6437,0.0012,-9.8319,-2.6764,0.0027,-73.8089
61812,-106.9283,15.0766,-0.011,-0.0026,-95.6461,0.2479,-1.7592,12.6437,0.0012,-9.8319,-2.6764,0.0027,-73.8089
61828,-106.9283,15.0766,-0.011,-0.0026,-95.6461,0.2479,-1.7592,12.6437,0.0012,-9.8319,-2.6764,0.0027,-73.8089
61844,-106.9283,15.0766,-0.011,-0.0026,-95.6461,0.2479,-1.7592,12.6437,0.0012,-9.8319,-2.6764,0.0027,-73.8089
61860,-106.9283,15.0766,-0.011,-0.0026,-95.6461,0.2479,-1.7592,12.6437,0.0012,-9.8319,-2.6764,0.0027,-73.8089
61876,-107.0569,16.2611,-0.0111,0.027,-105.6219,0.2639,-2.2704,12.3564,0.0001,-5.3263,-2.9937,-0.0109,-129.545
61892,-107.0569,16.2611,-0.0111,0.027,-105.6219,0.2639,-2.2704,12.3564,0.0001,-5.3263,-2.9937,-0.0109,-129.545
61908,-107.0569,16.2611,-0.0111,0.027,-105.6219,0.2639,-2.2704,12.3564,0.0001,-5.3263,-2.9937,-0.0109,-129.545
61924,-107.0569,16.2611,-0.0111,0.027,-105.6219,0.2639,-2.2704,12.3564,0.0001,-5.3263,-2.9937,-0.0109,-129.545
61940,-107.0569,16.2611,-0.0111,0.027,-105.6219,0.2639,-2.2704,12.3564,0.0001,-5.3263,-2.9937,-0.0109,-129.545
61957,-107.0569,16.2611,-0.0111,0.027,-105.6219,0.2639,-2.2704,12.3564,0.0001,-5.3263,-2.9937,-0.0109,-129.545
61972,-107.165,17.4019,-0.0111,0.0185,-121.1702,0.1371,-2.003,12.2156,-0.001,2.7647,-1.4558,-0.0123,-184.8454
61988,-107.165,17.4019,-0.0111,0.0185,-121.1702,0.1371,-2.003,12.2156,-0.001,2.7647,-1.4558,-0.0123,-184.8454
62004,-107.165,17.4019,-0.0111,0.0185,-121.1702,0.1371,-2.003,12.2156,-0.001,2.7647,-1.4558,-0.0123,-184.8454
62020,-107.165,17.4019,-0.0111,0.0185,-121.1702,0.1371,-2.003,12.2156,-0.001,2.7647,-1.4558,-0.0123,-184.8454
62036,-107.165,17.4019,-0.0111,0.0185,-121.1702,0.1371,-2.003,12.2156,-0.001,2.7647,-1.4558,-0.0123,-184.8454
62054,-107.1741,18.4111,-0.0106,-0.0621,-139.1307,-0.1042,-0.4858,12.1961,-0.0,16.9474,-0.2178,0.0115,-209.9231
62068,-107.1741,18.4111,-0.0106,-0.0621,-139.1307,-0.1042,-0.4858,12.1961,-0.0,16.9474,-0.2178,0.0115,-209.9231
62084,-107.1741,18.4111,-0.0106,-0.0621,-139.1307,-0.1042,-0.4858,12.1961,-0.0,16.9474,-0.2178,0.0115,-209.9231
62100,-107.1741,18.4111,-0.0106,-0.0621,-139.1307,-0.1042,-0.4858,12.1961,-0.0,16.9474,-0.2178,0.0115,-209.9231
62116,-107.1741,18.4111,-0.0106,-0.0621,-139.1307,-0.1042,-0.4858,12.1961,-0.0,16.9474,-0.2178,0.0115,-209.9231
62132,-107.1741,18.4111,-0.0106,-0.0621,-139.1307,-0.1042,-0.4858,12.1961,-0.0,16.9474,-0.2178,0.0115,-209.9231
62148,-107.0412,19.3648,-0.0097,-0.1731,-158.6273,-0.3473,1.6023,11.6709,0.0021,23.1932,-5.8334,0.0231,-220.9658
62164,-107.0412,19.3648,-0.0097,-0.1731,-158.6273,-0.3473,1.6023,11.6709,0.0021,23.1932,-5.8334,0.0231,-220.9658
62180,-107.0412,19.3648,-0.0097,-0.1731,-158.6273,-0.3473,1.6023,11.6709,0.0021,23.1932,-5.8334,0.0231,-220.9658
62212,-107.0412,19.3648,-0.0097,-0.1731,-158.6273,-0.3473,1.6023,11.6709,0.0021,23.1932,-5.8334,0.0231,-220.9658
62228,-107.0412,19.3648,-0.0097,-0.1731,-158.6273,-0.3473,1.6023,11.6709,0.0021,23.1932,-5.8334,0.0231,-220.9658
62246,-106.7645,20.236,-0.0089,-0.2458,-179.9637,-0.621,3.1877,9.7258,0.0026,16.5487,-20.3029,0.0053,-223.1674
62260,-106.7645,20.236,-0.0089,-0.2458,-179.9637,-0.621,3.1877,9.7258,0.0026,16.5487,-20.3029,0.0053,-223.1674
62276,-106.7645,20.236,-0.0089,-0.2458,-179.9637,-0.621,3.1877,9.7258,0.0026,16.5487,-20.3029,0.0053,-223.1674
62292,-106.7645,20.236,-0.0089,-0.2458,-179.9637,-0.621,3.1877,9.7258,0.0026,16.5487,-20.3029,0.0053,-223.1674
62308,-106.7645,20.236,-0.0089,-0.2458,-179.9637,-0.621,3.1877,9.7258,0.0026,16.5487,-20.3029,0.0053,-223.1674
62324,-106.5228,20.8757,-0.0092,-0.1975,160.6237,-0.8322,2.3392,7.6383,-0.0023,-9.2599,-22.7821,-0.0532,-200.7369
62340,-106.5228,20.8757,-0.0092,-0.1975,160.6237,-0.8322,2.3392,7.6383,-0.0023,-9.2599,-22.7821,-0.0532,-200.7369
62356,-106.5228,20.8757,-0.0092,-0.1975,160.6237,-0.8322,2.3392,7.6383,-0.0023,-9.2599,-22.7821,-0.0532,-200.7369
62372,-106.5228,20.8757,-0.0092,-0.1975,160.6237,-0.8322,2.3392,7.6383,-0.0023,-9.2599,-22.7821,-0.0532,-200.7369
62388,-106.5228,20.8757,-0.0092,-0.1975,160.6237,-0.8322,2.3392,7.6383,-0.0023,-9.2599,-22.7821,-0.0532,-200.7369
62404,-106.5228,20.8757,-0.0092,-0.1975,160.6237,-0.8322,2.3392,7.6383,-0.0023,-9.2599,-22.7821,-0.0532,-200.7369
62421,-106.4664,21.3669,-0.0099,-0.0741,144.2971,-0.9458,0.4435,6.6215,0.002,-22.0363,-11.8191,0.0501,-174.9544
62436,-106.4664,21.3669,-0.0099,-0.0741,144.2971,-0.9458,0.4435,6.6215,0.002,-22.0363,-11.8191,0.0501,-174.9544
62452,-106.4664,21.3669,-0.0099,-0.0741,144.2971,-0.9458,0.4435,6.6215,0.002,-22.0363,-11.8191,0.0501,-174.9544
62468,-106.4664,21.3669,-0.0099,-0.0741,144.2971,-0.9458,0.4435,6.6215,0.002,-22.0363,-11.8191,0.0501,-174.9544
62484,-106.4664,21.3669,-0.0099,-0.0741,144.2971,-0.9458,0.4435,6.6215,0.002,-22.0363,-11.8191,0.0501,-174.9544
62500,-106.6037,21.9096,-0.0111,0.0892,131.14,-0.8506,-1.6974,7.1431,-0.0006,-23.8743,5.8158,-0.0295,-123.9393
62516,-106.6037,21.9096,-0.0111,0.0892,131.14,-0.8506,-1.6974,7.1431,-0.0006,-23.8743,5.8158,-0.0295,-123.9393
62532,-106.6037,21.9096,-0.0111,0.0892,131.14,-0.8506,-1.6974,7.1431,-0.0006,-23.8743,5.8158,-0.0295,-123.9393
62548,-106.6037,21.9096,-0.0111,0.0892,131.14,-0.8506,-1.6974,7.1431,-0.0006,-23.8743,5.8158,-0.0295,-123.9393
62564,-106.6037,21.9096,-0.0111,0.0892,131.14,-0.8506,-1.6974,7.1431,-0.0006,-23.8743,5.8158,-0.0295,-123.9393
62580,-106.6037,21.9096,-0.0111,0.0892,131.14,-0.8506,-1.6974,7.1431,-0.0006,-23.8743,5.8158,-0.0295,-123.9393
62597,-106.8498,22.5411,-0.0119,0.1864,121.9256,-0.5846,-2.3479,8.1217,-0.0021,-7.4714,11.2409,-0.0164,-97.517
62612,-106.8498,22.5411,-0.0119,0.1864,121.9256,-0.5846,-2.3479,8.1217,-0.0021,-7.4714,11.2409,-0.0164,-97.517
62628,-106.8498,22.5411,-0.0119,0.1864,121.9256,-0.5846,-2.3479,8.1217,-0.0021,-7.4714,11.2409,-0.0164,-97.517
62644,-106.8498,22.5411,-0.0119,0.1864,121.9256,-0.5846,-2.3479,8.1217,-0.0021,-7.4714,11.2409,-0.0164,-97.517
62660,-106.8498,22.5411,-0.0119,0.1864,121.9256,-0.5846,-2.3479,8.1217,-0.0021,-7.4714,11.2409,-0.0164,-97.517
62678,-107.078,23.2459,-0.0122,0.1958,113.7761,-0.2239,-1.779,8.9074,-0.0033,6.6768,9.2214,-0.0141,-95.5249
62692,-107.078,23.2459,-0.0122,0.1958,113.7761,-0.2239,-1.779,8.9074,-0.0033,6.6768,9.2214,-0.0141,-95.5249
62724,-107.078,23.2459,-0.0122,0.1958,113.7761,-0.2239,-1.779,8.9074,-0.0033,6.6768,9.2214,-0.0141,-95.5249
62740,-107.078,23.2459,-0.0122,0.1958,113.7761,-0.2239,-1.779,8.9074,-0.0033,6.6768,9.2214,-0.0141,-95.5249
62756,-107.078,23.2459,-0.0122,0.1958,113.7761,-0.2239,-1.779,8.9074,-0.0033,6.6768,9.2214,-0.0141,-95.5249
62772,-107.2748,24.0234,-0.0124,0.1765,107.1103,-0.0745,-1.9694,9.3893,-0.0022,-2.2108,5.5963,0.013,-55.2018
62788,-107.2748,24.0234,-0.0124,0.1765,107.1103,-0.0745,-1.9694,9.3893,-0.0022,-2.2108,5.5963,0.013,-55.2018
62804,-107.2748,24.0234,-0.0124,0.1765,107.1103,-0.0745,-1.9694,9.3893,-0.0022,-2.2108,5.5963,0.013,-55.2018
62820,-107.2748,24.0234,-0.0124,0.1765,107.1103,-0.0745,-1.9694,9.3893,-0.0022,-2.2108,5.5963,0.013,-55.2018
62836,-107.2748,24.0234,-0.0124,0.1765,107.1103,-0.0745,-1.9694,9.3893,-0.0022,-2.2108,5.5963,0.013,-55.2018
62853,-107.4917,24.8443,-0.0121,0.1349,104.4109,-0.1137,-2.3854,9.521,0.0001,-4.7609,1.5077,0.0259,-17.9086
62868,-107.4917,24.8443,-0.0121,0.1349,104.4109,-0.1137,-2.3854,9.521,0.0001,-4.7609,1.5077,0.0259,-17.9086
62884,-107.4917,24.8443,-0.0121,0.1349,104.4109,-0.1137,-2.3854,9.521,0.0001,-4.7609,1.5077,0.0259,-17.9086
62900,-107.4917,24.8443,-0.0121,0.1349,104.4109,-0.1137,-2.3854,9.521,0.0001,-4.7609,1.5077,0.0259,-17.9086
62916,-107.4917,24.8443,-0.0121,0.1349,104.4109,-0.1137,-2.3854,9.521,0.0001,-4.7609,1.5077,0.0259,-17.9086
62932,-107.4917,24.8443,-0.0121,0.1349,104.4109,-0.1137,-2.3854,9.521,0.0001,-4.7609,1.5077,0.0259,-17.9086
62949,-107.7142,25.7111,-0.0118,0.0933,103.6288,-0.0771,-2.3955,9.6494,-0.0001,-0.1113,1.4187,-0.002,-5.1394
62964,-107.7142,25.7111,-0.0118,0.0933,103.6288,-0.0771,-2.3955,9.6494,-0.0001,-0.1113,1.4187,-0.002,-5.1394
62980,-107.7142,25.7111,-0.0118,0.0933,103.6288,-0.0771,-2.3955,9.6494,-0.0001,-0.1113,1.4187,-0.002,-5.1394
62996,-107.7142,25.7111,-0.0118,0.0933,103.6288,-0.0771,-2.3955,9.6494,-0.0001,-0.1113,1.4187,-0.002,-5.1394
63012,-107.7142,25.7111,-0.0118,0.0933,103.6288,-0.0771,-2.3955,9.6494,-0.0001,-0.1113,1.4187,-0.002,-5.1394
63028,-107.7142,25.7111,-0.0118,0.0933,103.6288,-0.0771,-2.3955,9.6494,-0.0001,-0.1113,1.4187,-0.002,-5.1394
63044,-107.9395,26.6248,-0.0116,0.0609,103.4064,-0.0359,-2.3623,9.7342,-0.0002,0.3523,0.899,-0.0014,-1.9493
63060,-107.9395,26.6248,-0.0116,0.0609,103.4064,-0.0359,-2.3623,9.7342,-0.0002,0.3523,0.899,-0.0014,-1.9493
63076,-107.9395,26.6248,-0.0116,0.0609,103.4064,-0.0359,-2.3623,9.7342,-0.0002,0.3523,0.899,-0.0014,-1.9493
63092,-107.9395,26.6248,-0.0116,0.0609,103.4064,-0.0359,-2.3623,9.7342,-0.0002,0.3523,0.899,-0.0014,-1.9493
63108,-107.9395,26.6248,-0.0116,0.0609,103.4064,-0.0359,-2.3623,9.7342,-0.0002,0.3523,0.899,-0.0014,-1.9493
63126,-108.1507,27.501,-0.0115,0.0398,103.3515,-0.0146,-2.3434,9.7833,-0.0001,0.2109,0.5468,0.0011,0.4059
63140,-108.1507,27.501,-0.0115,0.0398,103.3515,-0.0146,-2.3434,9.7833,-0.0001,0.2109,0.5468,0.0011,0.4059
63156,-108.1507,27.501,-0.0115,0.0398,103.3515,-0.0146,-2.3434,9.7833,-0.0001,0.2109,0.5468,0.0011,0.4059
63172,-108.1507,27.501,-0.0115,0.0398,103.3515,-0.0146,-2.3434,9.7833,-0.0001,0.2109,0.5468,0.0011,0.4059
63188,-108.1507,27.501,-0.0115,0.0398,103.3515,-0.0146,-2.3434,9.7833,-0.0001,0.2109,0.5468,0.0011,0.4059
63204,-108.1507,27.501,-0.0115,0.0398,103.3515,-0.0146,-2.3434,9.7833,-0.0001,0.2109,0.5468,0.0011,0.4059
63222,-108.367,28.4073,-0.0114,0.0276,103.3306,-0.0049,-2.3425,9.8476,-0.0,0.0087,0.6963,0.001,0.5085
63236,-108.367,28.4073,-0.0114,0.0276,103.3306,-0.0049,-2.3425,9.8476,-0.0,0.0087,0.6963,0.001,0.5085
63252,-108.367,28.4073,-0.0114,0.0276,103.3306,-0.0049,-2.3425,9.8476,-0.0,0.0087,0.6963,0.001,0.5085
63268,-108.367,28.4073,-0.0114,0.0276,103.3306,-0.0049,-2.3425,9.8476,-0.0,0.0087,0.6963,0.001,0.5085
63284,-108.367,28.4073,-0.0114,0.0276,103.3306,-0.0049,-2.3425,9.8476,-0.0,0.0087,0.6963,0.001,0.5085
63300,-108.367,28.4073,-0.0114,0.0276,103.3306,-0.0049,-2.3425,9.8476,-0.0,0.0087,0.6963,0.001,0.5085
63316,-108.5819,29.3125,-0.0113,0.0205,103.3247,-0.0012,-2.3487,9.9022,0.0,-0.0666,0.5961,0.0003,0.5653
63332,-108.5819,29.3125,-0.0113,0.0205,103.3247,-0.0012,-2.3487,9.9022,0.0,-0.0666,0.5961,0.0003,0.5653
63348,-108.5819,29.3125,-0.0113,0.0205,103.3247,-0.0012,-2.3487,9.9022,0.0,-0.0666,0.5961,0.0003,0.5653
63364,-108.5819,29.3125,-0.0113,0.0205,103.3247,-0.0012,-2.3487,9.9022,0.0,-0.0666,0.5961,0.0003,0.5653
63380,-108.5819,29.3125,-0.0113,0.0205,103.3247,-0.0012,-2.3487,9.9022,0.0,-0.0666,0.5961,0.0003,0.5653
63396,-108.5819,29.3125,-0.0113,0.0205,103.3247,-0.0012,-2.3487,9.9022,0.0,-0.0666,0.5961,0.0003,0.5653
63412,-108.8141,30.292,-0.0113,0.0148,103.3234,0.0001,-2.3543,9.9381,0.0,-0.0574,0.3643,0.0002,0.7471
63428,-108.8141,30.292,-0.0113,0.0148,103.3234,0.0001,-2.3543,9.9381,0.0,-0.0574,0.3643,0.0002,0.7471
63444,-108.8141,30.292,-0.0113,0.0148,103.3234,0.0001,-2.3543,9.9381,0.0,-0.0574,0.3643,0.0002,0.7471
63460,-108.8141,30.292,-0.0113,0.0148,103.3234,0.0001,-2.3543,9.9381,0.0,-0.0574,0.3643,0.0002,0.7471
63476,-108.8141,30.292,-0.0113,0.0148,103.3234,0.0001,-2.3543,9.9381,0.0,-0.0574,0.3643,0.0002,0.7471
63492,-108.8141,30.292,-0.0113,0.0148,103.3234,0.0001,-2.3543,9.9381,0.0,-0.0574,0.3643,0.0002,0.7471
63508,-109.0259,31.1861,-0.0112,0.0115,103.3152,0.0003,-2.3613,9.9716,0.0,-0.0778,0.3724,-0.0001,-0.7806
63524,-109.0259,31.1861,-0.0112,0.0115,103.3152,0.0003,-2.3613,9.9716,0.0,-0.0778,0.3724,-0.0001,-0.7806
63540,-109.0259,31.1861,-0.0112,0.0115,103.3152,0.0003,-2.3613,9.9716,0.0,-0.0778,0.3724,-0.0001,-0.7806
63556,-109.0259,31.1861,-0.0112,0.0115,103.3152,0.0003,-2.3613,9.9716,0.0,-0.0778,0.3724,-0.0001,-0.7806
63572,-109.0259,31.1861,-0.0112,0.0115,103.3152,0.0003,-2.3613,9.9716,0.0,-0.0778,0.3724,-0.0001,-0.7806
63588,-109.0259,31.1861,-0.0112,0.0115,103.3152,0.0003,-2.3613,9.9716,0.0,-0.0778,0.3724,-0.0001,-0.7806
63604,-109.2556,32.1564,-0.0112,0.01,103.3153,0.0003,-2.3717,10.0173,0.0,-0.1069,0.471,-0.0,-0.7103
63620,-109.2556,32.1564,-0.0112,0.01,103.3153,0.0003,-2.3717,10.0173,0.0,-0.1069,0.471,-0.0,-0.7103
63636,-109.2556,32.1564,-0.0112,0.01,103.3153,0.0003,-2.3717,10.0173,0.0,-0.1069,0.471,-0.0,-0.7103
63652,-109.2556,32.1564,-0.0112,0.01,103.3153,0.0003,-2.3717,10.0173,0.0,-0.1069,0.471,-0.0,-0.7103
63668,-109.2556,32.1564,-0.0112,0.01,103.3153,0.0003,-2.3717,10.0173,0.0,-0.1069,0.471,-0.0,-0.7103
63684,-109.4727,33.0734,-0.0112,0.01,103.3157,0.0002,-2.3841,10.0706,0.0,-0.1361,0.5843,-0.0001,-0.5608
63700,-109.4727,33.0734,-0.0112,0.01,103.3157,0.0002,-2.3841,10.0706,0.0,-0.1361,0.5843,-0.0001,-0.5608
63716,-109.4727,33.0734,-0.0112,0.01,103.3157,0.0002,-2.3841,10.0706,0.0,-0.1361,0.5843,-0.0001,-0.5608
63732,-109.4727,33.0734,-0.0112,0.01,103.3157,0.0002,-2.3841,10.0706,0.0,-0.1361,0.5843,-0.0001,-0.5608
63748,-109.4727,33.0734,-0.0112,0.01,103.3157,0.0002,-2.3841,10.0706,0.0,-0.1361,0.5843,-0.0001,-0.5608
63764,-109.4727,33.0734,-0.0112,0.01,103.3157,0.0002,-2.3841,10.0706,0.0,-0.1361,0.5843,-0.0001,-0.5608
63781,-109.6874,33.9808,-0.0112,0.0089,103.3226,0.0002,-2.3907,10.0989,0.0,-0.0735,0.314,-0.0,0.7606
63796,-109.6874,33.9808,-0.0112,0.0089,103.3226,0.0002,-2.3907,10.0989,0.0,-0.0735,0.314,-0.0,0.7606
63812,-109.6874,33.9808,-0.0112,0.0089,103.3226,0.0002,-2.3907,10.0989,0.0,-0.0735,0.314,-0.0,0.7606
63828,-109.6874,33.9808,-0.0112,0.0089,103.3226,0.0002,-2.3907,10.0989,0.0,-0.0735,0.314,-0.0,0.7606
63844,-109.6874,33.9808,-0.0112,0.0089,103.3226,0.0002,-2.3907,10.0989,0.0,-0.0735,0.314,-0.0,0.7606
63860,-109.6874,33.9808,-0.0112,0.0089,103.3226,0.0002,-2.3907,10.0989,0.0,-0.0735,0.314,-0.0,0.7606
63878,-109.9109,34.9247,-0.0112,0.0087,103.322,0.0001,-2.4019,10.1461,-0.0,-0.1205,0.506,-0.0001,0.5955
63892,-109.9109,34.9247,-0.0112,0.0087,103.322,0.0001,-2.4019,10.1461,-0.0,-0.1205,0.506,-0.0001,0.5955
