timestamp,x,y,z,pitch,yaw,roll,vx,vy,vz,ax,ay,az,yaw_rate
28612,-106.6867,-4.8475,0.4747,0.0,-89.3578,0.0,0.0,0.0,-1.5211,0.0,0.0,-9.8,0.0
28628,-106.6867,-4.8475,0.4559,0.0,-89.3578,0.0,0.0,0.0,-1.6359,0.0,0.0,-9.8,0.0
28644,-106.6867,-4.8475,0.4559,0.0,-89.3578,0.0,0.0,0.0,-1.6359,0.0,0.0,-9.8,0.0
28660,-106.6867,-4.8475,0.4559,0.0,-89.3578,0.0,0.0,0.0,-1.6359,0.0,0.0,-9.8,0.0
28676,-106.6867,-4.8475,0.3763,0.0,-89.3578,0.0,0.0,0.0,-2.0494,0.0,0.0,-9.8,0.0
28692,-106.6867,-4.8475,0.3248,0.0,-89.3578,0.0,0.0,0.0,-2.2789,0.0,0.0,-9.8,0.0
28710,-106.6867,-4.8475,0.2688,0.0,-89.3578,0.0,0.0,0.0,-2.5046,0.0,0.0,-9.8,0.0
28724,-106.6867,-4.8475,0.2688,0.0,-89.3578,0.0,0.0,0.0,-2.5046,0.0,0.0,-9.8,0.0
28741,-106.6867,-4.8475,0.2096,0.0,-89.3578,0.0,0.0,0.0,-2.7234,0.0,0.0,-9.8,0.0
28756,-106.6867,-4.8475,0.1436,0.0,-89.3578,0.0,0.0,0.0,-2.9488,0.0,0.0,-9.8,0.0
28772,-106.6867,-4.8475,0.1436,0.0,-89.3578,0.0,0.0,0.0,-2.9488,0.0,0.0,-9.8,0.0
28790,-106.6867,-4.8475,0.0766,0.0,-89.3578,0.0,0.0,0.0,-3.1611,0.0,0.0,-9.8,0.0
28806,-106.6867,-4.8461,0.0159,-0.0021,-89.3578,0.0,-0.0012,0.1077,-2.4756,-0.0561,5.0003,31.821,-0.0
28820,-106.6867,-4.8461,0.0159,-0.0021,-89.3578,0.0,-0.0012,0.1077,-2.4756,-0.0561,5.0003,31.821,-0.0
28836,-106.6868,-4.8459,-0.0259,-0.0013,-89.3578,-0.0,0.0004,-0.04,-1.6634,0.0759,-6.7748,37.2632,0.0
28854,-106.6868,-4.8447,-0.0535,-0.0025,-89.3578,0.0,-0.0011,0.0994,-1.058,-0.0704,6.284,27.2955,0.0001
28868,-106.6868,-4.8434,-0.0704,-0.0031,-89.3578,0.0,-0.0006,0.0516,-0.6153,0.0238,-2.1219,19.6582,-0.0
28884,-106.6868,-4.8434,-0.0704,-0.0031,-89.3578,0.0,-0.0006,0.0516,-0.6153,0.0238,-2.1219,19.6582,-0.0
28902,-106.6868,-4.8416,-0.0795,-0.0039,-89.3578,-0.0,-0.001,0.0865,-0.2958,-0.0169,1.5063,13.8087,0.0003
28918,-106.6868,-4.8376,-0.0828,-0.008,-89.3634,-0.0,-0.0026,0.2774,-0.087,-0.0771,8.7907,9.6164,-0.2781
28932,-106.6869,-4.8288,-0.0825,-0.0172,-89.3649,-0.0001,-0.0048,0.4609,0.0542,-0.0995,8.469,6.5167,-0.0491
28948,-106.6869,-4.8288,-0.0825,-0.0172,-89.3649,-0.0001,-0.0048,0.4609,0.0542,-0.0995,8.469,6.5167,-0.0491
28965,-106.687,-4.8154,-0.0795,-0.0278,-89.3652,-0.0,-0.0068,0.6246,0.1517,-0.0862,7.0087,4.1758,-0.0076
28980,-106.6872,-4.7996,-0.0752,-0.0364,-89.3653,-0.0,-0.0079,0.7158,0.2072,-0.0477,4.0799,2.4797,-0.015
28996,-106.6872,-4.7996,-0.0752,-0.0364,-89.3653,-0.0,-0.0079,0.7158,0.2072,-0.0477,4.0799,2.4797,-0.015
29012,-106.6874,-4.7824,-0.0704,-0.0433,-89.365,-0.0,-0.0096,0.8609,0.235,-0.0803,6.9205,1.3277,0.015
29030,-106.6876,-4.7619,-0.065,-0.0493,-89.3644,0.0,-0.0108,0.9676,0.2469,-0.0577,4.8405,0.5365,-0.3047
29044,-106.6878,-4.7386,-0.059,-0.0548,-89.3701,-0.0001,-0.0114,1.0838,0.2698,-0.0232,5.2021,1.0272,-0.3494
29060,-106.6878,-4.7386,-0.059,-0.0548,-89.3701,-0.0001,-0.0114,1.0838,0.2698,-0.0232,5.2021,1.0272,-0.3494
29076,-106.6881,-4.7149,-0.0531,-0.0549,-89.3719,-0.0001,-0.0105,1.0104,0.2514,0.0365,-3.2032,-0.8036,0.0286
29094,-106.6884,-4.692,-0.0481,-0.0542,-89.3636,-0.0,-0.0128,1.1102,0.2286,-0.106,4.6821,-1.0671,0.5167
29108,-106.6887,-4.6688,-0.0434,-0.0507,-89.3576,0.0001,-0.0123,1.0403,0.2077,0.0196,-3.205,-0.9598,0.1491
29124,-106.6887,-4.6688,-0.0434,-0.0507,-89.3576,0.0001,-0.0123,1.0403,0.2077,0.0196,-3.205,-0.9598,0.1491
29140,-106.6889,-4.644,-0.0391,-0.0479,-89.3688,0.0001,-0.0136,1.1667,0.186,-0.0564,5.616,-0.962,-1.7148
29158,-106.6891,-4.6201,-0.0354,-0.0437,-89.3758,0.0001,-0.0127,1.0526,0.1644,0.044,-5.2295,-0.9912,0.4488
29173,-106.6891,-4.6201,-0.0354,-0.0437,-89.3758,0.0001,-0.0127,1.0526,0.1644,0.044,-5.2295,-0.9912,0.4488
29188,-106.6895,-4.5932,-0.032,-0.0435,-89.3689,0.0001,-0.0145,1.2366,0.145,-0.084,8.3144,-0.8757,0.2698
29206,-106.6897,-4.5667,-0.0291,-0.0413,-89.3776,0.0002,-0.0159,1.1881,0.127,-0.0638,-2.2182,-0.8243,-0.2601
29220,-106.6902,-4.5376,-0.0266,-0.0415,-89.3564,0.0003,-0.0161,1.3571,0.1108,-0.0107,7.5831,-0.7245,-0.1436
29236,-106.6902,-4.5376,-0.0266,-0.0415,-89.3564,0.0003,-0.0161,1.3571,0.1108,-0.0107,7.5831,-0.7245,-0.1436
29253,-106.6907,-4.5057,-0.0244,-0.0455,-89.3475,0.0001,-0.0143,1.4333,0.0961,0.0857,3.5375,-0.6826,-0.1973
29269,-106.691,-4.4714,-0.0224,-0.0494,-89.3514,-0.0001,-0.0169,1.6095,0.0836,-0.1211,8.1602,-0.5814,-0.1581
29284,-106.6914,-4.4359,-0.0208,-0.0508,-89.3417,-0.0001,-0.017,1.6079,0.0724,-0.005,-0.0717,-0.5124,0.6971
29300,-106.6914,-4.4359,-0.0208,-0.0508,-89.3417,-0.0001,-0.017,1.6079,0.0724,-0.005,-0.0717,-0.5124,0.6971
29317,-106.6918,-4.397,-0.0193,-0.0533,-89.3541,-0.0002,-0.0194,1.8009,0.0624,-0.1063,8.6373,-0.4473,0.5665
29332,-106.6922,-4.3541,-0.0179,-0.056,-89.3604,0.0,-0.021,1.7995,0.0535,-0.0698,-0.0598,-0.3889,0.5321
29348,-106.6922,-4.3541,-0.0179,-0.056,-89.3604,0.0,-0.021,1.7995,0.0535,-0.0698,-0.0598,-0.3889,0.5321
29364,-106.6929,-4.3118,-0.0169,-0.0576,-89.3382,0.0002,-0.024,1.9914,0.0455,-0.138,8.759,-0.3615,-0.4178
29382,-106.6936,-4.2654,-0.0159,-0.0616,-89.3194,0.0002,-0.0237,2.0923,0.039,0.0144,4.5603,-0.2934,0.7608
29396,-106.6941,-4.2155,-0.0151,-0.0679,-89.3255,0.0001,-0.0275,2.3956,0.0334,-0.1744,13.9365,-0.2585,-0.5923
29412,-106.6941,-4.2155,-0.0151,-0.0679,-89.3255,0.0001,-0.0275,2.3956,0.0334,-0.1744,13.9365,-0.2585,-0.5923
29430,-106.6947,-4.162,-0.0144,-0.0735,-89.3261,-0.0001,-0.0272,2.5388,0.0286,0.0157,6.5357,-0.2193,-1.2316
29445,-106.6951,-4.1028,-0.0138,-0.0756,-89.3444,-0.0004,-0.026,2.4914,0.0244,0.0514,-2.021,-0.18,-0.7532
29460,-106.6951,-4.1028,-0.0138,-0.0756,-89.3444,-0.0004,-0.026,2.4914,0.0244,0.0514,-2.021,-0.18,-0.7532
29476,-106.6956,-4.0441,-0.0133,-0.078,-89.377,-0.0004,-0.03,2.6988,0.0206,-0.1827,9.4026,-0.1722,-1.4512
29494,-106.6961,-3.9858,-0.0129,-0.0782,-89.3887,-0.0005,-0.0298,2.7519,0.0176,0.0107,2.486,-0.1411,-0.3828
29508,-106.6967,-3.9201,-0.0125,-0.0783,-89.396,-0.0005,-0.0314,2.9319,0.015,-0.0722,7.7663,-0.1102,-0.2896
29524,-106.6967,-3.9201,-0.0125,-0.0783,-89.396,-0.0005,-0.0314,2.9319,0.015,-0.0722,7.7663,-0.1102,-0.2896
29541,-106.6974,-3.8523,-0.0122,-0.0764,-89.4037,-0.0005,-0.0301,2.8845,0.0127,0.0558,-2.0355,-0.1018,-0.1166
29556,-106.6981,-3.7813,-0.012,-0.077,-89.4043,-0.0005,-0.0322,3.089,0.0106,-0.0888,8.8063,-0.0864,-0.0019
29572,-106.6981,-3.7813,-0.012,-0.077,-89.4043,-0.0005,-0.0322,3.089,0.0106,-0.0888,8.8063,-0.0864,-0.0019
29588,-106.6989,-3.711,-0.0118,-0.0767,-89.4049,-0.0005,-0.0331,3.1843,0.009,-0.0405,4.2561,-0.0746,0.0463
29606,-106.6996,-3.6385,-0.0116,-0.0776,-89.4058,-0.0005,-0.0351,3.3722,0.0076,-0.0886,8.4883,-0.0607,-0.0493
29620,-106.6996,-3.6385,-0.0116,-0.0776,-89.4058,-0.0005,-0.0351,3.3722,0.0076,-0.0886,8.4883,-0.0607,-0.0493
29636,-106.7004,-3.5668,-0.0114,-0.0786,-89.4057,-0.0005,-0.0353,3.3992,0.0065,-0.0095,1.2786,-0.0536,-0.1144
29653,-106.7012,-3.4885,-0.0113,-0.0819,-89.4046,-0.0005,-0.0376,3.6309,0.0056,-0.1058,10.5967,-0.0431,0.0548
29670,-106.702,-3.407,-0.0112,-0.0836,-89.4045,-0.0004,-0.0387,3.7312,0.0047,-0.0504,4.5321,-0.0379,0.2337
29684,-106.702,-3.407,-0.0112,-0.0836,-89.4045,-0.0004,-0.0387,3.7312,0.0047,-0.0504,4.5321,-0.0379,0.2337
29700,-106.7029,-3.3231,-0.011,-0.0861,-89.4063,-0.0004,-0.0408,3.9259,0.004,-0.0963,8.9227,-0.032,0.0132
29717,-106.7038,-3.2317,-0.011,-0.0875,-89.408,-0.0003,-0.0409,3.9638,0.0034,-0.005,1.6431,-0.0267,-0.5216
29732,-106.7048,-3.1409,-0.0109,-0.0901,-89.4059,-0.0002,-0.044,4.2056,0.0029,-0.1403,11.0135,-0.0238,-0.9185
29748,-106.7048,-3.1409,-0.0109,-0.0901,-89.4059,-0.0002,-0.044,4.2056,0.0029,-0.1403,11.0135,-0.0238,-0.9185
29766,-106.7058,-3.0413,-0.0108,-0.0902,-89.3996,-0.0002,-0.0437,4.2241,0.0024,0.0136,0.7847,-0.0194,0.4523
29782,-106.7068,-2.9423,-0.0107,-0.0923,-89.4075,-0.0003,-0.0459,4.4814,0.002,-0.0979,11.4618,-0.0173,0.7341
29796,-106.7068,-2.9423,-0.0107,-0.0923,-89.4075,-0.0003,-0.0459,4.4814,0.002,-0.0979,11.4618,-0.0173,0.7341
29812,-106.7077,-2.8434,-0.0107,-0.0928,-89.4168,-0.0003,-0.0465,4.5382,0.0017,-0.0281,2.5914,-0.0141,-0.7766
29830,-106.7089,-2.7382,-0.0107,-0.0947,-89.4126,-0.0002,-0.0493,4.7563,0.0015,-0.125,9.7176,-0.0115,-1.0651
29844,-106.7101,-2.6285,-0.0106,-0.0952,-89.4036,-0.0002,-0.05,4.8283,0.0012,-0.0302,3.1522,-0.01,0.6239
29860,-106.7101,-2.6285,-0.0106,-0.0952,-89.4036,-0.0002,-0.05,4.8283,0.0012,-0.0302,3.1522,-0.01,0.6239
29877,-106.7111,-2.5202,-0.0106,-0.097,-89.4079,-0.0002,-0.0517,5.0433,0.001,-0.0772,9.8694,-0.0088,0.8936
29894,-106.7122,-2.4082,-0.0105,-0.0985,-89.4132,-0.0002,-0.0529,5.1587,0.0009,-0.0571,5.2799,-0.0069,-0.3694
29908,-106.7122,-2.4082,-0.0105,-0.0985,-89.4132,-0.0002,-0.0529,5.1587,0.0009,-0.0571,5.2799,-0.0069,-0.3694
29924,-106.7135,-2.2935,-0.0105,-0.1013,-89.4101,-0.0001,-0.0557,5.3746,0.0008,-0.1263,9.9814,-0.0068,-0.7211
29942,-106.7148,-2.1654,-0.0105,-0.1031,-89.4026,-0.0001,-0.0568,5.4827,0.0006,-0.0501,4.6037,-0.0049,0.4293
29956,-106.716,-2.0459,-0.0105,-0.105,-89.4055,-0.0001,-0.0585,5.6842,0.0005,-0.0785,9.4631,-0.0048,0.694
29972,-106.716,-2.0459,-0.0105,-0.105,-89.4055,-0.0001,-0.0585,5.6842,0.0005,-0.0785,9.4631,-0.0048,0.694
29989,-106.7174,-1.9158,-0.0104,-0.1068,-89.408,-0.0001,-0.0602,5.8258,0.0005,-0.0737,6.2919,-0.0033,-0.1394
30006,-106.7187,-1.7853,-0.0104,-0.109,-89.4064,-0.0,-0.0625,6.024,0.0004,-0.1076,9.0506,-0.0032,-0.4447
30020,-106.7201,-1.6544,-0.0104,-0.1103,-89.4034,-0.0,-0.0638,6.1479,0.0003,-0.0622,5.7804,-0.0032,0.1584
30036,-106.7201,-1.6544,-0.0104,-0.1103,-89.4034,-0.0,-0.0638,6.1479,0.0003,-0.0622,5.7804,-0.0032,0.1584
30054,-106.7215,-1.519,-0.0104,-0.1122,-89.4048,0.0,-0.0658,6.3479,0.0003,-0.0896,9.2767,-0.0027,0.1791
30070,-106.723,-1.3779,-0.0104,-0.1138,-89.405,0.0,-0.0674,6.494,0.0002,-0.0734,6.6769,-0.001,-0.0053
30084,-106.723,-1.3779,-0.0104,-0.1138,-89.405,0.0,-0.0674,6.494,0.0002,-0.0734,6.6769,-0.001,-0.0053
30100,-106.7245,-1.2264,-0.0103,-0.1155,-89.4048,0.0,-0.0694,6.6861,0.0002,-0.0885,8.396,-0.0022,-0.0025
30117,-106.7261,-1.0716,-0.0103,-0.1157,-89.4048,0.0,-0.0707,6.806,0.0002,-0.0552,5.2456,-0.0008,0.0029
30134,-106.7278,-0.9145,-0.0103,-0.1154,-89.4048,0.0,-0.0724,6.9686,0.0001,-0.0747,7.1545,-0.001,0.0027
30148,-106.7278,-0.9145,-0.0103,-0.1154,-89.4048,0.0,-0.0724,6.9686,0.0001,-0.0747,7.1545,-0.001,0.0027
30165,-106.7294,-0.7592,-0.0103,-0.1141,-89.4048,0.0,-0.0735,7.0791,0.0001,-0.0524,5.0083,-0.001,0.0007
30182,-106.731,-0.5994,-0.0103,-0.1135,-89.4047,0.0,-0.0753,7.2513,0.0001,-0.0808,7.7503,-0.0009,0.0003
30197,-106.7327,-0.4375,-0.0103,-0.1128,-89.4047,0.0,-0.0767,7.3832,0.0001,-0.0623,5.9779,-0.0008,0.0004
30212,-106.7327,-0.4375,-0.0103,-0.1128,-89.4047,0.0,-0.0767,7.3832,0.0001,-0.0623,5.9779,-0.0008,0.0004
30230,-106.7344,-0.2743,-0.0103,-0.1126,-89.4047,0.0,-0.0784,7.5458,0.0001,-0.0778,7.4702,-0.0004,0.0001
30245,-106.7362,-0.106,-0.0103,-0.1122,-89.4047,0.0,-0.0798,7.6811,0.0001,-0.0639,6.1375,-0.0009,0.0002
30260,-106.7362,-0.106,-0.0103,-0.1122,-89.4047,0.0,-0.0798,7.6811,0.0001,-0.0639,6.1375,-0.0009,0.0002
30276,-106.7381,0.0742,-0.0103,-0.1119,-89.4047,0.0,-0.0815,7.8415,0.0001,-0.0721,6.9337,-0.0003,-0.0001
30293,-106.7399,0.25,-0.0103,-0.1112,-89.4047,0.0,-0.0828,7.9709,0.0,-0.0606,5.8328,-0.0009,0.0003
30308,-106.7399,0.25,-0.0103,-0.1112,-89.4047,0.0,-0.0828,7.9709,0.0,-0.0606,5.8328,-0.0009,0.0003
30324,-106.7418,0.4333,-0.0103,-0.1105,-89.4047,0.0,-0.0844,8.12,0.0,-0.0681,6.5678,0.0002,-0.0002
30341,-106.7438,0.6251,-0.0104,-0.1095,-89.4047,0.0,-0.0858,8.2535,0.0,-0.0596,5.7119,-0.001,0.0004
30356,-106.7438,0.6251,-0.0104,-0.1095,-89.4047,0.0,-0.0858,8.2535,0.0,-0.0596,5.7119,-0.001,0.0004
30372,-106.746,0.8342,-0.0104,-0.1084,-89.4047,0.0,-0.0874,8.4092,0.0,-0.0645,6.2206,0.0006,-0.0009
30389,-106.7481,1.0447,-0.0104,-0.1067,-89.4047,0.0,-0.0887,8.5356,0.0,-0.0531,5.0999,0.0,0.0015
30404,-106.7481,1.0447,-0.0104,-0.1067,-89.4047,0.0,-0.0887,8.5356,0.0,-0.0531,5.0999,0.0,0.0015
30420,-106.7501,1.2313,-0.0104,-0.1054,-89.4047,0.0,-0.09,8.667,0.0,-0.0631,6.0727,-0.0003,-0.0009
30437,-106.7521,1.425,-0.0104,-0.1041,-89.4047,0.0,-0.0913,8.7876,0.0,-0.0566,5.4468,-0.0001,0.0006
30454,-106.7541,1.617,-0.0104,-0.1028,-89.4047,0.0,-0.0926,8.9118,0.0,-0.0596,5.7419,-0.0004,-0.0007
30468,-106.7541,1.617,-0.0104,-0.1028,-89.4047,0.0,-0.0926,8.9118,0.0,-0.0596,5.7419,-0.0004,-0.0007
30484,-106.7562,1.8213,-0.0104,-0.1016,-89.4048,0.0,-0.0939,9.0353,0.0,-0.0564,5.4339,-0.0003,0.0005
30501,-106.7583,2.0243,-0.0104,-0.1003,-89.4048,0.0,-0.0951,9.1562,0.0,-0.0564,5.4272,0.0005,-0.0006
30516,-106.7604,2.2289,-0.0104,-0.0991,-89.4048,0.0,-0.0963,9.2729,-0.0,-0.0546,5.267,-0.0012,0.0004
30532,-106.7604,2.2289,-0.0104,-0.0991,-89.4048,0.0,-0.0963,9.2729,-0.0,-0.0546,5.267,-0.0012,0.0004
30550,-106.7626,2.4388,-0.0104,-0.0977,-89.4048,0.0,-0.0975,9.3895,-0.0,-0.0539,5.1978,-0.0,-0.0004
30565,-106.7648,2.6499,-0.0104,-0.0964,-89.4048,0.0,-0.0987,9.5031,0.0,-0.0529,5.0914,0.0011,0.0002
30580,-106.7648,2.6499,-0.0104,-0.0964,-89.4048,0.0,-0.0987,9.5031,0.0,-0.0529,5.0914,0.0011,0.0002
30596,-106.7672,2.8827,-0.0105,-0.0949,-89.4048,0.0,-0.1,9.6247,0.0,-0.052,5.007,-0.0,-0.0004
30614,-106.7695,3.0982,-0.0105,-0.0935,-89.4048,0.0,-0.1011,9.734,0.0,-0.0511,4.9153,-0.0001,0.0002
30628,-106.7695,3.0982,-0.0105,-0.0935,-89.4048,0.0,-0.1011,9.734,0.0,-0.0511,4.9153,-0.0001,0.0002
30644,-106.7717,3.3128,-0.0105,-0.0922,-89.4048,0.0,-0.1022,9.8399,0.0,-0.0503,4.8379,-0.0005,-0.0001
30662,-106.774,3.5343,-0.0105,-0.0907,-89.4048,0.0001,-0.1033,9.9463,-0.0,-0.0489,4.7622,-0.0002,0.0013
30676,-106.7763,3.7518,-0.0105,-0.0894,-89.4047,0.0001,-0.1044,10.0481,0.0,-0.0489,4.6861,0.0004,0.0004
30692,-106.7763,3.7518,-0.0105,-0.0894,-89.4047,0.0001,-0.1044,10.0481,0.0,-0.0489,4.6861,0.0004,0.0004
30708,-106.7786,3.9791,-0.0105,-0.088,-89.4047,0.0001,-0.1055,10.1518,0.0,-0.0481,4.6143,0.0002,0.0004
30726,-106.7809,4.2025,-0.0105,-0.0868,-89.4047,0.0001,-0.1065,10.2511,0.0,-0.0473,4.5438,-0.0004,0.0002
30740,-106.7833,4.4276,-0.0105,-0.0855,-89.4047,0.0001,-0.1075,10.3488,-0.0,-0.0467,4.476,-0.0015,0.0002
30756,-106.7833,4.4276,-0.0105,-0.0855,-89.4047,0.0001,-0.1075,10.3488,-0.0,-0.0467,4.476,-0.0015,0.0002
30773,-106.7857,4.6612,-0.0105,-0.0842,-89.4047,0.0001,-0.1085,10.4476,0.0,-0.0458,4.4092,0.0014,0.0001
30790,-106.7881,4.8869,-0.0105,-0.083,-89.4047,0.0001,-0.1095,10.5409,0.0,-0.0452,4.3437,0.0008,0.0001
30804,-106.7904,5.112,-0.0106,-0.0819,-89.4048,0.0001,-0.1105,10.6318,0.0,-0.0445,4.2817,-0.0005,0.0001
30820,-106.7904,5.112,-0.0106,-0.0819,-89.4048,0.0001,-0.1105,10.6318,0.0,-0.0445,4.2817,-0.0005,0.0001
30838,-106.7929,5.3491,-0.0106,-0.0806,-89.4047,0.0001,-0.1114,10.7254,0.0,-0.0439,4.2201,0.0001,0.0
30854,-106.7953,5.5827,-0.0106,-0.0795,-89.4047,0.0,-0.1124,10.8155,0.0,-0.0432,4.1585,-0.0002,0.0
30868,-106.7953,5.5827,-0.0106,-0.0795,-89.4047,0.0,-0.1124,10.8155,0.0,-0.0432,4.1585,-0.0002,0.0
30884,-106.7977,5.8143,-0.0106,-0.0784,-89.4047,0.0,-0.1133,10.9028,0.0,-0.0426,4.0993,0.0,0.0
30902,-106.8002,6.0534,-0.0106,-0.0772,-89.4047,0.0,-0.1142,10.991,0.0,-0.042,4.0412,0.0002,0.0
30917,-106.8028,6.3017,-0.0106,-0.0761,-89.4047,0.0001,-0.1151,11.0804,-0.0,-0.0413,3.9821,-0.0008,0.0
30932,-106.8028,6.3017,-0.0106,-0.0761,-89.4047,0.0001,-0.1151,11.0804,-0.0,-0.0413,3.9821,-0.0008,0.0
30948,-106.8052,6.5388,-0.0106,-0.075,-89.4047,0.0001,-0.116,11.164,-0.0,-0.0408,3.9247,-0.0004,0.0
30964,-106.8077,6.7802,-0.0106,-0.074,-89.4047,0.0,-0.1169,11.2472,0.0,-0.0403,3.8696,0.0011,-0.0
30980,-106.8104,7.0403,-0.0106,-0.0729,-89.4047,0.0,-0.1178,11.335,0.0,-0.0396,3.8133,0.0001,-0.0
30996,-106.8104,7.0403,-0.0106,-0.0729,-89.4047,0.0,-0.1178,11.335,0.0,-0.0396,3.8133,0.0001,-0.0
31014,-106.813,7.2835,-0.0106,-0.0719,-89.4047,0.0,-0.1186,11.4152,0.0,-0.039,3.7575,0.0,0.0
31030,-106.8157,7.5487,-0.0106,-0.0708,-89.4047,0.0,-0.1195,11.5008,0.0,-0.0385,3.7033,-0.0002,-0.0
31044,-106.8157,7.5487,-0.0106,-0.0708,-89.4047,0.0,-0.1195,11.5008,0.0,-0.0385,3.7033,-0.0002,-0.0
31060,-106.8183,7.8002,-0.0106,-0.0698,-89.4047,0.0,-0.1203,11.5802,0.0,-0.0379,3.6485,-0.0,-0.0
31078,-106.821,8.0559,-0.0107,-0.0688,-89.4047,0.0,-0.1211,11.6593,0.0,-0.0373,3.5963,0.0,-0.0
31092,-106.8238,8.3297,-0.0107,-0.0677,-89.4047,0.0,-0.122,11.7421,-0.0,-0.0368,3.5433,-0.0006,-0.0
31108,-106.8238,8.3297,-0.0107,-0.0677,-89.4047,0.0,-0.122,11.7421,-0.0,-0.0368,3.5433,-0.0006,-0.0
31126,-106.8266,8.5991,-0.0107,-0.0668,-89.4047,0.0,-0.1228,11.8218,-0.0,-0.0362,3.4896,-0.0008,-0.0
31142,-106.8293,8.8595,-0.0107,-0.0659,-89.4047,0.0,-0.1236,11.8973,-0.0,-0.0357,3.4385,0.0011,-0.0
31156,-106.8293,8.8595,-0.0107,-0.0659,-89.4047,0.0,-0.1236,11.8973,-0.0,-0.0357,3.4385,0.0011,-0.0
31172,-106.8323,9.1464,-0.0107,-0.0648,-89.4047,0.0,-0.1244,11.9786,0.0,-0.0352,3.3872,0.0006,-0.0
31189,-106.8353,9.4364,-0.0107,-0.0638,-89.4047,0.0,-0.1253,12.0589,0.0,-0.0346,3.3339,-0.0004,-0.0
31205,-106.8381,9.7071,-0.0107,-0.0629,-89.4047,0.0,-0.126,12.1323,0.0,-0.0341,3.283,-0.0001,-0.0
31220,-106.8381,9.7071,-0.0107,-0.0629,-89.4047,0.0,-0.126,12.1323,0.0,-0.0341,3.283,-0.0001,-0.0
31238,-106.8409,9.9716,-0.0107,-0.0621,-89.4048,0.0,-0.1268,12.2026,0.0,-0.0336,3.2356,0.0001,-0.0
31254,-106.8436,10.2348,-0.0107,-0.0612,-89.4048,0.0,-0.1275,12.2711,-0.0,-0.0331,3.1899,-0.0002,-0.0
31268,-106.8436,10.2348,-0.0107,-0.0612,-89.4048,0.0,-0.1275,12.2711,-0.0,-0.0331,3.1899,-0.0002,-0.0
31284,-106.8464,10.4986,-0.0107,-0.0604,-89.4048,0.0,-0.1282,12.3385,0.0,-0.0327,3.1452,0.0,-0.0
31301,-106.8492,10.7744,-0.0107,-0.0595,-89.4048,0.0,-0.1289,12.4076,-0.0,-0.0322,3.1004,-0.0004,-0.0
31316,-106.8522,11.0573,-0.0107,-0.0587,-89.4047,0.0,-0.1296,12.4769,-0.0,-0.0318,3.0549,0.0004,0.0
31332,-106.8522,11.0573,-0.0107,-0.0587,-89.4047,0.0,-0.1296,12.4769,-0.0,-0.0318,3.0549,0.0004,0.0
31350,-106.8551,11.3434,-0.0107,-0.0578,-89.4047,0.0,-0.1303,12.5457,0.0,-0.0313,3.0094,0.0005,-0.0
31366,-106.858,11.6202,-0.0107,-0.057,-89.4047,0.0,-0.131,12.6109,0.0,-0.0308,2.9651,-0.0003,-0.0
31380,-106.858,11.6202,-0.0107,-0.057,-89.4047,0.0,-0.131,12.6109,0.0,-0.0308,2.9651,-0.0003,-0.0
31396,-106.8609,11.8939,-0.0107,-0.0562,-89.4047,0.0,-0.1317,12.672,0.0,-0.0294,2.8269,-0.0001,-0.0
31413,-106.8638,12.178,-0.0108,-0.0552,-89.4047,0.0,-0.1323,12.73,0.0,-0.027,2.5932,0.0,-0.0
31428,-106.8667,12.459,-0.0108,-0.054,-89.4047,0.0,-0.1328,12.7823,-0.0,-0.0247,2.3752,-0.0007,-0.0
31444,-106.8667,12.459,-0.0108,-0.054,-89.4047,0.0,-0.1328,12.7823,-0.0,-0.0247,2.3752,-0.0007,-0.0
31462,-106.8698,12.7493,-0.0108,-0.0526,-89.4047,-0.0,-0.1333,12.8316,0.0,-0.0226,2.1766,0.0009,-0.0
31479,-106.8726,13.0232,-0.0108,-0.0511,-89.4047,0.0,-0.1338,12.874,-0.0,-0.0207,1.9904,-0.0012,-0.0
31492,-106.8726,13.0232,-0.0108,-0.0511,-89.4047,0.0,-0.1338,12.874,-0.0,-0.0207,1.9904,-0.0012,-0.0
31508,-106.8757,13.3223,-0.0108,-0.0492,-89.4047,0.0,-0.1342,12.9164,0.0,-0.0189,1.828,0.0008,-0.0
31525,-106.8788,13.6234,-0.0108,-0.0471,-89.4047,0.0,-0.1346,12.9552,0.0,-0.0174,1.6688,0.0004,-0.0
31540,-106.8817,13.9035,-0.0108,-0.0452,-89.4048,0.0,-0.1349,12.988,-0.0,-0.0158,1.5195,-0.0005,-0.0
31556,-106.8817,13.9035,-0.0108,-0.0452,-89.4048,0.0,-0.1349,12.988,-0.0,-0.0158,1.5195,-0.0005,-0.0
31572,-106.8847,14.192,-0.0108,-0.0431,-89.4047,0.0,-0.1353,13.0189,-0.0,-0.0145,1.3927,-0.0003,-0.0
31590,-106.8878,14.4844,-0.0109,-0.041,-89.4047,-0.0,-0.1356,13.0475,-0.0,-0.0133,1.2755,-0.0002,-0.0
31606,-106.8908,14.7791,-0.0109,-0.0389,-89.4047,0.0,-0.1358,13.0738,0.0,-0.0121,1.1663,0.001,-0.0
31638,-106.8939,15.073,-0.0109,-0.0367,-89.4047,0.0,-0.1361,13.0977,0.0,-0.0111,1.0654,-0.0,-0.0
31652,-106.8978,15.3693,-0.0109,-0.0345,-89.442,0.0064,-0.2174,13.1135,0.0,-3.5976,0.6997,0.001,-2.7841
31668,-106.8978,15.3693,-0.0109,-0.0345,-89.442,0.0064,-0.2174,13.1135,0.0,-3.5976,0.6997,0.001,-2.7841
31685,-106.9039,15.6576,-0.0109,-0.032,-89.5769,0.0244,-0.3671,13.1127,0.0002,-6.8082,-0.0382,0.0081,-7.9978
31701,-106.9138,15.9694,-0.0109,-0.0283,-89.886,0.056,-0.5786,13.0924,0.0005,-8.8882,-0.8538,0.0122,-15.6389
31716,-106.9138,15.9694,-0.0109,-0.0283,-89.886,0.056,-0.5786,13.0924,0.0005,-8.8882,-0.8538,0.0122,-15.6389
31732,-106.9263,16.2515,-0.011,-0.024,-90.3395,0.0901,-0.7916,13.0585,0.0008,-9.8695,-1.5687,0.0137,-23.7832
31750,-106.9428,16.5429,-0.011,-0.0185,-91.0123,0.1284,-1.0234,13.0093,0.001,-10.3537,-2.199,0.0105,-33.2816
31764,-106.9622,16.8253,-0.011,-0.0122,-91.8825,0.1647,-1.248,12.9506,0.0012,-10.314,-2.6957,0.0068,-43.3385
31780,-106.9622,16.8253,-0.011,-0.0122,-91.8825,0.1647,-1.248,12.9506,0.0012,-10.314,-2.6957,0.0068,-43.3385
31798,-106.9858,17.118,-0.011,-0.0049,-93.0363,0.1995,-1.4746,12.8804,0.0012,-9.9747,-3.0921,0.0031,-54.5927
31814,-107.0127,17.4123,-0.011,0.0031,-94.4761,0.2293,-1.6879,12.8034,0.0012,-9.2752,-3.3481,-0.0014,-66.6494
31828,-107.0127,17.4123,-0.011,0.0031,-94.4761,0.2293,-1.6879,12.8034,0.0012,-9.2752,-3.3481,-0.0014,-66.6494
31844,-107.0413,17.6976,-0.0111,0.0109,-96.1566,0.2513,-1.8739,12.7259,0.0011,-8.2796,-3.449,-0.005,-78.9383
31862,-107.0722,17.9852,-0.0111,0.0185,-98.1563,0.2659,-2.0362,12.6473,0.0009,-7.1089,-3.4397,-0.0088,-91.8869
31876,-107.0722,17.9852,-0.0111,0.0185,-98.1563,0.2659,-2.0362,12.6473,0.0009,-7.1089,-3.4397,-0.0088,-91.8869
31892,-107.1058,18.2842,-0.0111,0.0258,-100.5821,0.2723,-2.1736,12.5677,0.0007,-5.7304,-3.3237,-0.0104,-105.8856
31910,-107.1367,18.5548,-0.0112,0.0311,-103.0913,0.2698,-2.2621,12.5013,0.0004,-4.0406,-3.0276,-0.0134,-118.8535
31924,-107.1669,18.8206,-0.0112,0.0348,-105.8624,0.2596,-2.3148,12.442,0.0001,-2.4258,-2.7299,-0.0124,-131.8642
31940,-107.1669,18.8206,-0.0112,0.0348,-105.8624,0.2596,-2.3148,12.442,0.0001,-2.4258,-2.7299,-0.0124,-131.8642
31956,-107.1975,19.0977,-0.0112,0.0367,-109.0958,0.2409,-2.3322,12.3867,-0.0002,-0.7589,-2.4158,-0.0137,-145.7182
31974,-107.2256,19.3665,-0.0112,0.0363,-112.5763,0.2156,-2.3073,12.341,-0.0005,1.1051,-2.033,-0.013,-159.3126
31988,-107.25,19.62,-0.0112,0.0334,-116.1818,0.186,-2.2439,12.3049,-0.0008,2.9552,-1.6783,-0.0121,-172.2281
32004,-107.25,19.62,-0.0112,0.0334,-116.1818,0.186,-2.2439,12.3049,-0.0008,2.9552,-1.6783,-0.0121,-172.2281
32022,-107.2716,19.8797,-0.0112,0.0268,-120.1894,0.1474,-2.0868,12.294,-0.001,7.0579,-0.4924,-0.0099,-183.6936
32036,-107.2889,20.163,-0.0111,0.013,-124.8596,0.092,-1.7934,12.3049,-0.0013,11.9609,0.4445,-0.0125,-193.3884
32052,-107.2889,20.163,-0.0111,0.013,-124.8596,0.092,-1.7934,12.3049,-0.0013,11.9609,0.4445,-0.0125,-193.3884
32070,-107.2977,20.4334,-0.011,-0.0065,-129.5519,0.0299,-1.4181,12.3139,-0.0017,15.8619,0.3837,-0.015,-200.6211
32086,-107.2979,20.6861,-0.0109,-0.0294,-134.1213,-0.0334,-1.0004,12.3056,-0.0014,18.6776,-0.372,0.0134,-206.0444
32101,-107.2979,20.6861,-0.0109,-0.0294,-134.1213,-0.0334,-1.0004,12.3056,-0.0014,18.6776,-0.372,0.0134,-206.0444
32116,-107.2896,20.932,-0.0107,-0.055,-138.7249,-0.0977,-0.544,12.2714,-0.0001,20.7186,-1.5545,0.0586,-210.3755
32134,-107.2723,21.176,-0.0105,-0.0828,-143.4442,-0.1625,-0.0531,12.2044,0.0008,22.1333,-3.0193,0.0405,-213.8942
32148,-107.2435,21.4326,-0.0102,-0.1137,-148.5746,-0.2306,0.4962,12.091,0.0015,23.127,-4.7761,0.0281,-216.9948
32164,-107.2435,21.4326,-0.0102,-0.1137,-148.5746,-0.2306,0.4962,12.091,0.0015,23.127,-4.7761,0.0281,-216.9948
32182,-107.2054,21.677,-0.01,-0.1432,-153.6324,-0.2928,1.0442,11.9343,0.0019,23.6975,-6.7746,0.0165,-219.5249
32197,-107.1587,21.9097,-0.0097,-0.1709,-158.6248,-0.3495,1.5829,11.7349,0.0021,23.8483,-8.8286,0.0077,-221.7328
32212,-107.1587,21.9097,-0.0097,-0.1709,-158.6248,-0.3495,1.5829,11.7349,0.0021,23.8483,-8.8286,0.0077,-221.7328
32246,-107.0443,22.3355,-0.0093,-0.2188,-168.3045,-0.4465,2.5926,11.2251,0.0021,23.1022,-12.7607,-0.002,-225.7634
32262,-106.9798,22.527,-0.0091,-0.2382,-172.9467,-0.4898,3.012,10.8774,0.0021,20.4648,-16.9666,0.0021,-226.7455
32276,-106.9798,22.527,-0.0091,-0.2382,-172.9467,-0.4898,3.012,10.8774,0.0021,20.4648,-16.9666,0.0021,-226.7455
32292,-106.9076,22.7174,-0.0089,-0.254,-177.8213,-0.5401,3.3538,10.4218,0.0022,15.9586,-21.2728,0.0026,-228.0196
32310,-106.8366,22.8872,-0.0088,-0.2651,177.5615,-0.5898,3.6117,9.9451,0.0022,12.7721,-23.603,0.0014,-228.9122
32326,-106.7645,23.0461,-0.0087,-0.2729,172.9552,-0.6408,3.8022,9.435,0.0022,9.4811,-25.3886,0.0004,-229.4104
32340,-106.6918,23.1955,-0.0086,-0.2777,168.3161,-0.6928,3.9235,8.8955,0.0022,5.9986,-26.6865,-0.0012,-229.4609
32356,-106.6918,23.1955,-0.0086,-0.2777,168.3161,-0.6928,3.9235,8.8955,0.0022,5.9986,-26.6865,-0.0012,-229.4609
32372,-106.6227,23.3368,-0.0086,-0.2741,163.7312,-0.741,3.7107,8.4546,0.0021,-10.485,-21.7219,-0.0042,-222.356
32390,-106.5618,23.4743,-0.0087,-0.2584,159.2949,-0.7786,3.3893,8.0635,-0.0008,-15.6196,-19.01,-0.1433,-212.4041
32405,-106.5068,23.6138,-0.0089,-0.2355,154.7967,-0.8148,3.0104,7.6732,-0.0006,-17.3759,-17.8987,0.0125,-203.4433
32421,-106.5068,23.6138,-0.0089,-0.2355,154.7967,-0.8148,3.0104,7.6732,-0.0006,-17.3759,-17.8987,0.0125,-203.4433
32436,-106.4653,23.7406,-0.009,-0.2084,150.7154,-0.8487,2.5677,7.3701,0.0032,-21.5521,-14.7516,0.1829,-196.3782
32453,-106.4349,23.863,-0.0092,-0.177,146.7834,-0.8811,2.099,7.1237,0.0025,-22.9609,-12.0757,-0.0346,-190.9487
32469,-106.4155,23.9842,-0.0094,-0.1438,142.9214,-0.9082,1.5892,6.9469,0.0019,-24.7273,-8.5765,-0.0268,-185.1394
32484,-106.4077,24.1065,-0.0096,-0.108,139.2032,-0.9246,1.0553,6.8876,0.0014,-25.7289,-2.854,-0.0244,-175.9235
32500,-106.4077,24.1065,-0.0096,-0.108,139.2032,-0.9246,1.0553,6.8876,0.0014,-25.7289,-2.854,-0.0244,-175.9235
32516,-106.411,24.2305,-0.0099,-0.0702,135.7207,-0.9279,0.5252,6.9221,0.0009,-25.6903,1.6724,-0.0242,-165.083
32535,-106.4246,24.3528,-0.0102,-0.0302,132.6337,-0.9193,0.0308,7.0201,0.0005,-25.1148,4.9738,-0.0209,-154.0323
32548,-106.4246,24.3528,-0.0102,-0.0302,132.6337,-0.9193,0.0308,7.0201,0.0005,-25.1148,4.9738,-0.0209,-154.0323
32564,-106.4546,24.5167,-0.0105,0.018,128.9875,-0.8979,-0.5643,7.2015,-0.0001,-23.5009,7.1673,-0.0224,-138.7738
32582,-106.4953,24.6829,-0.0109,0.0609,125.8457,-0.8679,-1.0708,7.4224,-0.0005,-20.7162,9.0353,-0.0171,-123.418
32597,-106.5375,24.833,-0.0111,0.093,123.4077,-0.8328,-1.403,7.6454,-0.0008,-15.7491,10.5701,-0.0157,-111.9853
32612,-106.5375,24.833,-0.0111,0.093,123.4077,-0.8328,-1.403,7.6454,-0.0008,-15.7491,10.5701,-0.0157,-111.9853
32628,-106.5846,24.9922,-0.0113,0.1206,121.117,-0.78,-1.585,7.8869,-0.0012,-8.4738,11.2442,-0.0174,-104.4676
32645,-106.6369,25.1703,-0.0115,0.1435,118.7834,-0.7028,-1.6472,8.1366,-0.0016,-2.6923,10.8073,-0.0169,-99.5959
32660,-106.6369,25.1703,-0.0115,0.1435,118.7834,-0.7028,-1.6472,8.1366,-0.0016,-2.6923,10.8073,-0.0169,-99.5959
32676,-106.6876,25.3509,-0.0117,0.159,116.5713,-0.6135,-1.604,8.3644,-0.002,1.9097,10.0747,-0.0209,-97.0989
32692,-106.739,25.5488,-0.0118,0.1692,114.2591,-0.5083,-1.4793,8.5872,-0.0025,5.1845,9.2665,-0.021,-95.8495
32708,-106.739,25.5488,-0.0118,0.1692,114.2591,-0.5083,-1.4793,8.5872,-0.0025,5.1845,9.2665,-0.021,-95.8495
32726,-106.7879,25.7585,-0.012,0.1742,111.8954,-0.3971,-1.2908,8.7952,-0.003,7.6169,8.4031,-0.0174,-95.397
32756,-106.8318,25.9747,-0.0121,0.175,109.5231,-0.288,-1.0556,8.9834,-0.0033,9.4515,7.5642,-0.0114,-95.405
32773,-106.8714,26.1984,-0.0121,0.174,107.1924,-0.1937,-0.9238,9.1758,-0.0034,5.249,7.6585,-0.0043,-90.8637
32788,-106.9083,26.4222,-0.0122,0.1725,105.1207,-0.1335,-0.9382,9.3402,-0.0032,-0.587,6.7069,0.0079,-80.8458
32804,-106.9083,26.4222,-0.0122,0.1725,105.1207,-0.1335,-0.9382,9.3402,-0.0032,-0.587,6.7069,0.0079,-80.8458
32822,-106.9446,26.6455,-0.0122,0.1691,103.3891,-0.106,-1.0539,9.457,-0.0027,-4.8155,4.8579,0.0212,-67.4059
32836,-106.9827,26.8715,-0.0123,0.163,102.022,-0.1056,-1.2513,9.5203,-0.002,-8.2156,2.6342,0.0288,-51.4991
32852,-106.9827,26.8715,-0.0123,0.163,102.022,-0.1056,-1.2513,9.5203,-0.002,-8.2156,2.6342,0.0288,-51.4991
32870,-107.0234,27.1013,-0.0122,0.1539,101.0157,-0.12,-1.4303,9.5632,-0.0011,-7.3907,1.7714,0.0367,-36.9724
32884,-107.0655,27.3348,-0.0122,0.1431,100.2986,-0.1321,-1.5405,9.6091,-0.0004,-4.5076,1.8783,0.0279,-25.889
32900,-107.0655,27.3348,-0.0122,0.1431,100.2986,-0.1321,-1.5405,9.6091,-0.0004,-4.5076,1.8783,0.0279,-25.889
32918,-107.1097,27.5805,-0.0121,0.1312,99.7845,-0.1355,-1.5993,9.6568,-0.0,-2.3002,1.8648,0.0141,-17.5476
32934,-107.1097,27.5805,-0.0121,0.1312,99.7845,-0.1355,-1.5993,9.6568,-0.0,-2.3002,1.8648,0.0141,-17.5476
32948,-107.1531,27.8257,-0.012,0.1195,99.4404,-0.1298,-1.6206,9.7013,0.0,-0.8416,1.7577,0.0037,-11.8205
32967,-107.195,28.0719,-0.0111,0.15,99.2112,0.0074,-1.6299,9.7389,0.0411,-0.3678,1.4847,1.6216,-7.8878
32980,-107.195,28.0719,-0.0111,0.15,99.2112,0.0074,-1.6299,9.7389,0.0411,-0.3678,1.4847,1.6216,-7.8878
32998,-107.2371,28.3155,-0.0111,0.1309,99.0566,-0.0229,-1.6221,9.7637,-0.0151,0.3133,0.9936,-2.2461,-5.5774
33013,-107.2796,28.5684,-0.0113,0.1081,98.9516,-0.046,-1.6019,9.7998,-0.0101,0.7793,1.3946,0.1919,-3.2289
33028,-107.2796,28.5684,-0.0113,0.1081,98.9516,-0.046,-1.6019,9.7998,-0.0101,0.7793,1.3946,0.1919,-3.2289
33046,-107.3188,28.8069,-0.0113,0.0923,98.8794,-0.049,-1.5868,9.8255,-0.007,0.6212,1.0543,0.1271,-2.9784
33060,-107.3575,29.0463,-0.0114,0.0798,98.8375,-0.045,-1.5742,9.8466,-0.005,0.5199,0.8695,0.0819,-1.0522
33076,-107.3575,29.0463,-0.0114,0.0798,98.8375,-0.045,-1.5742,9.8466,-0.005,0.5199,0.8695,0.0819,-1.0522
33094,-107.3988,29.3044,-0.0114,0.0689,98.7967,-0.038,-1.5646,9.8722,-0.0036,0.3669,0.9769,0.0549,-2.0558
33108,-107.3988,29.3044,-0.0114,0.0689,98.7967,-0.038,-1.5646,9.8722,-0.0036,0.3669,0.9769,0.0549,-2.0558
33124,-107.4409,29.5717,-0.0114,0.0595,98.7849,-0.0306,-1.5546,9.881,-0.0026,0.3696,0.3242,0.0384,0.5827
33141,-107.4804,29.8225,-0.0114,0.0523,98.7619,-0.0247,-1.5504,9.9049,-0.0018,0.1652,0.9452,0.03,-1.5819
33156,-107.4804,29.8225,-0.0114,0.0523,98.7619,-0.0247,-1.5504,9.9049,-0.0018,0.1652,0.9452,0.03,-1.5819
33174,-107.5192,30.0717,-0.0114,0.0463,98.7635,-0.0197,-1.546,9.9181,-0.0013,0.1763,0.5243,0.02,0.9135
33188,-107.5567,30.3118,-0.0114,0.0414,98.7491,-0.0158,-1.5438,9.9342,-0.0009,0.0869,0.6662,0.0148,-1.264
33204,-107.5567,30.3118,-0.0114,0.0414,98.7491,-0.0158,-1.5438,9.9342,-0.0009,0.0869,0.6662,0.0148,-1.264
33221,-107.5963,30.5686,-0.0111,0.0227,98.7561,0.0066,-1.5408,9.9474,0.0174,0.1196,0.5085,0.7078,1.1738
33237,-107.6344,30.8161,-0.0104,-0.0186,98.7428,0.0538,-1.544,9.9608,0.0184,-0.1318,0.5407,0.0411,-1.333
33252,-107.6344,30.8161,-0.0104,-0.0186,98.7428,0.0538,-1.544,9.9608,0.0184,-0.1318,0.5407,0.0411,-1.333
33270,-107.6724,31.0613,-0.0105,-0.0108,98.7562,0.0332,-1.5436,9.9818,-0.0173,0.0159,0.8558,-1.4546,1.0402
33284,-107.6724,31.0613,-0.0105,-0.0108,98.7562,0.0332,-1.5436,9.9818,-0.0173,0.0159,0.8558,-1.4546,1.0402
33300,-107.7135,31.3257,-0.011,0.017,98.7481,-0.0033,-1.5408,9.9988,-0.0116,0.1075,0.6414,0.2167,-1.2597
33317,-107.7508,31.5676,-0.0113,0.0292,98.7591,-0.016,-1.5409,10.0108,-0.0071,-0.0039,0.4975,0.1868,1.1383
33332,-107.7508,31.5676,-0.0113,0.0292,98.7591,-0.016,-1.5409,10.0108,-0.0071,-0.0039,0.4975,0.1868,1.1383
33350,-107.7884,31.8117,-0.0115,0.0346,98.7519,-0.0203,-1.5428,10.0239,-0.0042,-0.0766,0.5356,0.1204,-0.9956
33366,-107.8276,32.0669,-0.0116,0.036,98.7626,-0.0208,-1.5449,10.0364,-0.0022,-0.0823,0.4925,0.0772,1.2632
33380,-107.8276,32.0669,-0.0116,0.036,98.7626,-0.0208,-1.5449,10.0364,-0.0022,-0.0823,0.4925,0.0772,1.2632
33398,-107.8671,32.3226,-0.0116,0.0351,98.7525,-0.0195,-1.5472,10.048,-0.001,-0.0903,0.4564,0.0492,-1.2715
33412,-107.9048,32.5681,-0.0116,0.0332,98.7622,-0.0178,-1.5493,10.0606,-0.0002,-0.0896,0.5161,0.0316,1.106
33428,-107.9048,32.5681,-0.0116,0.0332,98.7622,-0.0178,-1.5493,10.0606,-0.0002,-0.0896,0.5161,0.0316,1.106
33446,-107.9432,32.817,-0.0116,0.0308,98.7535,-0.0159,-1.5517,10.0735,0.0002,-0.0956,0.5233,0.017,-1.0793
33460,-107.9432,32.817,-0.0116,0.0308,98.7535,-0.0159,-1.5517,10.0735,0.0002,-0.0956,0.5233,0.017,-1.0793
33476,-107.9813,33.0653,-0.0116,0.0285,98.7626,-0.0141,-1.5538,10.0863,0.0005,-0.085,0.519,0.0116,1.0744
33494,-108.0198,33.3143,-0.0115,0.0261,98.754,-0.0124,-1.556,10.099,0.0007,-0.0888,0.5143,0.0055,-1.0591
33508,-108.0198,33.3143,-0.0115,0.0261,98.754,-0.0124,-1.556,10.099,0.0007,-0.0888,0.5143,0.0055,-1.0591
33524,-108.0604,33.5786,-0.0115,0.0238,98.765,-0.0108,-1.5578,10.1107,0.0007,-0.07,0.4459,0.0024,1.356
33542,-108.1012,33.8427,-0.0114,0.0217,98.7529,-0.0093,-1.5597,10.1213,0.0007,-0.0703,0.4065,-0.0005,-1.4255
33556,-108.1012,33.8427,-0.0114,0.0217,98.7529,-0.0093,-1.5597,10.1213,0.0007,-0.0703,0.4065,-0.0005,-1.4255
33573,-108.1393,34.0905,-0.0114,0.0199,98.7626,-0.0082,-1.5615,10.1337,0.0007,-0.0748,0.5068,-0.0018,1.0987
33588,-108.1784,34.3439,-0.0114,0.0184,98.7535,-0.0071,-1.5635,10.1465,0.0006,-0.0823,0.5147,-0.0023,-1.1139
33604,-108.1784,34.3439,-0.0114,0.0184,98.7535,-0.0071,-1.5635,10.1465,0.0006,-0.0823,0.5147,-0.0023,-1.1139
33622,-108.2166,34.5922,-0.0114,0.0171,98.762,-0.0062,-1.5654,10.1593,0.0005,-0.0757,0.5217,-0.0026,1.0139
33636,-108.2166,34.5922,-0.0114,0.0171,98.762,-0.0062,-1.5654,10.1593,0.0005,-0.0757,0.5217,-0.0026,1.0139
33652,-108.2562,34.8487,-0.0113,0.016,98.7529,-0.0054,-1.5674,10.1718,0.0005,-0.078,0.4949,-0.0023,-1.1237
33669,-108.294,35.0949,-0.0113,0.015,98.761,-0.0047,-1.5691,10.1842,0.0004,-0.0734,0.5148,-0.0026,0.9597
33684,-108.294,35.0949,-0.0113,0.015,98.761,-0.0047,-1.5691,10.1842,0.0004,-0.0734,0.5148,-0.0026,0.9597
33700,-108.3318,35.34,-0.0113,0.0143,98.7538,-0.0041,-1.5711,10.197,0.0004,-0.0829,0.5311,-0.0024,-0.8828
33718,-108.3727,35.6055,-0.0113,0.0135,98.7632,-0.0035,-1.5729,10.2089,0.0003,-0.0666,0.4591,-0.0016,1.2055
33732,-108.3727,35.6055,-0.0113,0.0135,98.7632,-0.0035,-1.5729,10.2089,0.0003,-0.0666,0.4591,-0.0016,1.2055
33750,-108.414,35.8734,-0.0113,0.0127,98.7517,-0.0031,-1.5745,10.2192,0.0003,-0.0635,0.3897,-0.0019,-1.373
33764,-108.414,35.8734,-0.0113,0.0127,98.7517,-0.0031,-1.5745,10.2192,0.0003,-0.0635,0.3897,-0.0019,-1.373
33780,-108.458,36.1595,-0.0113,0.0119,98.7672,-0.0026,-1.5757,10.2272,0.0002,-0.0405,0.2873,-0.0014,1.8047
33798,-108.4987,36.4229,-0.0113,0.0112,98.7544,-0.0023,-1.5775,10.2378,0.0002,-0.071,0.41,-0.0017,-1.3677
33812,-108.4987,36.4229,-0.0113,0.0112,98.7544,-0.0023,-1.5775,10.2378,0.0002,-0.071,0.41,-0.0017,-1.3677
33829,-108.5403,36.6934,-0.0113,0.0106,98.7669,-0.002,-1.5792,10.2491,0.0002,-0.065,0.4292,-0.0012,1.4392
33844,-108.5403,36.6934,-0.0113,0.0106,98.7669,-0.002,-1.5792,10.2491,0.0002,-0.065,0.4292,-0.0012,1.4392
33860,-108.5819,36.9628,-0.0112,0.0101,98.7544,-0.0017,-1.5811,10.2602,0.0001,-0.0722,0.4238,-0.001,-1.417
33876,-108.6223,37.2256,-0.0112,0.0098,98.7656,-0.0015,-1.5829,10.2722,0.0001,-0.069,0.4688,-0.0006,1.2676
33892,-108.6223,37.2256,-0.0112,0.0098,98.7656,-0.0015,-1.5829,10.2722,0.0001,-0.069,0.4688,-0.0006,1.2676
33910,-108.6644,37.4985,-0.0112,0.0095,98.7535,-0.0013,-1.5847,10.2837,0.0001,-0.0706,0.4317,-0.0006,-1.4291
33924,-108.7053,37.7642,-0.0112,0.0093,98.765,-0.0011,-1.5864,10.2953,0.0001,-0.0639,0.4483,-0.0008,1.3055
33940,-108.7053,37.7642,-0.0112,0.0093,98.765,-0.0011,-1.5864,10.2953,0.0001,-0.0639,0.4483,-0.0008,1.3055
