timestamp,x,y,z,pitch,yaw,roll,vx,vy,vz,ax,ay,az,yaw_rate
96470,-106.6867,-4.8475,-0.0806,0.0,-89.3578,0.0,0.0,0.0,-0.0006,0.0,0.0,8.349,-0.0
96486,-106.6867,-4.8475,-0.0806,0.0,-89.3578,0.0,0.0,0.0,-0.0006,0.0,0.0,8.349,-0.0
96502,-106.6867,-4.8475,-0.0806,0.0,-89.3578,0.0,0.0,0.0,-0.0006,0.0,0.0,8.349,-0.0
96518,-106.6867,-4.8475,-0.0806,0.0,-89.3578,0.0,0.0,0.0,-0.0006,0.0,0.0,8.349,-0.0
96534,-106.6867,-4.8475,-0.0806,0.0,-89.3578,0.0,0.0,0.0,-0.0006,0.0,0.0,8.349,-0.0
96550,-106.6867,-4.8475,-0.0806,0.0,-89.3578,0.0,0.0,0.0,-0.0006,0.0,0.0,8.349,-0.0
96566,-106.6867,-4.8475,-0.0806,0.0,-89.3578,0.0,0.0,0.0,-0.0006,0.0,0.0,8.349,-0.0
96582,-106.6867,-4.8475,-0.0806,0.0,-89.3578,0.0,0.0,0.0,-0.0006,0.0,0.0,8.349,-0.0
96598,-106.6867,-4.8475,-0.0806,0.0,-89.3578,0.0,0.0,0.0,-0.0006,0.0,0.0,8.349,-0.0
96614,-106.6867,-4.8475,-0.0806,0.0,-89.3578,0.0,0.0,0.0,-0.0006,0.0,0.0,8.349,-0.0
96630,-106.6867,-4.8475,-0.0806,0.0,-89.3578,0.0,0.0,0.0,-0.0006,0.0,0.0,8.349,-0.0
96646,-106.6867,-4.8475,-0.0806,0.0,-89.3578,0.0,0.0,0.0,-0.0006,0.0,0.0,8.349,-0.0
96662,-106.6867,-4.847,-0.0629,-0.0007,-89.3578,0.0,-0.0003,0.0264,0.2371,-0.0015,0.1373,1.2369,-0.0001
96678,-106.6867,-4.847,-0.0629,-0.0007,-89.3578,0.0,-0.0003,0.0264,0.2371,-0.0015,0.1373,1.2369,-0.0001
96694,-106.6867,-4.847,-0.0629,-0.0007,-89.3578,0.0,-0.0003,0.0264,0.2371,-0.0015,0.1373,1.2369,-0.0001
96710,-106.6867,-4.847,-0.0629,-0.0007,-89.3578,0.0,-0.0003,0.0264,0.2371,-0.0015,0.1373,1.2369,-0.0001
96726,-106.6867,-4.847,-0.0629,-0.0007,-89.3578,0.0,-0.0003,0.0264,0.2371,-0.0015,0.1373,1.2369,-0.0001
96742,-106.6867,-4.847,-0.0629,-0.0007,-89.3578,0.0,-0.0003,0.0264,0.2371,-0.0015,0.1373,1.2369,-0.0001
96758,-106.6867,-4.847,-0.0629,-0.0007,-89.3578,0.0,-0.0003,0.0264,0.2371,-0.0015,0.1373,1.2369,-0.0001
96774,-106.6867,-4.847,-0.0629,-0.0007,-89.3578,0.0,-0.0003,0.0264,0.2371,-0.0015,0.1373,1.2369,-0.0001
96790,-106.6868,-4.8424,-0.0412,-0.0044,-89.3578,0.0,-0.0014,0.1227,0.1871,-0.0084,0.7529,-0.3906,-0.0002
96806,-106.6868,-4.8424,-0.0412,-0.0044,-89.3578,0.0,-0.0014,0.1227,0.1871,-0.0084,0.7529,-0.3906,-0.0002
96822,-106.6868,-4.8424,-0.0412,-0.0044,-89.3578,0.0,-0.0014,0.1227,0.1871,-0.0084,0.7529,-0.3906,-0.0002
96838,-106.6868,-4.8424,-0.0412,-0.0044,-89.3578,0.0,-0.0014,0.1227,0.1871,-0.0084,0.7529,-0.3906,-0.0002
96854,-106.6868,-4.8424,-0.0412,-0.0044,-89.3578,0.0,-0.0014,0.1227,0.1871,-0.0084,0.7529,-0.3906,-0.0002
96870,-106.6868,-4.8424,-0.0412,-0.0044,-89.3578,0.0,-0.0014,0.1227,0.1871,-0.0084,0.7529,-0.3906,-0.0002
96887,-106.6871,-4.8068,-0.0278,-0.0298,-89.3578,0.0,-0.0067,0.5974,0.1176,-0.0594,5.2972,-0.776,-0.0002
96902,-106.6871,-4.8068,-0.0278,-0.0298,-89.3578,0.0,-0.0067,0.5974,0.1176,-0.0594,5.2972,-0.776,-0.0002
96918,-106.6871,-4.8068,-0.0278,-0.0298,-89.3578,0.0,-0.0067,0.5974,0.1176,-0.0594,5.2972,-0.776,-0.0002
96934,-106.6871,-4.8068,-0.0278,-0.0298,-89.3578,0.0,-0.0067,0.5974,0.1176,-0.0594,5.2972,-0.776,-0.0002
96950,-106.6871,-4.8068,-0.0278,-0.0298,-89.3578,0.0,-0.0067,0.5974,0.1176,-0.0594,5.2972,-0.776,-0.0002
96966,-106.6871,-4.8068,-0.0278,-0.0298,-89.3578,0.0,-0.0067,0.5974,0.1176,-0.0594,5.2972,-0.776,-0.0002
96984,-106.688,-4.7301,-0.0195,-0.0468,-89.3578,0.0,-0.0107,0.956,0.0645,-0.0425,3.7876,-0.5605,-0.0009
96998,-106.688,-4.7301,-0.0195,-0.0468,-89.3578,0.0,-0.0107,0.956,0.0645,-0.0425,3.7876,-0.5605,-0.0009
97014,-106.688,-4.7301,-0.0195,-0.0468,-89.3578,0.0,-0.0107,0.956,0.0645,-0.0425,3.7876,-0.5605,-0.0009
97030,-106.688,-4.7301,-0.0195,-0.0468,-89.3578,0.0,-0.0107,0.956,0.0645,-0.0425,3.7876,-0.5605,-0.0009
97046,-106.688,-4.7301,-0.0195,-0.0468,-89.3578,0.0,-0.0107,0.956,0.0645,-0.0425,3.7876,-0.5605,-0.0009
97062,-106.688,-4.7301,-0.0195,-0.0468,-89.3578,0.0,-0.0107,0.956,0.0645,-0.0425,3.7876,-0.5605,-0.0009
97078,-106.689,-4.6399,-0.015,-0.0437,-89.3567,0.0,-0.0124,1.0792,0.0412,-0.0192,1.3748,-0.2605,0.1321
97094,-106.689,-4.6399,-0.015,-0.0437,-89.3567,0.0,-0.0124,1.0792,0.0412,-0.0192,1.3748,-0.2605,0.1321
97110,-106.689,-4.6399,-0.015,-0.0437,-89.3567,0.0,-0.0124,1.0792,0.0412,-0.0192,1.3748,-0.2605,0.1321
97126,-106.689,-4.6399,-0.015,-0.0437,-89.3567,0.0,-0.0124,1.0792,0.0412,-0.0192,1.3748,-0.2605,0.1321
97142,-106.689,-4.6399,-0.015,-0.0437,-89.3567,0.0,-0.0124,1.0792,0.0412,-0.0192,1.3748,-0.2605,0.1321
97160,-106.6903,-4.5255,-0.0127,-0.0412,-89.3552,0.0,-0.0147,1.3021,0.0169,-0.0256,2.478,-0.2697,0.0094
97174,-106.6903,-4.5255,-0.0127,-0.0412,-89.3552,0.0,-0.0147,1.3021,0.0169,-0.0256,2.478,-0.2697,0.0094
97190,-106.6903,-4.5255,-0.0127,-0.0412,-89.3552,0.0,-0.0147,1.3021,0.0169,-0.0256,2.478,-0.2697,0.0094
97206,-106.6903,-4.5255,-0.0127,-0.0412,-89.3552,0.0,-0.0147,1.3021,0.0169,-0.0256,2.478,-0.2697,0.0094
97222,-106.6903,-4.5255,-0.0127,-0.0412,-89.3552,0.0,-0.0147,1.3021,0.0169,-0.0256,2.478,-0.2697,0.0094
97238,-106.6903,-4.5255,-0.0127,-0.0412,-89.3552,0.0,-0.0147,1.3021,0.0169,-0.0256,2.478,-0.2697,0.0094
97256,-106.6916,-4.4107,-0.0119,-0.0237,-89.3547,0.0,-0.0143,1.2696,0.0073,0.0045,-0.3499,-0.1034,0.0042
97270,-106.6916,-4.4107,-0.0119,-0.0237,-89.3547,0.0,-0.0143,1.2696,0.0073,0.0045,-0.3499,-0.1034,0.0042
97286,-106.6916,-4.4107,-0.0119,-0.0237,-89.3547,0.0,-0.0143,1.2696,0.0073,0.0045,-0.3499,-0.1034,0.0042
97302,-106.6916,-4.4107,-0.0119,-0.0237,-89.3547,0.0,-0.0143,1.2696,0.0073,0.0045,-0.3499,-0.1034,0.0042
97318,-106.6916,-4.4107,-0.0119,-0.0237,-89.3547,0.0,-0.0143,1.2696,0.0073,0.0045,-0.3499,-0.1034,0.0042
97334,-106.6916,-4.4107,-0.0119,-0.0237,-89.3547,0.0,-0.0143,1.2696,0.0073,0.0045,-0.3499,-0.1034,0.0042
97350,-106.6931,-4.2771,-0.0113,-0.034,-89.3632,0.0003,-0.0215,1.6958,0.0034,-0.0776,4.5981,-0.0422,2.3561
97366,-106.6931,-4.2771,-0.0113,-0.034,-89.3632,0.0003,-0.0215,1.6958,0.0034,-0.0776,4.5981,-0.0422,2.3561
97382,-106.6931,-4.2771,-0.0113,-0.034,-89.3632,0.0003,-0.0215,1.6958,0.0034,-0.0776,4.5981,-0.0422,2.3561
97398,-106.6931,-4.2771,-0.0113,-0.034,-89.3632,0.0003,-0.0215,1.6958,0.0034,-0.0776,4.5981,-0.0422,2.3561
97414,-106.6931,-4.2771,-0.0113,-0.034,-89.3632,0.0003,-0.0215,1.6958,0.0034,-0.0776,4.5981,-0.0422,2.3561
97430,-106.6931,-4.2771,-0.0113,-0.034,-89.3632,0.0003,-0.0215,1.6958,0.0034,-0.0776,4.5981,-0.0422,2.3561
97446,-106.6959,-4.0972,-0.011,-0.0559,-89.2992,0.0004,-0.0239,2.0394,0.0016,-0.0263,3.7427,-0.019,0.0637
97462,-106.6959,-4.0972,-0.011,-0.0559,-89.2992,0.0004,-0.0239,2.0394,0.0016,-0.0263,3.7427,-0.019,0.0637
97478,-106.6959,-4.0972,-0.011,-0.0559,-89.2992,0.0004,-0.0239,2.0394,0.0016,-0.0263,3.7427,-0.019,0.0637
97494,-106.6959,-4.0972,-0.011,-0.0559,-89.2992,0.0004,-0.0239,2.0394,0.0016,-0.0263,3.7427,-0.019,0.0637
97510,-106.6959,-4.0972,-0.011,-0.0559,-89.2992,0.0004,-0.0239,2.0394,0.0016,-0.0263,3.7427,-0.019,0.0637
97526,-106.6981,-3.8786,-0.0108,-0.0696,-89.3516,-0.0004,-0.0291,2.6826,0.0008,-0.0576,7.1767,-0.0091,-1.9132
97542,-106.6981,-3.8786,-0.0108,-0.0696,-89.3516,-0.0004,-0.0291,2.6826,0.0008,-0.0576,7.1767,-0.0091,-1.9132
97558,-106.6981,-3.8786,-0.0108,-0.0696,-89.3516,-0.0004,-0.0291,2.6826,0.0008,-0.0576,7.1767,-0.0091,-1.9132
97574,-106.6981,-3.8786,-0.0108,-0.0696,-89.3516,-0.0004,-0.0291,2.6826,0.0008,-0.0576,7.1767,-0.0091,-1.9132
97590,-106.6981,-3.8786,-0.0108,-0.0696,-89.3516,-0.0004,-0.0291,2.6826,0.0008,-0.0576,7.1767,-0.0091,-1.9132
97606,-106.6981,-3.8786,-0.0108,-0.0696,-89.3516,-0.0004,-0.0291,2.6826,0.0008,-0.0576,7.1767,-0.0091,-1.9132
97623,-106.7008,-3.6027,-0.0106,-0.0827,-89.3613,-0.0009,-0.0331,3.2433,0.0004,-0.0442,6.1117,-0.0045,-1.2565
97638,-106.7008,-3.6027,-0.0106,-0.0827,-89.3613,-0.0009,-0.0331,3.2433,0.0004,-0.0442,6.1117,-0.0045,-1.2565
97654,-106.7008,-3.6027,-0.0106,-0.0827,-89.3613,-0.0009,-0.0331,3.2433,0.0004,-0.0442,6.1117,-0.0045,-1.2565
97670,-106.7008,-3.6027,-0.0106,-0.0827,-89.3613,-0.0009,-0.0331,3.2433,0.0004,-0.0442,6.1117,-0.0045,-1.2565
97686,-106.7008,-3.6027,-0.0106,-0.0827,-89.3613,-0.0009,-0.0331,3.2433,0.0004,-0.0442,6.1117,-0.0045,-1.2565
97702,-106.7008,-3.6027,-0.0106,-0.0827,-89.3613,-0.0009,-0.0331,3.2433,0.0004,-0.0442,6.1117,-0.0045,-1.2565
97718,-106.7036,-3.2867,-0.0106,-0.081,-89.4127,-0.001,-0.035,3.5732,0.0002,-0.02,3.6249,-0.002,-0.4923
97734,-106.7036,-3.2867,-0.0106,-0.081,-89.4127,-0.001,-0.035,3.5732,0.0002,-0.02,3.6249,-0.002,-0.4923
97750,-106.7036,-3.2867,-0.0106,-0.081,-89.4127,-0.001,-0.035,3.5732,0.0002,-0.02,3.6249,-0.002,-0.4923
97766,-106.7036,-3.2867,-0.0106,-0.081,-89.4127,-0.001,-0.035,3.5732,0.0002,-0.02,3.6249,-0.002,-0.4923
97782,-106.7036,-3.2867,-0.0106,-0.081,-89.4127,-0.001,-0.035,3.5732,0.0002,-0.02,3.6249,-0.002,-0.4923
97800,-106.7059,-2.9343,-0.0106,-0.08,-89.5255,-0.002,-0.0326,4.0663,0.0001,0.0263,5.4387,-0.0011,-0.9905
97814,-106.7059,-2.9343,-0.0106,-0.08,-89.5255,-0.002,-0.0326,4.0663,0.0001,0.0263,5.4387,-0.0011,-0.9905
97830,-106.7059,-2.9343,-0.0106,-0.08,-89.5255,-0.002,-0.0326,4.0663,0.0001,0.0263,5.4387,-0.0011,-0.9905
97846,-106.7059,-2.9343,-0.0106,-0.08,-89.5255,-0.002,-0.0326,4.0663,0.0001,0.0263,5.4387,-0.0011,-0.9905
97862,-106.7059,-2.9343,-0.0106,-0.08,-89.5255,-0.002,-0.0326,4.0663,0.0001,0.0263,5.4387,-0.0011,-0.9905
97878,-106.7059,-2.9343,-0.0106,-0.08,-89.5255,-0.002,-0.0326,4.0663,0.0001,0.0263,5.4387,-0.0011,-0.9905
97896,-106.7088,-2.5296,-0.0105,-0.0895,-89.5521,-0.002,-0.0362,4.6883,0.0,-0.0397,6.837,-0.0009,-0.1818
97910,-106.7088,-2.5296,-0.0105,-0.0895,-89.5521,-0.002,-0.0362,4.6883,0.0,-0.0397,6.837,-0.0009,-0.1818
97926,-106.7088,-2.5296,-0.0105,-0.0895,-89.5521,-0.002,-0.0362,4.6883,0.0,-0.0397,6.837,-0.0009,-0.1818
97942,-106.7088,-2.5296,-0.0105,-0.0895,-89.5521,-0.002,-0.0362,4.6883,0.0,-0.0397,6.837,-0.0009,-0.1818
97958,-106.7088,-2.5296,-0.0105,-0.0895,-89.5521,-0.002,-0.0362,4.6883,0.0,-0.0397,6.837,-0.0009,-0.1818
97974,-106.7088,-2.5296,-0.0105,-0.0895,-89.5521,-0.002,-0.0362,4.6883,0.0,-0.0397,6.837,-0.0009,-0.1818
97992,-106.7122,-2.053,-0.0104,-0.0965,-89.5792,-0.0015,-0.0389,5.2914,0.0,-0.0282,6.3989,-0.0002,-0.0488
98006,-106.7122,-2.053,-0.0104,-0.0965,-89.5792,-0.0015,-0.0389,5.2914,0.0,-0.0282,6.3989,-0.0002,-0.0488
98022,-106.7122,-2.053,-0.0104,-0.0965,-89.5792,-0.0015,-0.0389,5.2914,0.0,-0.0282,6.3989,-0.0002,-0.0488
98038,-106.7122,-2.053,-0.0104,-0.0965,-89.5792,-0.0015,-0.0389,5.2914,0.0,-0.0282,6.3989,-0.0002,-0.0488
98054,-106.7122,-2.053,-0.0104,-0.0965,-89.5792,-0.0015,-0.0389,5.2914,0.0,-0.0282,6.3989,-0.0002,-0.0488
98070,-106.7122,-2.053,-0.0104,-0.0965,-89.5792,-0.0015,-0.0389,5.2914,0.0,-0.0282,6.3989,-0.0002,-0.0488
98088,-106.7166,-1.494,-0.0104,-0.0992,-89.5596,-0.0008,-0.045,5.9042,0.0,-0.0626,6.2083,-0.0002,0.0763
98102,-106.7166,-1.494,-0.0104,-0.0992,-89.5596,-0.0008,-0.045,5.9042,0.0,-0.0626,6.2083,-0.0002,0.0763
98118,-106.7166,-1.494,-0.0104,-0.0992,-89.5596,-0.0008,-0.045,5.9042,0.0,-0.0626,6.2083,-0.0002,0.0763
98134,-106.7166,-1.494,-0.0104,-0.0992,-89.5596,-0.0008,-0.045,5.9042,0.0,-0.0626,6.2083,-0.0002,0.0763
98150,-106.7166,-1.494,-0.0104,-0.0992,-89.5596,-0.0008,-0.045,5.9042,0.0,-0.0626,6.2083,-0.0002,0.0763
98166,-106.7166,-1.494,-0.0104,-0.0992,-89.5596,-0.0008,-0.045,5.9042,0.0,-0.0626,6.2083,-0.0002,0.0763
98182,-106.721,-0.9003,-0.0103,-0.1114,-89.5704,-0.0005,-0.0505,6.7163,0.0,-0.0589,8.7179,-0.0,-0.3107
98198,-106.721,-0.9003,-0.0103,-0.1114,-89.5704,-0.0005,-0.0505,6.7163,0.0,-0.0589,8.7179,-0.0,-0.3107
98214,-106.721,-0.9003,-0.0103,-0.1114,-89.5704,-0.0005,-0.0505,6.7163,0.0,-0.0589,8.7179,-0.0,-0.3107
98230,-106.721,-0.9003,-0.0103,-0.1114,-89.5704,-0.0005,-0.0505,6.7163,0.0,-0.0589,8.7179,-0.0,-0.3107
98246,-106.721,-0.9003,-0.0103,-0.1114,-89.5704,-0.0005,-0.0505,6.7163,0.0,-0.0589,8.7179,-0.0,-0.3107
98262,-106.726,-0.2463,-0.0103,-0.1214,-89.5602,-0.0002,-0.0568,7.4576,-0.0,-0.0692,8.11,-0.0001,0.2525
98278,-106.726,-0.2463,-0.0103,-0.1214,-89.5602,-0.0002,-0.0568,7.4576,-0.0,-0.0692,8.11,-0.0001,0.2525
98294,-106.726,-0.2463,-0.0103,-0.1214,-89.5602,-0.0002,-0.0568,7.4576,-0.0,-0.0692,8.11,-0.0001,0.2525
98310,-106.726,-0.2463,-0.0103,-0.1214,-89.5602,-0.0002,-0.0568,7.4576,-0.0,-0.0692,8.11,-0.0001,0.2525
98326,-106.726,-0.2463,-0.0103,-0.1214,-89.5602,-0.0002,-0.0568,7.4576,-0.0,-0.0692,8.11,-0.0001,0.2525
98342,-106.726,-0.2463,-0.0103,-0.1214,-89.5602,-0.0002,-0.0568,7.4576,-0.0,-0.0692,8.11,-0.0001,0.2525
98360,-106.7315,0.4755,-0.0103,-0.1216,-89.5659,-0.0001,-0.0616,8.1075,0.0,-0.0516,7.0637,0.0001,-0.1252
98374,-106.7315,0.4755,-0.0103,-0.1216,-89.5659,-0.0001,-0.0616,8.1075,0.0,-0.0516,7.0637,0.0001,-0.1252
98390,-106.7315,0.4755,-0.0103,-0.1216,-89.5659,-0.0001,-0.0616,8.1075,0.0,-0.0516,7.0637,0.0001,-0.1252
98406,-106.7315,0.4755,-0.0103,-0.1216,-89.5659,-0.0001,-0.0616,8.1075,0.0,-0.0516,7.0637,0.0001,-0.1252
98422,-106.7315,0.4755,-0.0103,-0.1216,-89.5659,-0.0001,-0.0616,8.1075,0.0,-0.0516,7.0637,0.0001,-0.1252
98438,-106.7315,0.4755,-0.0103,-0.1216,-89.5659,-0.0001,-0.0616,8.1075,0.0,-0.0516,7.0637,0.0001,-0.1252
98454,-106.7373,1.2429,-0.0103,-0.117,-89.5636,-0.0,-0.0663,8.7128,0.0,-0.0522,6.6691,-0.0,0.0036
98470,-106.7373,1.2429,-0.0103,-0.117,-89.5636,-0.0,-0.0663,8.7128,0.0,-0.0522,6.6691,-0.0,0.0036
98486,-106.7373,1.2429,-0.0103,-0.117,-89.5636,-0.0,-0.0663,8.7128,0.0,-0.0522,6.6691,-0.0,0.0036
98502,-106.7373,1.2429,-0.0103,-0.117,-89.5636,-0.0,-0.0663,8.7128,0.0,-0.0522,6.6691,-0.0,0.0036
98518,-106.7373,1.2429,-0.0103,-0.117,-89.5636,-0.0,-0.0663,8.7128,0.0,-0.0522,6.6691,-0.0,0.0036
98534,-106.7373,1.2429,-0.0103,-0.117,-89.5636,-0.0,-0.0663,8.7128,0.0,-0.0522,6.6691,-0.0,0.0036
98550,-106.7436,2.066,-0.0103,-0.1113,-89.5637,-0.0,-0.0706,9.2657,0.0,-0.0463,6.0693,0.0001,0.0003
98566,-106.7436,2.066,-0.0103,-0.1113,-89.5637,-0.0,-0.0706,9.2657,0.0,-0.0463,6.0693,0.0001,0.0003
98582,-106.7436,2.066,-0.0103,-0.1113,-89.5637,-0.0,-0.0706,9.2657,0.0,-0.0463,6.0693,0.0001,0.0003
98598,-106.7436,2.066,-0.0103,-0.1113,-89.5637,-0.0,-0.0706,9.2657,0.0,-0.0463,6.0693,0.0001,0.0003
98614,-106.7436,2.066,-0.0103,-0.1113,-89.5637,-0.0,-0.0706,9.2657,0.0,-0.0463,6.0693,0.0001,0.0003
98630,-106.7503,2.9399,-0.0104,-0.103,-89.5637,-0.0,-0.0743,9.7522,-0.0,-0.0405,5.3141,-0.0002,0.0
98646,-106.7503,2.9399,-0.0104,-0.103,-89.5637,-0.0,-0.0743,9.7522,-0.0,-0.0405,5.3141,-0.0002,0.0
98662,-106.7503,2.9399,-0.0104,-0.103,-89.5637,-0.0,-0.0743,9.7522,-0.0,-0.0405,5.3141,-0.0002,0.0
98678,-106.7503,2.9399,-0.0104,-0.103,-89.5637,-0.0,-0.0743,9.7522,-0.0,-0.0405,5.3141,-0.0002,0.0
98694,-106.7503,2.9399,-0.0104,-0.103,-89.5637,-0.0,-0.0743,9.7522,-0.0,-0.0405,5.3141,-0.0002,0.0
98710,-106.7503,2.9399,-0.0104,-0.103,-89.5637,-0.0,-0.0743,9.7522,-0.0,-0.0405,5.3141,-0.0002,0.0
98728,-106.7571,3.8322,-0.0105,-0.0924,-89.5637,0.0,-0.0773,10.1512,0.0,-0.034,4.4633,0.0001,0.0002
98742,-106.7571,3.8322,-0.0105,-0.0924,-89.5637,0.0,-0.0773,10.1512,0.0,-0.034,4.4633,0.0001,0.0002
98758,-106.7571,3.8322,-0.0105,-0.0924,-89.5637,0.0,-0.0773,10.1512,0.0,-0.034,4.4633,0.0001,0.0002
98774,-106.7571,3.8322,-0.0105,-0.0924,-89.5637,0.0,-0.0773,10.1512,0.0,-0.034,4.4633,0.0001,0.0002
98790,-106.7571,3.8322,-0.0105,-0.0924,-89.5637,0.0,-0.0773,10.1512,0.0,-0.034,4.4633,0.0001,0.0002
98806,-106.7571,3.8322,-0.0105,-0.0924,-89.5637,0.0,-0.0773,10.1512,0.0,-0.034,4.4633,0.0001,0.0002
98824,-106.7645,4.8098,-0.0105,-0.0841,-89.5636,0.0,-0.0805,10.5753,-0.0,-0.0343,4.4983,-0.0002,-0.0
98838,-106.7645,4.8098,-0.0105,-0.0841,-89.5636,0.0,-0.0805,10.5753,-0.0,-0.0343,4.4983,-0.0002,-0.0
98854,-106.7645,4.8098,-0.0105,-0.0841,-89.5636,0.0,-0.0805,10.5753,-0.0,-0.0343,4.4983,-0.0002,-0.0
98870,-106.7645,4.8098,-0.0105,-0.0841,-89.5636,0.0,-0.0805,10.5753,-0.0,-0.0343,4.4983,-0.0002,-0.0
98886,-106.7645,4.8098,-0.0105,-0.0841,-89.5636,0.0,-0.0805,10.5753,-0.0,-0.0343,4.4983,-0.0002,-0.0
98902,-106.7645,4.8098,-0.0105,-0.0841,-89.5636,0.0,-0.0805,10.5753,-0.0,-0.0343,4.4983,-0.0002,-0.0
98918,-106.772,5.7936,-0.0106,-0.081,-89.5637,0.0,-0.0837,10.9909,0.0,-0.0347,4.5618,0.0002,-0.0
98934,-106.772,5.7936,-0.0106,-0.081,-89.5637,0.0,-0.0837,10.9909,0.0,-0.0347,4.5618,0.0002,-0.0
98950,-106.772,5.7936,-0.0106,-0.081,-89.5637,0.0,-0.0837,10.9909,0.0,-0.0347,4.5618,0.0002,-0.0
98966,-106.772,5.7936,-0.0106,-0.081,-89.5637,0.0,-0.0837,10.9909,0.0,-0.0347,4.5618,0.0002,-0.0
98982,-106.772,5.7936,-0.0106,-0.081,-89.5637,0.0,-0.0837,10.9909,0.0,-0.0347,4.5618,0.0002,-0.0
99000,-106.7798,6.8172,-0.0106,-0.0774,-89.5637,0.0,-0.0866,11.3733,0.0,-0.0319,4.1853,-0.0001,-0.0
99014,-106.7798,6.8172,-0.0106,-0.0774,-89.5637,0.0,-0.0866,11.3733,0.0,-0.0319,4.1853,-0.0001,-0.0
99030,-106.7798,6.8172,-0.0106,-0.0774,-89.5637,0.0,-0.0866,11.3733,0.0,-0.0319,4.1853,-0.0001,-0.0
99046,-106.7798,6.8172,-0.0106,-0.0774,-89.5637,0.0,-0.0866,11.3733,0.0,-0.0319,4.1853,-0.0001,-0.0
99062,-106.7798,6.8172,-0.0106,-0.0774,-89.5637,0.0,-0.0866,11.3733,0.0,-0.0319,4.1853,-0.0001,-0.0
99078,-106.7798,6.8172,-0.0106,-0.0774,-89.5637,0.0,-0.0866,11.3733,0.0,-0.0319,4.1853,-0.0001,-0.0
99096,-106.7877,7.8568,-0.0106,-0.0725,-89.5637,0.0,-0.0892,11.7106,0.0,-0.0286,3.7522,0.0001,-0.0
99110,-106.7877,7.8568,-0.0106,-0.0725,-89.5637,0.0,-0.0892,11.7106,0.0,-0.0286,3.7522,0.0001,-0.0
99126,-106.7877,7.8568,-0.0106,-0.0725,-89.5637,0.0,-0.0892,11.7106,0.0,-0.0286,3.7522,0.0001,-0.0
99142,-106.7877,7.8568,-0.0106,-0.0725,-89.5637,0.0,-0.0892,11.7106,0.0,-0.0286,3.7522,0.0001,-0.0
99158,-106.7877,7.8568,-0.0106,-0.0725,-89.5637,0.0,-0.0892,11.7106,0.0,-0.0286,3.7522,0.0001,-0.0
99174,-106.7877,7.8568,-0.0106,-0.0725,-89.5637,0.0,-0.0892,11.7106,0.0,-0.0286,3.7522,0.0001,-0.0
99190,-106.7962,8.9761,-0.0107,-0.0673,-89.5637,-0.0,-0.0917,12.0402,0.0,-0.0267,3.5023,-0.0,-0.0
99206,-106.7962,8.9761,-0.0107,-0.0673,-89.5637,-0.0,-0.0917,12.0402,0.0,-0.0267,3.5023,-0.0,-0.0
99222,-106.7962,8.9761,-0.0107,-0.0673,-89.5637,-0.0,-0.0917,12.0402,0.0,-0.0267,3.5023,-0.0,-0.0
99238,-106.7962,8.9761,-0.0107,-0.0673,-89.5637,-0.0,-0.0917,12.0402,0.0,-0.0267,3.5023,-0.0,-0.0
99254,-106.7962,8.9761,-0.0107,-0.0673,-89.5637,-0.0,-0.0917,12.0402,0.0,-0.0267,3.5023,-0.0,-0.0
99272,-106.8047,10.0871,-0.0107,-0.0627,-89.5637,0.0,-0.094,12.3386,-0.0,-0.025,3.2787,-0.0001,-0.0
99286,-106.8047,10.0871,-0.0107,-0.0627,-89.5637,0.0,-0.094,12.3386,-0.0,-0.025,3.2787,-0.0001,-0.0
99302,-106.8047,10.0871,-0.0107,-0.0627,-89.5637,0.0,-0.094,12.3386,-0.0,-0.025,3.2787,-0.0001,-0.0
99318,-106.8047,10.0871,-0.0107,-0.0627,-89.5637,0.0,-0.094,12.3386,-0.0,-0.025,3.2787,-0.0001,-0.0
99334,-106.8047,10.0871,-0.0107,-0.0627,-89.5637,0.0,-0.094,12.3386,-0.0,-0.025,3.2787,-0.0001,-0.0
99350,-106.8047,10.0871,-0.0107,-0.0627,-89.5637,0.0,-0.094,12.3386,-0.0,-0.025,3.2787,-0.0001,-0.0
99368,-106.8135,11.245,-0.0107,-0.0585,-89.5637,0.0,-0.0961,12.6218,-0.0,-0.0233,3.0563,0.0,-0.0
99382,-106.8135,11.245,-0.0107,-0.0585,-89.5637,0.0,-0.0961,12.6218,-0.0,-0.0233,3.0563,0.0,-0.0
99398,-106.8135,11.245,-0.0107,-0.0585,-89.5637,0.0,-0.0961,12.6218,-0.0,-0.0233,3.0563,0.0,-0.0
99414,-106.8135,11.245,-0.0107,-0.0585,-89.5637,0.0,-0.0961,12.6218,-0.0,-0.0233,3.0563,0.0,-0.0
99430,-106.8135,11.245,-0.0107,-0.0585,-89.5637,0.0,-0.0961,12.6218,-0.0,-0.0233,3.0563,0.0,-0.0
99446,-106.8135,11.245,-0.0107,-0.0585,-89.5637,0.0,-0.0961,12.6218,-0.0,-0.0233,3.0563,0.0,-0.0
99464,-106.8223,12.4074,-0.0108,-0.0532,-89.5637,0.0,-0.0978,12.8462,-0.0,-0.0187,2.4614,-0.0,-0.0
99494,-106.8223,12.4074,-0.0108,-0.0532,-89.5637,0.0,-0.0978,12.8462,-0.0,-0.0187,2.4614,-0.0,-0.0
99510,-106.8223,12.4074,-0.0108,-0.0532,-89.5637,0.0,-0.0978,12.8462,-0.0,-0.0187,2.4614,-0.0,-0.0
99526,-106.8223,12.4074,-0.0108,-0.0532,-89.5637,0.0,-0.0978,12.8462,-0.0,-0.0187,2.4614,-0.0,-0.0
99542,-106.8223,12.4074,-0.0108,-0.0532,-89.5637,0.0,-0.0978,12.8462,-0.0,-0.0187,2.4614,-0.0,-0.0
99558,-106.8563,13.5976,-0.0108,-0.0381,-90.7277,0.1095,-0.8525,12.8538,0.0009,-8.166,0.0816,0.01,-27.5539
99574,-106.8563,13.5976,-0.0108,-0.0381,-90.7277,0.1095,-0.8525,12.8538,0.0009,-8.166,0.0816,0.01,-27.5539
99590,-106.8563,13.5976,-0.0108,-0.0381,-90.7277,0.1095,-0.8525,12.8538,0.0009,-8.166,0.0816,0.01,-27.5539
99606,-106.8563,13.5976,-0.0108,-0.0381,-90.7277,0.1095,-0.8525,12.8538,0.0009,-8.166,0.0816,0.01,-27.5539
99622,-106.8563,13.5976,-0.0108,-0.0381,-90.7277,0.1095,-0.8525,12.8538,0.0009,-8.166,0.0816,0.01,-27.5539
99638,-106.8563,13.5976,-0.0108,-0.0381,-90.7277,0.1095,-0.8525,12.8538,0.0009,-8.166,0.0816,0.01,-27.5539
99654,-106.949,14.7763,-0.011,-0.0053,-95.5133,0.2469,-1.7643,12.6134,0.0012,-9.8352,-2.5926,0.0031,-73.2667
99670,-106.949,14.7763,-0.011,-0.0053,-95.5133,0.2469,-1.7643,12.6134,0.0012,-9.8352,-2.5926,0.0031,-73.2667
99686,-106.949,14.7763,-0.011,-0.0053,-95.5133,0.2469,-1.7643,12.6134,0.0012,-9.8352,-2.5926,0.0031,-73.2667
99702,-106.949,14.7763,-0.011,-0.0053,-95.5133,0.2469,-1.7643,12.6134,0.0012,-9.8352,-2.5926,0.0031,-73.2667
99718,-106.949,14.7763,-0.011,-0.0053,-95.5133,0.2469,-1.7643,12.6134,0.0012,-9.8352,-2.5926,0.0031,-73.2667
99736,-107.0714,15.8955,-0.0111,0.0237,-104.7251,0.2666,-2.2627,12.346,0.0002,-5.4917,-2.947,-0.011,-125.5219
99750,-107.0714,15.8955,-0.0111,0.0237,-104.7251,0.2666,-2.2627,12.346,0.0002,-5.4917,-2.947,-0.011,-125.5219
99766,-107.0714,15.8955,-0.0111,0.0237,-104.7251,0.2666,-2.2627,12.346,0.0002,-5.4917,-2.947,-0.011,-125.5219
99782,-107.0714,15.8955,-0.0111,0.0237,-104.7251,0.2666,-2.2627,12.346,0.0002,-5.4917,-2.947,-0.011,-125.5219
99798,-107.0714,15.8955,-0.0111,0.0237,-104.7251,0.2666,-2.2627,12.346,0.0002,-5.4917,-2.947,-0.011,-125.5219
99814,-107.0714,15.8955,-0.0111,0.0237,-104.7251,0.2666,-2.2627,12.346,0.0002,-5.4917,-2.947,-0.011,-125.5219
99830,-107.1778,16.9555,-0.0111,0.0225,-118.6251,0.1632,-2.1399,12.1866,-0.0009,1.3694,-1.7781,-0.0126,-178.5924
99846,-107.1778,16.9555,-0.0111,0.0225,-118.6251,0.1632,-2.1399,12.1866,-0.0009,1.3694,-1.7781,-0.0126,-178.5924
99862,-107.1778,16.9555,-0.0111,0.0225,-118.6251,0.1632,-2.1399,12.1866,-0.0009,1.3694,-1.7781,-0.0126,-178.5924
99878,-107.1778,16.9555,-0.0111,0.0225,-118.6251,0.1632,-2.1399,12.1866,-0.0009,1.3694,-1.7781,-0.0126,-178.5924
99894,-107.1778,16.9555,-0.0111,0.0225,-118.6251,0.1632,-2.1399,12.1866,-0.0009,1.3694,-1.7781,-0.0126,-178.5924
99910,-107.1778,16.9555,-0.0111,0.0225,-118.6251,0.1632,-2.1399,12.1866,-0.0009,1.3694,-1.7781,-0.0126,-178.5924
99926,-107.2053,18.012,-0.0107,-0.0507,-137.0294,-0.0738,-0.7016,12.1903,-0.0005,15.401,0.0394,0.0042,-207.9891
99942,-107.2053,18.012,-0.0107,-0.0507,-137.0294,-0.0738,-0.7016,12.1903,-0.0005,15.401,0.0394,0.0042,-207.9891
99958,-107.2053,18.012,-0.0107,-0.0507,-137.0294,-0.0738,-0.7016,12.1903,-0.0005,15.401,0.0394,0.0042,-207.9891
99974,-107.2053,18.012,-0.0107,-0.0507,-137.0294,-0.0738,-0.7016,12.1903,-0.0005,15.401,0.0394,0.0042,-207.9891
99990,-107.2053,18.012,-0.0107,-0.0507,-137.0294,-0.0738,-0.7016,12.1903,-0.0005,15.401,0.0394,0.0042,-207.9891
100006,-107.0874,18.9816,-0.0098,-0.1633,-156.5999,-0.3257,1.3822,11.7333,0.002,22.9185,-5.0263,0.028,-219.9183
100022,-107.0874,18.9816,-0.0098,-0.1633,-156.5999,-0.3257,1.3822,11.7333,0.002,22.9185,-5.0263,0.028,-219.9183
100038,-107.0874,18.9816,-0.0098,-0.1633,-156.5999,-0.3257,1.3822,11.7333,0.002,22.9185,-5.0263,0.028,-219.9183
100054,-107.0874,18.9816,-0.0098,-0.1633,-156.5999,-0.3257,1.3822,11.7333,0.002,22.9185,-5.0263,0.028,-219.9183
100070,-107.0874,18.9816,-0.0098,-0.1633,-156.5999,-0.3257,1.3822,11.7333,0.002,22.9185,-5.0263,0.028,-219.9183
100104,-106.8105,19.8746,-0.0089,-0.2603,-177.7228,-0.5248,3.5215,10.5091,0.0018,22.7651,-13.0269,-0.0019,-229.0121
100118,-106.8105,19.8746,-0.0089,-0.2603,-177.7228,-0.5248,3.5215,10.5091,0.0018,22.7651,-13.0269,-0.0019,-229.0121
100134,-106.8105,19.8746,-0.0089,-0.2603,-177.7228,-0.5248,3.5215,10.5091,0.0018,22.7651,-13.0269,-0.0019,-229.0121
100150,-106.8105,19.8746,-0.0089,-0.2603,-177.7228,-0.5248,3.5215,10.5091,0.0018,22.7651,-13.0269,-0.0019,-229.0121
100166,-106.8105,19.8746,-0.0089,-0.2603,-177.7228,-0.5248,3.5215,10.5091,0.0018,22.7651,-13.0269,-0.0019,-229.0121
100183,-106.4658,20.5529,-0.0084,-0.2979,161.9677,-0.7114,4.4506,8.3912,0.0019,10.5626,-24.0776,0.0012,-231.626
100198,-106.4658,20.5529,-0.0084,-0.2979,161.9677,-0.7114,4.4506,8.3912,0.0019,10.5626,-24.0776,0.0012,-231.626
100214,-106.4658,20.5529,-0.0084,-0.2979,161.9677,-0.7114,4.4506,8.3912,0.0019,10.5626,-24.0776,0.0012,-231.626
100230,-106.4658,20.5529,-0.0084,-0.2979,161.9677,-0.7114,4.4506,8.3912,0.0019,10.5626,-24.0776,0.0012,-231.626
100246,-106.4658,20.5529,-0.0084,-0.2979,161.9677,-0.7114,4.4506,8.3912,0.0019,10.5626,-24.0776,0.0012,-231.626
100262,-106.4658,20.5529,-0.0084,-0.2979,161.9677,-0.7114,4.4506,8.3912,0.0019,10.5626,-24.0776,0.0012,-231.626
100280,-106.186,21.0863,-0.009,-0.2252,142.8936,-0.851,3.09,6.9448,0.005,-15.3987,-16.3695,0.034,-197.3934
100294,-106.186,21.0863,-0.009,-0.2252,142.8936,-0.851,3.09,6.9448,0.005,-15.3987,-16.3695,0.034,-197.3934
100310,-106.186,21.0863,-0.009,-0.2252,142.8936,-0.851,3.09,6.9448,0.005,-15.3987,-16.3695,0.034,-197.3934
100326,-106.186,21.0863,-0.009,-0.2252,142.8936,-0.851,3.09,6.9448,0.005,-15.3987,-16.3695,0.034,-197.3934
100342,-106.186,21.0863,-0.009,-0.2252,142.8936,-0.851,3.09,6.9448,0.005,-15.3987,-16.3695,0.034,-197.3934
100358,-106.186,21.0863,-0.009,-0.2252,142.8936,-0.851,3.09,6.9448,0.005,-15.3987,-16.3695,0.034,-197.3934
100374,-106.1035,21.5926,-0.0099,-0.0643,127.3907,-0.9102,0.9428,6.8463,0.001,-24.7516,-1.136,-0.0456,-158.3373
100390,-106.1035,21.5926,-0.0099,-0.0643,127.3907,-0.9102,0.9428,6.8463,0.001,-24.7516,-1.136,-0.0456,-158.3373
100406,-106.1035,21.5926,-0.0099,-0.0643,127.3907,-0.9102,0.9428,6.8463,0.001,-24.7516,-1.136,-0.0456,-158.3373
100422,-106.1035,21.5926,-0.0099,-0.0643,127.3907,-0.9102,0.9428,6.8463,0.001,-24.7516,-1.136,-0.0456,-158.3373
100438,-106.1035,21.5926,-0.0099,-0.0643,127.3907,-0.9102,0.9428,6.8463,0.001,-24.7516,-1.136,-0.0456,-158.3373
100456,-106.1858,22.2315,-0.0112,0.0973,115.621,-0.7855,-0.6872,7.8459,-0.0011,-17.6064,10.7979,-0.0223,-105.2463
100470,-106.1858,22.2315,-0.0112,0.0973,115.621,-0.7855,-0.6872,7.8459,-0.0011,-17.6064,10.7979,-0.0223,-105.2463
100486,-106.1858,22.2315,-0.0112,0.0973,115.621,-0.7855,-0.6872,7.8459,-0.0011,-17.6064,10.7979,-0.0223,-105.2463
100502,-106.1858,22.2315,-0.0112,0.0973,115.621,-0.7855,-0.6872,7.8459,-0.0011,-17.6064,10.7979,-0.0223,-105.2463
100518,-106.1858,22.2315,-0.0112,0.0973,115.621,-0.7855,-0.6872,7.8459,-0.0011,-17.6064,10.7979,-0.0223,-105.2463
100534,-106.1858,22.2315,-0.0112,0.0973,115.621,-0.7855,-0.6872,7.8459,-0.0011,-17.6064,10.7979,-0.0223,-105.2463
100551,-106.3006,22.9463,-0.0118,0.1603,107.0765,-0.4449,-0.456,8.6912,-0.0028,2.6226,9.5888,-0.0192,-94.1888
100566,-106.3006,22.9463,-0.0118,0.1603,107.0765,-0.4449,-0.456,8.6912,-0.0028,2.6226,9.5888,-0.0192,-94.1888
100582,-106.3006,22.9463,-0.0118,0.1603,107.0765,-0.4449,-0.456,8.6912,-0.0028,2.6226,9.5888,-0.0192,-94.1888
100614,-106.3006,22.9463,-0.0118,0.1603,107.0765,-0.4449,-0.456,8.6912,-0.0028,2.6226,9.5888,-0.0192,-94.1888
100630,-106.3916,23.7213,-0.0121,0.1653,100.4952,-0.2552,-0.7692,9.2116,-0.0022,-3.5965,5.9767,0.006,-54.1636
100646,-106.3916,23.7213,-0.0121,0.1653,100.4952,-0.2552,-0.7692,9.2116,-0.0022,-3.5965,5.9767,0.006,-54.1636
100662,-106.3916,23.7213,-0.0121,0.1653,100.4952,-0.2552,-0.7692,9.2116,-0.0022,-3.5965,5.9767,0.006,-54.1636
100678,-106.3916,23.7213,-0.0121,0.1653,100.4952,-0.2552,-0.7692,9.2116,-0.0022,-3.5965,5.9767,0.006,-54.1636
100694,-106.3916,23.7213,-0.0121,0.1653,100.4952,-0.2552,-0.7692,9.2116,-0.0022,-3.5965,5.9767,0.006,-54.1636
100710,-106.3916,23.7213,-0.0121,0.1653,100.4952,-0.2552,-0.7692,9.2116,-0.0022,-3.5965,5.9767,0.006,-54.1636
100726,-106.5081,24.5573,-0.0119,0.1303,97.9153,-0.242,-1.2298,9.3959,-0.0004,-5.114,2.0464,0.02,-15.5564
100742,-106.5081,24.5573,-0.0119,0.1303,97.9153,-0.242,-1.2298,9.3959,-0.0004,-5.114,2.0464,0.02,-15.5564
100758,-106.5081,24.5573,-0.0119,0.1303,97.9153,-0.242,-1.2298,9.3959,-0.0004,-5.114,2.0464,0.02,-15.5564
100774,-106.5081,24.5573,-0.0119,0.1303,97.9153,-0.242,-1.2298,9.3959,-0.0004,-5.114,2.0464,0.02,-15.5564
100790,-106.5081,24.5573,-0.0119,0.1303,97.9153,-0.242,-1.2298,9.3959,-0.0004,-5.114,2.0464,0.02,-15.5564
100806,-106.5081,24.5573,-0.0119,0.1303,97.9153,-0.242,-1.2298,9.3959,-0.0004,-5.114,2.0464,0.02,-15.5564
100822,-106.6274,25.4263,-0.0117,0.0898,97.2303,-0.1598,-1.248,9.511,-0.0006,-0.1981,1.2517,-0.0019,-4.5607
100838,-106.6274,25.4263,-0.0117,0.0898,97.2303,-0.1598,-1.248,9.511,-0.0006,-0.1981,1.2517,-0.0019,-4.5607
100854,-106.6274,25.4263,-0.0117,0.0898,97.2303,-0.1598,-1.248,9.511,-0.0006,-0.1981,1.2517,-0.0019,-4.5607
100870,-106.6274,25.4263,-0.0117,0.0898,97.2303,-0.1598,-1.248,9.511,-0.0006,-0.1981,1.2517,-0.0019,-4.5607
100886,-106.6274,25.4263,-0.0117,0.0898,97.2303,-0.1598,-1.248,9.511,-0.0006,-0.1981,1.2517,-0.0019,-4.5607
100903,-106.737,26.2688,-0.0115,0.0596,97.0518,-0.0916,-1.22,9.5757,-0.0005,0.3169,0.7328,0.0006,-0.3693
100918,-106.737,26.2688,-0.0115,0.0596,97.0518,-0.0916,-1.22,9.5757,-0.0005,0.3169,0.7328,0.0006,-0.3693
100934,-106.737,26.2688,-0.0115,0.0596,97.0518,-0.0916,-1.22,9.5757,-0.0005,0.3169,0.7328,0.0006,-0.3693
100950,-106.737,26.2688,-0.0115,0.0596,97.0518,-0.0916,-1.22,9.5757,-0.0005,0.3169,0.7328,0.0006,-0.3693
100966,-106.737,26.2688,-0.0115,0.0596,97.0518,-0.0916,-1.22,9.5757,-0.0005,0.3169,0.7328,0.0006,-0.3693
100982,-106.737,26.2688,-0.0115,0.0596,97.0518,-0.0916,-1.22,9.5757,-0.0005,0.3169,0.7328,0.0006,-0.3693
101000,-106.8446,27.1229,-0.0114,0.0397,96.9838,-0.0501,-1.2013,9.6318,-0.0003,0.2104,0.632,0.0023,-1.2245
101014,-106.8446,27.1229,-0.0114,0.0397,96.9838,-0.0501,-1.2013,9.6318,-0.0003,0.2104,0.632,0.0023,-1.2245
101030,-106.8446,27.1229,-0.0114,0.0397,96.9838,-0.0501,-1.2013,9.6318,-0.0003,0.2104,0.632,0.0023,-1.2245
101046,-106.8446,27.1229,-0.0114,0.0397,96.9838,-0.0501,-1.2013,9.6318,-0.0003,0.2104,0.632,0.0023,-1.2245
101062,-106.8446,27.1229,-0.0114,0.0397,96.9838,-0.0501,-1.2013,9.6318,-0.0003,0.2104,0.632,0.0023,-1.2245
101078,-106.8446,27.1229,-0.0114,0.0397,96.9838,-0.0501,-1.2013,9.6318,-0.0003,0.2104,0.632,0.0023,-1.2245
101094,-106.9577,28.0408,-0.0109,0.0521,96.976,0.0459,-1.2033,9.7314,0.0105,-0.0216,1.0491,0.1142,0.0682
101110,-106.9577,28.0408,-0.0109,0.0521,96.976,0.0459,-1.2033,9.7314,0.0105,-0.0216,1.0491,0.1142,0.0682
101126,-106.9577,28.0408,-0.0109,0.0521,96.976,0.0459,-1.2033,9.7314,0.0105,-0.0216,1.0491,0.1142,0.0682
101142,-106.9577,28.0408,-0.0109,0.0521,96.976,0.0459,-1.2033,9.7314,0.0105,-0.0216,1.0491,0.1142,0.0682
101158,-106.9577,28.0408,-0.0109,0.0521,96.976,0.0459,-1.2033,9.7314,0.0105,-0.0216,1.0491,0.1142,0.0682
101176,-107.0641,28.9036,-0.0113,0.0215,96.9791,-0.0179,-1.1964,9.7637,-0.0029,0.0785,0.3652,-0.1513,0.7508
101190,-107.0641,28.9036,-0.0113,0.0215,96.9791,-0.0179,-1.1964,9.7637,-0.0029,0.0785,0.3652,-0.1513,0.7508
101206,-107.0641,28.9036,-0.0113,0.0215,96.9791,-0.0179,-1.1964,9.7637,-0.0029,0.0785,0.3652,-0.1513,0.7508
101222,-107.0641,28.9036,-0.0113,0.0215,96.9791,-0.0179,-1.1964,9.7637,-0.0029,0.0785,0.3652,-0.1513,0.7508
101238,-107.0641,28.9036,-0.0113,0.0215,96.9791,-0.0179,-1.1964,9.7637,-0.0029,0.0785,0.3652,-0.1513,0.7508
101254,-107.0641,28.9036,-0.0113,0.0215,96.9791,-0.0179,-1.1964,9.7637,-0.0029,0.0785,0.3652,-0.1513,0.7508
101272,-107.1817,29.8639,-0.0113,0.0137,96.9757,-0.0128,-1.2007,9.8095,-0.0002,-0.0436,0.4669,0.0278,0.7771
101286,-107.1817,29.8639,-0.0113,0.0137,96.9757,-0.0128,-1.2007,9.8095,-0.0002,-0.0436,0.4669,0.0278,0.7771
101302,-107.1817,29.8639,-0.0113,0.0137,96.9757,-0.0128,-1.2007,9.8095,-0.0002,-0.0436,0.4669,0.0278,0.7771
101318,-107.1817,29.8639,-0.0113,0.0137,96.9757,-0.0128,-1.2007,9.8095,-0.0002,-0.0436,0.4669,0.0278,0.7771
101334,-107.1817,29.8639,-0.0113,0.0137,96.9757,-0.0128,-1.2007,9.8095,-0.0002,-0.0436,0.4669,0.0278,0.7771
101350,-107.1817,29.8639,-0.0113,0.0137,96.9757,-0.0128,-1.2007,9.8095,-0.0002,-0.0436,0.4669,0.0278,0.7771
101368,-107.2941,30.7849,-0.0108,-0.0123,96.976,0.0217,-1.2089,9.8726,0.0057,-0.0883,0.6736,0.063,1.2368
101382,-107.2941,30.7849,-0.0108,-0.0123,96.976,0.0217,-1.2089,9.8726,0.0057,-0.0883,0.6736,0.063,1.2368
101398,-107.2941,30.7849,-0.0108,-0.0123,96.976,0.0217,-1.2089,9.8726,0.0057,-0.0883,0.6736,0.063,1.2368
101414,-107.2941,30.7849,-0.0108,-0.0123,96.976,0.0217,-1.2089,9.8726,0.0057,-0.0883,0.6736,0.063,1.2368
101430,-107.2941,30.7849,-0.0108,-0.0123,96.976,0.0217,-1.2089,9.8726,0.0057,-0.0883,0.6736,0.063,1.2368
101446,-107.2941,30.7849,-0.0108,-0.0123,96.976,0.0217,-1.2089,9.8726,0.0057,-0.0883,0.6736,0.063,1.2368
101462,-107.4018,31.6638,-0.0112,0.009,96.9657,-0.004,-1.2114,9.9104,-0.0011,-0.0274,0.4255,-0.0772,-0.8411
101478,-107.4018,31.6638,-0.0112,0.009,96.9657,-0.004,-1.2114,9.9104,-0.0011,-0.0274,0.4255,-0.0772,-0.8411
101494,-107.4018,31.6638,-0.0112,0.009,96.9657,-0.004,-1.2114,9.9104,-0.0011,-0.0274,0.4255,-0.0772,-0.8411
101510,-107.4018,31.6638,-0.0112,0.009,96.9657,-0.004,-1.2114,9.9104,-0.0011,-0.0274,0.4255,-0.0772,-0.8411
101526,-107.4018,31.6638,-0.0112,0.009,96.9657,-0.004,-1.2114,9.9104,-0.0011,-0.0274,0.4255,-0.0772,-0.8411
101544,-107.5103,32.5514,-0.0113,0.0105,96.9711,-0.0034,-1.216,9.949,-0.0001,-0.0517,0.4327,0.0117,0.783
101558,-107.5103,32.5514,-0.0113,0.0105,96.9711,-0.0034,-1.216,9.949,-0.0001,-0.0517,0.4327,0.0117,0.783
101574,-107.5103,32.5514,-0.0113,0.0105,96.9711,-0.0034,-1.216,9.949,-0.0001,-0.0517,0.4327,0.0117,0.783
101590,-107.5103,32.5514,-0.0113,0.0105,96.9711,-0.0034,-1.216,9.949,-0.0001,-0.0517,0.4327,0.0117,0.783
101606,-107.5103,32.5514,-0.0113,0.0105,96.9711,-0.0034,-1.216,9.949,-0.0001,-0.0517,0.4327,0.0117,0.783
101622,-107.5103,32.5514,-0.0113,0.0105,96.9711,-0.0034,-1.216,9.949,-0.0001,-0.0517,0.4327,0.0117,0.783
101639,-107.6199,33.4477,-0.0112,0.0097,96.9623,-0.0021,-1.2208,9.9893,0.0001,-0.0539,0.4478,0.0021,-0.8117
101654,-107.6199,33.4477,-0.0112,0.0097,96.9623,-0.0021,-1.2208,9.9893,0.0001,-0.0539,0.4478,0.0021,-0.8117
101670,-107.6199,33.4477,-0.0112,0.0097,96.9623,-0.0021,-1.2208,9.9893,0.0001,-0.0539,0.4478,0.0021,-0.8117
101686,-107.6199,33.4477,-0.0112,0.0097,96.9623,-0.0021,-1.2208,9.9893,0.0001,-0.0539,0.4478,0.0021,-0.8117
101702,-107.6199,33.4477,-0.0112,0.0097,96.9623,-0.0021,-1.2208,9.9893,0.0001,-0.0539,0.4478,0.0021,-0.8117
101718,-107.6199,33.4477,-0.0112,0.0097,96.9623,-0.0021,-1.2208,9.9893,0.0001,-0.0539,0.4478,0.0021,-0.8117
101736,-107.7368,34.4043,-0.0112,0.0097,96.9624,-0.0012,-1.2275,10.0449,0.0001,-0.0694,0.5826,-0.0002,-0.7016
101750,-107.7368,34.4043,-0.0112,0.0097,96.9624,-0.0012,-1.2275,10.0449,0.0001,-0.0694,0.5826,-0.0002,-0.7016
101766,-107.7368,34.4043,-0.0112,0.0097,96.9624,-0.0012,-1.2275,10.0449,0.0001,-0.0694,0.5826,-0.0002,-0.7016
101782,-107.7368,34.4043,-0.0112,0.0097,96.9624,-0.0012,-1.2275,10.0449,0.0001,-0.0694,0.5826,-0.0002,-0.7016
