timestamp,x,y,z,pitch,yaw,roll,vx,vy,vz,ax,ay,az,yaw_rate
35342,-106.6867,-4.8475,0.3381,0.0,-89.3578,0.0,0.0,0.0,-2.201,0.0,0.0,-9.8,0.0
35358,-106.6867,-4.8475,0.2634,0.0,-89.3578,0.0,0.0,0.0,-2.5071,0.0,0.0,-9.8,0.0
35374,-106.6867,-4.8475,0.2634,0.0,-89.3578,0.0,0.0,0.0,-2.5071,0.0,0.0,-9.8,0.0
35390,-106.6867,-4.8475,0.2634,0.0,-89.3578,0.0,0.0,0.0,-2.5071,0.0,0.0,-9.8,0.0
35406,-106.6867,-4.8475,0.1524,0.0,-89.3578,0.0,0.0,0.0,-2.9035,0.0,0.0,-9.8,0.0
35426,-106.6867,-4.8475,0.0652,0.0,-89.3578,0.0,0.0,0.0,-3.1801,0.0,0.0,-9.8,0.0
35438,-106.6867,-4.8475,0.0652,0.0,-89.3578,0.0,0.0,0.0,-3.1801,0.0,0.0,-9.8,0.0
35454,-106.6867,-4.8475,0.0652,0.0,-89.3578,0.0,0.0,0.0,-3.1801,0.0,0.0,-9.8,0.0
35470,-106.6867,-4.8456,-0.022,-0.0026,-89.3578,0.0,-0.0014,0.1288,-1.7549,-0.0381,3.3978,37.6084,0.0
35486,-106.6867,-4.8456,-0.022,-0.0026,-89.3578,0.0,-0.0014,0.1288,-1.7549,-0.0381,3.3978,37.6084,0.0
35505,-106.6867,-4.8447,-0.0646,-0.0024,-89.3578,0.0,-0.0012,0.1037,-0.7815,0.0073,-0.6505,25.2817,-0.0
35518,-106.6867,-4.8447,-0.0646,-0.0024,-89.3578,0.0,-0.0012,0.1037,-0.7815,0.0073,-0.6505,25.2817,-0.0
35534,-106.6867,-4.8449,-0.0779,-0.0007,-89.3578,0.0,0.0006,-0.0505,-0.3564,0.0628,-5.6076,15.4562,0.0012
35550,-106.6867,-4.8449,-0.0779,-0.0007,-89.3578,0.0,0.0006,-0.0505,-0.3564,0.0628,-5.6076,15.4562,0.0012
35566,-106.6867,-4.8449,-0.0779,-0.0007,-89.3578,0.0,0.0006,-0.0505,-0.3564,0.0628,-5.6076,15.4562,0.0012
35582,-106.6869,-4.8379,-0.0825,-0.0085,-89.3465,0.0,-0.0037,0.2554,0.0196,-0.0996,7.1691,8.8121,0.5144
35606,-106.6871,-4.8274,-0.0788,-0.0168,-89.342,0.0001,-0.0037,0.3656,0.1583,-0.0014,3.454,4.346,-0.5669
35614,-106.6871,-4.8274,-0.0788,-0.0168,-89.342,0.0001,-0.0037,0.3656,0.1583,-0.0014,3.454,4.346,-0.5669
35630,-106.6871,-4.8274,-0.0788,-0.0168,-89.342,0.0001,-0.0037,0.3656,0.1583,-0.0014,3.454,4.346,-0.5669
35646,-106.6873,-4.8097,-0.0717,-0.028,-89.3352,-0.0001,-0.0068,0.5928,0.2267,-0.089,6.6408,1.9989,-0.0808
35662,-106.6873,-4.8097,-0.0717,-0.028,-89.3352,-0.0001,-0.0068,0.5928,0.2267,-0.089,6.6408,1.9989,-0.0808
35690,-106.6876,-4.7844,-0.0627,-0.0383,-89.3365,0.0003,-0.011,0.7677,0.2459,-0.115,4.7524,0.5224,0.3267
35694,-106.6876,-4.7844,-0.0627,-0.0383,-89.3365,0.0003,-0.011,0.7677,0.2459,-0.115,4.7524,0.5224,0.3267
35714,-106.688,-4.7546,-0.0544,-0.0465,-89.3387,0.0,-0.0093,0.9336,0.236,0.0488,4.8487,-0.2897,-1.1064
35726,-106.688,-4.7546,-0.0544,-0.0465,-89.3387,0.0,-0.0093,0.9336,0.236,0.0488,4.8487,-0.2897,-1.1064
35749,-106.6882,-4.7256,-0.0477,-0.0505,-89.3489,-0.0,-0.0118,1.0299,0.2169,-0.0821,3.2721,-0.6468,-0.3426
35758,-106.6882,-4.7256,-0.0477,-0.0505,-89.3489,-0.0,-0.0118,1.0299,0.2169,-0.0821,3.2721,-0.6468,-0.3426
35774,-106.6882,-4.7256,-0.0477,-0.0505,-89.3489,-0.0,-0.0118,1.0299,0.2169,-0.0821,3.2721,-0.6468,-0.3426
35790,-106.6889,-4.6762,-0.0383,-0.0554,-89.357,0.0009,-0.0228,1.1991,0.1934,-0.253,3.8687,-0.539,-2.5862
35806,-106.6889,-4.6762,-0.0383,-0.0554,-89.357,0.0009,-0.0228,1.1991,0.1934,-0.253,3.8687,-0.539,-2.5862
35825,-106.6899,-4.6303,-0.0316,-0.0507,-89.3374,0.0012,-0.0209,1.1961,0.1519,0.0476,-0.0762,-1.0455,-2.7076
35838,-106.6899,-4.6303,-0.0316,-0.0507,-89.3374,0.0012,-0.0209,1.1961,0.1519,0.0476,-0.0762,-1.0455,-2.7076
35864,-106.6905,-4.591,-0.0273,-0.0445,-89.3439,0.001,-0.0197,1.1956,0.118,0.0357,-0.0125,-0.9994,-2.7501
35870,-106.6905,-4.591,-0.0273,-0.0445,-89.3439,0.001,-0.0197,1.1956,0.118,0.0357,-0.0125,-0.9994,-2.7501
35886,-106.6905,-4.591,-0.0273,-0.0445,-89.3439,0.001,-0.0197,1.1956,0.118,0.0357,-0.0125,-0.9994,-2.7501
35902,-106.6916,-4.5415,-0.0231,-0.0351,-89.3144,0.0008,-0.0197,1.1194,0.0887,0.0009,-1.77,-0.6802,3.0156
35918,-106.6916,-4.5415,-0.0231,-0.0351,-89.3144,0.0008,-0.0197,1.1194,0.0887,0.0009,-1.77,-0.6802,3.0156
35942,-106.6925,-4.503,-0.0206,-0.0326,-89.2875,0.001,-0.0254,1.2829,0.0707,-0.1797,5.1408,-0.5666,3.8504
35950,-106.6925,-4.503,-0.0206,-0.0326,-89.2875,0.001,-0.0254,1.2829,0.0707,-0.1797,5.1408,-0.5666,3.8504
35966,-106.6925,-4.503,-0.0206,-0.0326,-89.2875,0.001,-0.0254,1.2829,0.0707,-0.1797,5.1408,-0.5666,3.8504
35982,-106.6935,-4.4435,-0.018,-0.0367,-89.2658,-0.0003,-0.0143,1.4824,0.053,0.2576,4.612,-0.4088,3.3928
35998,-106.6935,-4.4435,-0.018,-0.0367,-89.2658,-0.0003,-0.0143,1.4824,0.053,0.2576,4.612,-0.4088,3.3928
36014,-106.6941,-4.3917,-0.0165,-0.046,-89.275,-0.0004,-0.0258,1.7313,0.042,-0.3675,7.914,-0.3511,2.2415
36030,-106.6941,-4.3917,-0.0165,-0.046,-89.275,-0.0004,-0.0258,1.7313,0.042,-0.3675,7.914,-0.3511,2.2415
36049,-106.6954,-4.3123,-0.0149,-0.0537,-89.2542,-0.0001,-0.0258,1.8846,0.0312,0.0006,3.5036,-0.2461,0.2605
36062,-106.6954,-4.3123,-0.0149,-0.0537,-89.2542,-0.0001,-0.0258,1.8846,0.0312,0.0006,3.5036,-0.2461,0.2605
36078,-106.6954,-4.3123,-0.0149,-0.0537,-89.2542,-0.0001,-0.0258,1.8846,0.0312,0.0006,3.5036,-0.2461,0.2605
36104,-106.6964,-4.2248,-0.0137,-0.0507,-89.2763,-0.0003,-0.0247,1.8934,0.0223,0.0241,0.1889,-0.1892,-2.0569
36110,-106.6964,-4.2248,-0.0137,-0.0507,-89.2763,-0.0003,-0.0247,1.8934,0.0223,0.0241,0.1889,-0.1892,-2.0569
36126,-106.6964,-4.2248,-0.0137,-0.0507,-89.2763,-0.0003,-0.0247,1.8934,0.0223,0.0241,0.1889,-0.1892,-2.0569
36142,-106.6971,-4.1344,-0.0129,-0.05,-89.3334,-0.0008,-0.0237,2.1161,0.016,0.0217,4.9481,-0.1419,0.1258
36158,-106.6971,-4.1344,-0.0129,-0.05,-89.3334,-0.0008,-0.0237,2.1161,0.016,0.0217,4.9481,-0.1419,0.1258
36187,-106.6975,-4.0747,-0.0125,-0.0535,-89.3521,-0.0016,-0.0177,2.285,0.0131,0.2222,6.2419,-0.1051,-0.3554
36196,-106.6975,-4.0747,-0.0125,-0.0535,-89.3521,-0.0016,-0.0177,2.285,0.0131,0.2222,6.2419,-0.1051,-0.3554
36212,-106.6975,-4.0747,-0.0125,-0.0535,-89.3521,-0.0016,-0.0177,2.285,0.0131,0.2222,6.2419,-0.1051,-0.3554
36228,-106.698,-3.9566,-0.0119,-0.0612,-89.405,-0.0031,-0.0148,2.5148,0.0092,0.0578,4.6875,-0.079,-4.9813
36248,-106.6982,-3.8828,-0.0117,-0.0646,-89.439,-0.0032,-0.0195,2.6572,0.0074,-0.1636,5.0315,-0.0632,0.538
36260,-106.6982,-3.8828,-0.0117,-0.0646,-89.439,-0.0032,-0.0195,2.6572,0.0074,-0.1636,5.0315,-0.0632,0.538
36280,-106.6982,-3.8828,-0.0117,-0.0646,-89.439,-0.0032,-0.0195,2.6572,0.0074,-0.1636,5.0315,-0.0632,0.538
36292,-106.699,-3.7688,-0.0113,-0.0728,-89.4397,-0.0026,-0.0174,2.9411,0.0056,0.0526,7.1444,-0.0472,1.4245
36308,-106.699,-3.7688,-0.0113,-0.0728,-89.4397,-0.0026,-0.0174,2.9411,0.0056,0.0526,7.1444,-0.0472,1.4245
36324,-106.6994,-3.6647,-0.0112,-0.077,-89.4978,-0.0023,-0.0237,3.0936,0.0042,-0.1843,4.4743,-0.0393,-1.4952
36345,-106.6994,-3.6647,-0.0112,-0.077,-89.4978,-0.0023,-0.0237,3.0936,0.0042,-0.1843,4.4743,-0.0393,-1.4952
36361,-106.7001,-3.546,-0.011,-0.0788,-89.5268,-0.0019,-0.0264,3.3213,0.0033,-0.0735,6.1963,-0.0255,-4.09
36377,-106.7001,-3.546,-0.011,-0.0788,-89.5268,-0.0019,-0.0264,3.3213,0.0033,-0.0735,6.1963,-0.0255,-4.09
36393,-106.7011,-3.4402,-0.0109,-0.081,-89.5111,-0.0008,-0.0319,3.5214,0.0026,-0.1801,6.4813,-0.0236,-0.8338
36409,-106.7011,-3.4402,-0.0109,-0.081,-89.5111,-0.0008,-0.0319,3.5214,0.0026,-0.1801,6.4813,-0.0236,-0.8338
36425,-106.7011,-3.4402,-0.0109,-0.081,-89.5111,-0.0008,-0.0319,3.5214,0.0026,-0.1801,6.4813,-0.0236,-0.8338
36448,-106.7027,-3.2496,-0.0108,-0.0841,-89.5189,-0.0006,-0.033,3.8415,0.0018,-0.0201,6.133,-0.015,-1.2043
36457,-106.7027,-3.2496,-0.0108,-0.0841,-89.5189,-0.0006,-0.033,3.8415,0.0018,-0.0201,6.133,-0.015,-1.2043
36478,-106.7036,-3.1361,-0.0107,-0.0822,-89.5246,-0.0007,-0.0319,3.7825,0.0015,0.0356,-1.9927,-0.0112,-1.0017
36489,-106.7036,-3.1361,-0.0107,-0.0822,-89.5246,-0.0007,-0.0319,3.7825,0.0015,0.0356,-1.9927,-0.0112,-1.0017
36508,-106.7044,-2.9836,-0.0107,-0.0825,-89.5815,-0.0011,-0.0309,4.0424,0.0011,0.0257,6.8672,-0.009,-1.7757
36521,-106.7044,-2.9836,-0.0107,-0.0825,-89.5815,-0.0011,-0.0309,4.0424,0.0011,0.0257,6.8672,-0.009,-1.7757
36537,-106.7044,-2.9836,-0.0107,-0.0825,-89.5815,-0.0011,-0.0309,4.0424,0.0011,0.0257,6.8672,-0.009,-1.7757
36553,-106.7053,-2.8165,-0.0107,-0.0806,-89.6214,-0.0016,-0.0285,4.2094,0.0008,0.0608,4.1908,-0.0067,-1.9417
36569,-106.7053,-2.8165,-0.0107,-0.0806,-89.6214,-0.0016,-0.0285,4.2094,0.0008,0.0608,4.1908,-0.0067,-1.9417
36588,-106.7063,-2.6302,-0.0106,-0.0871,-89.6452,-0.002,-0.0296,4.7162,0.0006,-0.0265,12.2336,-0.0058,-0.4517
36601,-106.7063,-2.6302,-0.0106,-0.0871,-89.6452,-0.002,-0.0296,4.7162,0.0006,-0.0265,12.2336,-0.0058,-0.4517
36617,-106.7063,-2.6302,-0.0106,-0.0871,-89.6452,-0.002,-0.0296,4.7162,0.0006,-0.0265,12.2336,-0.0058,-0.4517
36633,-106.7073,-2.4265,-0.0098,-0.1347,-89.6615,-0.045,-0.0341,5.0287,0.0056,-0.1082,7.556,0.1199,-0.4146
36649,-106.7073,-2.4265,-0.0098,-0.1347,-89.6615,-0.045,-0.0341,5.0287,0.0056,-0.1082,7.556,0.1199,-0.4146
36665,-106.7073,-2.4265,-0.0098,-0.1347,-89.6615,-0.045,-0.0341,5.0287,0.0056,-0.1082,7.556,0.1199,-0.4146
36682,-106.709,-2.1859,-0.0096,-0.1416,-89.6396,-0.0406,-0.034,5.3458,0.0009,0.0031,6.8776,-0.1013,1.677
36697,-106.709,-2.1859,-0.0096,-0.1416,-89.6396,-0.0406,-0.034,5.3458,0.0009,0.0031,6.8776,-0.1013,1.677
36713,-106.709,-2.1859,-0.0096,-0.1416,-89.6396,-0.0406,-0.034,5.3458,0.0009,0.0031,6.8776,-0.1013,1.677
36729,-106.7109,-1.9184,-0.0097,-0.1316,-89.6202,-0.0322,-0.0354,5.4905,-0.0012,-0.0287,2.9358,-0.0427,1.1316
36745,-106.7109,-1.9184,-0.0097,-0.1316,-89.6202,-0.0322,-0.0354,5.4905,-0.0012,-0.0287,2.9358,-0.0427,1.1316
36764,-106.7109,-1.9184,-0.0097,-0.1316,-89.6202,-0.0322,-0.0354,5.4905,-0.0012,-0.0287,2.9358,-0.0427,1.1316
36777,-106.7127,-1.6557,-0.0098,-0.1245,-89.6195,-0.0252,-0.0387,5.8725,-0.0018,-0.0727,8.3115,-0.0123,-1.1042
36793,-106.7127,-1.6557,-0.0098,-0.1245,-89.6195,-0.0252,-0.0387,5.8725,-0.0018,-0.0727,8.3115,-0.0123,-1.1042
36809,-106.7127,-1.6557,-0.0098,-0.1245,-89.6195,-0.0252,-0.0387,5.8725,-0.0018,-0.0727,8.3115,-0.0123,-1.1042
36825,-106.7146,-1.3706,-0.01,-0.1181,-89.6128,-0.0193,-0.0402,6.0879,-0.0017,-0.0313,4.5331,0.0008,-0.3498
36841,-106.7146,-1.3706,-0.01,-0.1181,-89.6128,-0.0193,-0.0402,6.0879,-0.0017,-0.0313,4.5331,0.0008,-0.3498
36857,-106.7162,-1.1561,-0.01,-0.1175,-89.6022,-0.0158,-0.0432,6.4026,-0.0015,-0.0879,9.2473,0.0056,-0.1074
36873,-106.7162,-1.1561,-0.01,-0.1175,-89.6022,-0.0158,-0.0432,6.4026,-0.0015,-0.0879,9.2473,0.0056,-0.1074
36892,-106.7177,-0.9402,-0.01,-0.1224,-89.5958,-0.0131,-0.0466,6.7729,-0.0014,-0.1045,11.4063,0.006,0.0602
36905,-106.7177,-0.9402,-0.01,-0.1224,-89.5958,-0.0131,-0.0466,6.7729,-0.0014,-0.1045,11.4063,0.006,0.0602
36929,-106.7196,-0.6794,-0.01,-0.1294,-89.594,-0.0104,-0.0496,7.1315,-0.0011,-0.0822,9.6511,0.0056,-0.0281
36937,-106.7196,-0.6794,-0.01,-0.1294,-89.594,-0.0104,-0.0496,7.1315,-0.0011,-0.0822,9.6511,0.0056,-0.0281
36962,-106.721,-0.4859,-0.01,-0.1327,-89.593,-0.0089,-0.0516,7.379,-0.001,-0.0752,9.3331,0.0056,0.06
36969,-106.721,-0.4859,-0.01,-0.1327,-89.593,-0.0089,-0.0516,7.379,-0.001,-0.0752,9.3331,0.0056,0.06
36985,-106.7228,-0.2224,-0.0101,-0.1331,-89.5923,-0.0072,-0.0536,7.62,-0.0008,-0.0558,6.8756,0.0055,0.0263
37002,-106.7228,-0.2224,-0.0101,-0.1331,-89.5923,-0.0072,-0.0536,7.62,-0.0008,-0.0558,6.8756,0.0055,0.0263
37021,-106.725,0.0824,-0.0101,-0.1272,-89.5915,-0.0057,-0.055,7.7944,-0.0006,-0.0362,4.4129,0.0045,0.0138
37034,-106.725,0.0824,-0.0101,-0.1272,-89.5915,-0.0057,-0.055,7.7944,-0.0006,-0.0362,4.4129,0.0045,0.0138
37050,-106.725,0.0824,-0.0101,-0.1272,-89.5915,-0.0057,-0.055,7.7944,-0.0006,-0.0362,4.4129,0.0045,0.0138
37066,-106.727,0.3602,-0.0102,-0.1203,-89.5912,-0.0047,-0.0566,7.9908,-0.0005,-0.0441,5.5758,0.0043,0.0073
37084,-106.727,0.3602,-0.0102,-0.1203,-89.5912,-0.0047,-0.0566,7.9908,-0.0005,-0.0441,5.5758,0.0043,0.0073
37105,-106.7297,0.7402,-0.0103,-0.1136,-89.5909,-0.0036,-0.0583,8.2162,-0.0004,-0.0377,4.8244,0.0026,0.0037
37116,-106.7297,0.7402,-0.0103,-0.1136,-89.5909,-0.0036,-0.0583,8.2162,-0.0004,-0.0377,4.8244,0.0026,0.0037
37132,-106.7297,0.7402,-0.0103,-0.1136,-89.5909,-0.0036,-0.0583,8.2162,-0.0004,-0.0377,4.8244,0.0026,0.0037
37152,-106.732,1.0714,-0.0103,-0.1075,-89.5908,-0.0028,-0.0597,8.3921,-0.0003,-0.0339,4.4357,0.002,0.0023
37164,-106.732,1.0714,-0.0103,-0.1075,-89.5908,-0.0028,-0.0597,8.3921,-0.0003,-0.0339,4.4357,0.002,0.0023
37180,-106.732,1.0714,-0.0103,-0.1075,-89.5908,-0.0028,-0.0597,8.3921,-0.0003,-0.0339,4.4357,0.002,0.0023
37196,-106.7345,1.4175,-0.0104,-0.1047,-89.5908,-0.0022,-0.062,8.708,-0.0002,-0.0578,7.8299,0.0017,0.0011
37212,-106.7345,1.4175,-0.0104,-0.1047,-89.5908,-0.0022,-0.062,8.708,-0.0002,-0.0578,7.8299,0.0017,0.0011
37231,-106.7373,1.8118,-0.0104,-0.1061,-89.5908,-0.0017,-0.0643,9.0179,-0.0002,-0.0511,6.9904,0.0012,0.0002
37244,-106.7373,1.8118,-0.0104,-0.1061,-89.5908,-0.0017,-0.0643,9.0179,-0.0002,-0.0511,6.9904,0.0012,0.0002
37268,-106.7392,2.0825,-0.0104,-0.107,-89.5908,-0.0014,-0.0657,9.2194,-0.0001,-0.0496,6.8145,0.0014,0.0005
37276,-106.7392,2.0825,-0.0104,-0.107,-89.5908,-0.0014,-0.0657,9.2194,-0.0001,-0.0496,6.8145,0.0014,0.0005
37292,-106.7392,2.0825,-0.0104,-0.107,-89.5908,-0.0014,-0.0657,9.2194,-0.0001,-0.0496,6.8145,0.0014,0.0005
37308,-106.7419,2.4575,-0.0104,-0.1065,-89.5908,-0.0012,-0.0674,9.4515,-0.0001,-0.0421,5.789,0.0006,-0.0002
37324,-106.7419,2.4575,-0.0104,-0.1065,-89.5908,-0.0012,-0.0674,9.4515,-0.0001,-0.0421,5.789,0.0006,-0.0002
37340,-106.7441,2.7637,-0.0104,-0.1055,-89.5908,-0.001,-0.0688,9.6361,-0.0001,-0.0417,5.7719,0.0007,-0.0002
37356,-106.7441,2.7637,-0.0104,-0.1055,-89.5908,-0.001,-0.0688,9.6361,-0.0001,-0.0417,5.7719,0.0007,-0.0002
37386,-106.7468,3.1399,-0.0104,-0.1033,-89.5908,-0.0008,-0.0702,9.8431,-0.0001,-0.0388,5.3738,0.0001,-0.001
37389,-106.7468,3.1399,-0.0104,-0.1033,-89.5908,-0.0008,-0.0702,9.8431,-0.0001,-0.0388,5.3738,0.0001,-0.001
37405,-106.749,3.4527,-0.0104,-0.1011,-89.5908,-0.0006,-0.0714,10.005,-0.0,-0.0371,5.149,0.0006,-0.0007
37421,-106.749,3.4527,-0.0104,-0.1011,-89.5908,-0.0006,-0.0714,10.005,-0.0,-0.0371,5.149,0.0006,-0.0007
37437,-106.7511,3.7412,-0.0104,-0.0987,-89.5908,-0.0005,-0.0724,10.1475,-0.0,-0.0359,4.9872,0.0002,0.0014
37453,-106.7511,3.7412,-0.0104,-0.0987,-89.5908,-0.0005,-0.0724,10.1475,-0.0,-0.0359,4.9872,0.0002,0.0014
37473,-106.7535,4.0829,-0.0104,-0.0959,-89.5908,-0.0005,-0.0736,10.3056,-0.0,-0.0341,4.7416,0.0,0.0015
37485,-106.7535,4.0829,-0.0104,-0.0959,-89.5908,-0.0005,-0.0736,10.3056,-0.0,-0.0341,4.7416,0.0,0.0015
37504,-106.7568,4.5417,-0.0105,-0.092,-89.5908,-0.0004,-0.075,10.5057,-0.0,-0.0327,4.5461,0.0003,-0.0025
37517,-106.7568,4.5417,-0.0105,-0.092,-89.5908,-0.0004,-0.075,10.5057,-0.0,-0.0327,4.5461,0.0003,-0.0025
37533,-106.7568,4.5417,-0.0105,-0.092,-89.5908,-0.0004,-0.075,10.5057,-0.0,-0.0327,4.5461,0.0003,-0.0025
37549,-106.7592,4.8811,-0.0105,-0.0893,-89.5907,-0.0003,-0.076,10.647,-0.0,-0.0316,4.4124,0.0,-0.0016
37565,-106.7592,4.8811,-0.0105,-0.0893,-89.5907,-0.0003,-0.076,10.647,-0.0,-0.0316,4.4124,0.0,-0.0016
37581,-106.7623,5.3112,-0.0105,-0.0858,-89.5908,-0.0002,-0.0773,10.8177,-0.0,-0.0306,4.2678,-0.0002,-0.0051
37597,-106.7623,5.3112,-0.0105,-0.0858,-89.5908,-0.0002,-0.0773,10.8177,-0.0,-0.0306,4.2678,-0.0002,-0.0051
37613,-106.7645,5.6227,-0.0105,-0.0835,-89.5907,-0.0002,-0.0781,10.9369,-0.0,-0.0298,4.1688,0.0007,0.0088
37632,-106.7645,5.6227,-0.0105,-0.0835,-89.5907,-0.0002,-0.0781,10.9369,-0.0,-0.0298,4.1688,0.0007,0.0088
37648,-106.7645,5.6227,-0.0105,-0.0835,-89.5907,-0.0002,-0.0781,10.9369,-0.0,-0.0298,4.1688,0.0007,0.0088
37667,-106.7687,6.2134,-0.0106,-0.0796,-89.5907,-0.0002,-0.0796,11.1515,-0.0,-0.0288,4.0184,-0.0003,0.0114
37680,-106.7687,6.2134,-0.0106,-0.0796,-89.5907,-0.0002,-0.0796,11.1515,-0.0,-0.0288,4.0184,-0.0003,0.0114
37704,-106.7714,6.5908,-0.0106,-0.0773,-89.5907,-0.0001,-0.0806,11.2822,-0.0,-0.0279,3.8896,0.0003,0.0078
37712,-106.7714,6.5908,-0.0106,-0.0773,-89.5907,-0.0001,-0.0806,11.2822,-0.0,-0.0279,3.8896,0.0003,0.0078
37728,-106.7714,6.5908,-0.0106,-0.0773,-89.5907,-0.0001,-0.0806,11.2822,-0.0,-0.0279,3.8896,0.0003,0.0078
37744,-106.775,7.0952,-0.0106,-0.0744,-89.5908,-0.0001,-0.0818,11.4498,-0.0,-0.0271,3.7835,0.0002,-0.0076
37760,-106.775,7.0952,-0.0106,-0.0744,-89.5908,-0.0001,-0.0818,11.4498,-0.0,-0.0271,3.7835,0.0002,-0.0076
37776,-106.7773,7.4106,-0.0106,-0.0727,-89.5907,-0.0001,-0.0825,11.551,-0.0,-0.0264,3.694,-0.0003,0.0085
37792,-106.7773,7.4106,-0.0106,-0.0727,-89.5907,-0.0001,-0.0825,11.551,-0.0,-0.0264,3.694,-0.0003,0.0085
37818,-106.7807,7.8928,-0.0106,-0.0704,-89.5908,-0.0001,-0.0836,11.7003,-0.0,-0.0258,3.6038,0.0,-0.0034
37824,-106.7807,7.8928,-0.0106,-0.0704,-89.5908,-0.0001,-0.0836,11.7003,-0.0,-0.0258,3.6038,0.0,-0.0034
37840,-106.7807,7.8928,-0.0106,-0.0704,-89.5908,-0.0001,-0.0836,11.7003,-0.0,-0.0258,3.6038,0.0,-0.0034
37856,-106.7844,8.4026,-0.0107,-0.068,-89.5908,-0.0,-0.0847,11.8517,-0.0,-0.025,3.5025,-0.0001,0.002
37872,-106.7844,8.4026,-0.0107,-0.068,-89.5908,-0.0,-0.0847,11.8517,-0.0,-0.025,3.5025,-0.0001,0.002
37888,-106.7844,8.4026,-0.0107,-0.068,-89.5908,-0.0,-0.0847,11.8517,-0.0,-0.025,3.5025,-0.0001,0.002
37904,-106.7882,8.9348,-0.0107,-0.0658,-89.5908,-0.0,-0.0857,12.0032,0.0,-0.0243,3.4001,0.0003,-0.0015
37920,-106.7882,8.9348,-0.0107,-0.0658,-89.5908,-0.0,-0.0857,12.0032,0.0,-0.0243,3.4001,0.0003,-0.0015
37936,-106.7915,9.4055,-0.0107,-0.0639,-89.5908,-0.0,-0.0867,12.132,-0.0,-0.0237,3.3066,-0.0002,-0.0022
37952,-106.7915,9.4055,-0.0107,-0.0639,-89.5908,-0.0,-0.0867,12.132,-0.0,-0.0237,3.3066,-0.0002,-0.0022
37968,-106.7915,9.4055,-0.0107,-0.0639,-89.5908,-0.0,-0.0867,12.132,-0.0,-0.0237,3.3066,-0.0002,-0.0022
37984,-106.7952,9.9149,-0.0107,-0.0621,-89.5908,-0.0,-0.0876,12.2663,-0.0,-0.023,3.2182,0.0,0.0006
38000,-106.7952,9.9149,-0.0107,-0.0621,-89.5908,-0.0,-0.0876,12.2663,-0.0,-0.023,3.2182,0.0,0.0006
38016,-106.7976,10.2525,-0.0107,-0.0609,-89.5908,-0.0,-0.0882,12.3524,0.0,-0.0225,3.1456,0.0005,-0.0006
38032,-106.7976,10.2525,-0.0107,-0.0609,-89.5908,-0.0,-0.0882,12.3524,0.0,-0.0225,3.1456,0.0005,-0.0006
38059,-106.8017,10.821,-0.0107,-0.059,-89.5908,0.0,-0.0892,12.4928,0.0,-0.0219,3.0702,-0.0002,0.0004
38064,-106.8017,10.821,-0.0107,-0.059,-89.5908,0.0,-0.0892,12.4928,0.0,-0.0219,3.0702,-0.0002,0.0004
38080,-106.8017,10.821,-0.0107,-0.059,-89.5908,0.0,-0.0892,12.4928,0.0,-0.0219,3.0702,-0.0002,0.0004
38096,-106.8053,11.3319,-0.0107,-0.0571,-89.5907,-0.0004,-0.0901,12.6141,-0.0004,-0.0218,2.9829,-0.0098,0.0018
38112,-106.8053,11.3319,-0.0107,-0.0571,-89.5907,-0.0004,-0.0901,12.6141,-0.0004,-0.0218,2.9829,-0.0098,0.0018
38131,-106.8089,11.8363,-0.0107,-0.0556,-89.5907,-0.0001,-0.0909,12.7233,0.0,-0.0197,2.7472,0.0108,0.0014
38144,-106.8089,11.8363,-0.0107,-0.0556,-89.5907,-0.0001,-0.0909,12.7233,0.0,-0.0197,2.7472,0.0108,0.0014
38160,-106.8089,11.8363,-0.0107,-0.0556,-89.5907,-0.0001,-0.0909,12.7233,0.0,-0.0197,2.7472,0.0108,0.0014
38176,-106.8089,11.8363,-0.0107,-0.0556,-89.5907,-0.0001,-0.0909,12.7233,0.0,-0.0197,2.7472,0.0108,0.0014
38192,-106.8133,12.4515,-0.0108,-0.0528,-89.5907,-0.0,-0.0917,12.8345,0.0,-0.0163,2.311,-0.0005,0.0003
38208,-106.8133,12.4515,-0.0108,-0.0528,-89.5907,-0.0,-0.0917,12.8345,0.0,-0.0163,2.311,-0.0005,0.0003
38224,-106.8168,12.9357,-0.0108,-0.05,-89.5907,-0.0,-0.0922,12.9077,0.0,-0.014,1.9488,0.0001,0.0002
38240,-106.8168,12.9357,-0.0108,-0.05,-89.5907,-0.0,-0.0922,12.9077,0.0,-0.014,1.9488,0.0001,0.0002
38273,-106.82,13.3819,-0.0108,-0.047,-89.5907,0.0,-0.0926,12.9656,0.0,-0.0121,1.6802,-0.0,0.0001
38278,-106.82,13.3819,-0.0108,-0.047,-89.5907,0.0,-0.0926,12.9656,0.0,-0.0121,1.6802,-0.0,0.0001
38294,-106.8234,13.8653,-0.0108,-0.0435,-89.5906,0.0,-0.093,13.0201,-0.0,-0.0105,1.4645,-0.0003,0.0001
38310,-106.8234,13.8653,-0.0108,-0.0435,-89.5906,0.0,-0.093,13.0201,-0.0,-0.0105,1.4645,-0.0003,0.0001
38326,-106.8272,14.3924,-0.0109,-0.0397,-89.5907,0.0,-0.0934,13.0702,0.0,-0.0089,1.2403,0.0001,0.0001
38368,-106.8303,14.8295,-0.0109,-0.0365,-89.5907,0.0,-0.0936,13.106,0.0,-0.0077,1.0709,0.0001,0.0
38374,-106.8303,14.8295,-0.0109,-0.0365,-89.5907,0.0,-0.0936,13.106,0.0,-0.0077,1.0709,0.0001,0.0
38390,-106.8303,14.8295,-0.0109,-0.0365,-89.5907,0.0,-0.0936,13.106,0.0,-0.0077,1.0709,0.0001,0.0
38406,-106.8364,15.3007,-0.0109,-0.0327,-89.7105,0.0185,-0.2724,13.1214,0.0001,-4.977,0.4294,0.0034,-6.158
38422,-106.8364,15.3007,-0.0109,-0.0327,-89.7105,0.0185,-0.2724,13.1214,0.0001,-4.977,0.4294,0.0034,-6.158
38446,-106.8523,15.8343,-0.0109,-0.0262,-90.2681,0.0724,-0.6351,13.0851,0.0006,-8.9066,-0.89,0.0121,-19.358
38454,-106.8523,15.8343,-0.0109,-0.0262,-90.2681,0.0724,-0.6351,13.0851,0.0006,-8.9066,-0.89,0.0121,-19.358
38470,-106.8523,15.8343,-0.0109,-0.0262,-90.2681,0.0724,-0.6351,13.0851,0.0006,-8.9066,-0.89,0.0121,-19.358
38490,-106.8828,16.4048,-0.011,-0.0153,-91.5942,0.1482,-1.0911,12.9895,0.0011,-10.4115,-2.1826,0.0119,-38.033
38502,-106.8828,16.4048,-0.011,-0.0153,-91.5942,0.1482,-1.0911,12.9895,0.0011,-10.4115,-2.1826,0.0119,-38.033
38518,-106.9096,16.7689,-0.011,-0.0063,-92.9192,0.1939,-1.3766,12.9079,0.0013,-10.132,-2.896,0.0052,-51.6102
38534,-106.9096,16.7689,-0.011,-0.0063,-92.9192,0.1939,-1.3766,12.9079,0.0013,-10.132,-2.896,0.0052,-51.6102
38550,-106.9588,17.3167,-0.0111,0.0084,-95.7065,0.2453,-1.7667,12.7648,0.0012,-9.1053,-3.3416,-0.0032,-74.2924
38566,-106.9588,17.3167,-0.0111,0.0084,-95.7065,0.2453,-1.7667,12.7648,0.0012,-9.1053,-3.3416,-0.0032,-74.2924
38585,-107.0019,17.7354,-0.0111,0.0193,-98.556,0.2671,-2.0049,12.6532,0.0009,-7.181,-3.3625,-0.0083,-92.9148
38598,-107.0019,17.7354,-0.0111,0.0193,-98.556,0.2671,-2.0049,12.6532,0.0009,-7.181,-3.3625,-0.0083,-92.9148
38626,-107.0419,18.1001,-0.0112,0.0279,-101.6112,0.2719,-2.1638,12.5582,0.0006,-5.4253,-3.2459,-0.0109,-110.0733
38630,-107.0419,18.1001,-0.0112,0.0279,-101.6112,0.2719,-2.1638,12.5582,0.0006,-5.4253,-3.2459,-0.0109,-110.0733
38646,-107.0419,18.1001,-0.0112,0.0279,-101.6112,0.2719,-2.1638,12.5582,0.0006,-5.4253,-3.2459,-0.0109,-110.0733
38662,-107.0987,18.6158,-0.0112,0.0354,-106.8741,0.2546,-2.2799,12.4409,-0.0,-2.762,-2.7876,-0.0136,-135.2464
38678,-107.0987,18.6158,-0.0112,0.0354,-106.8741,0.2546,-2.2799,12.4409,-0.0,-2.762,-2.7876,-0.0136,-135.2464
38704,-107.1457,19.0699,-0.0112,0.0361,-112.5267,0.2159,-2.2698,12.3573,-0.0005,0.2684,-2.2126,-0.0128,-158.1697
38710,-107.1457,19.0699,-0.0112,0.0361,-112.5267,0.2159,-2.2698,12.3573,-0.0005,0.2684,-2.2126,-0.0128,-158.1697
38726,-107.1457,19.0699,-0.0112,0.0361,-112.5267,0.2159,-2.2698,12.3573,-0.0005,0.2684,-2.2126,-0.0128,-158.1697
38742,-107.1915,19.6012,-0.0112,0.0263,-120.3924,0.1453,-2.0507,12.3059,-0.001,4.8458,-1.1388,-0.0112,-183.6121
38758,-107.1915,19.6012,-0.0112,0.0263,-120.3924,0.1453,-2.0507,12.3059,-0.001,4.8458,-1.1388,-0.0112,-183.6121
38774,-107.1915,19.6012,-0.0112,0.0263,-120.3924,0.1453,-2.0507,12.3059,-0.001,4.8458,-1.1388,-0.0112,-183.6121
38790,-107.2133,20.0424,-0.0111,0.0015,-127.7852,0.0544,-1.5508,12.3219,-0.0015,13.0478,0.4191,-0.0132,-197.8522
38820,-107.2152,20.37,-0.0109,-0.027,-133.649,-0.0271,-1.035,12.3182,-0.0017,17.8623,-0.1288,-0.0061,-205.403
38827,-107.2152,20.37,-0.0109,-0.027,-133.649,-0.0271,-1.035,12.3182,-0.0017,17.8623,-0.1288,-0.0061,-205.403
38843,-107.2152,20.37,-0.0109,-0.027,-133.649,-0.0271,-1.035,12.3182,-0.0017,17.8623,-0.1288,-0.0061,-205.403
38859,-107.1906,20.8588,-0.0105,-0.0795,-142.9127,-0.1545,-0.1023,12.226,0.0007,21.1959,-2.0964,0.0544,-213.4933
38875,-107.1906,20.8588,-0.0105,-0.0795,-142.9127,-0.1545,-0.1023,12.226,0.0007,21.1959,-2.0964,0.0544,-213.4933
38891,-107.149,21.2145,-0.0102,-0.1214,-150.0367,-0.246,0.6606,12.0627,0.0016,23.1552,-4.9537,0.0275,-217.7413
38907,-107.149,21.2145,-0.0102,-0.1214,-150.0367,-0.246,0.6606,12.0627,0.0016,23.1552,-4.9537,0.0275,-217.7413
38923,-107.0666,21.651,-0.0097,-0.1734,-159.2975,-0.3544,1.6605,11.7181,0.0021,23.7972,-8.2027,0.0109,-222.0499
38939,-107.0666,21.651,-0.0097,-0.1734,-159.2975,-0.3544,1.6605,11.7181,0.0021,23.7972,-8.2027,0.0109,-222.0499
38971,-106.9784,21.9818,-0.0093,-0.2111,-166.7886,-0.4308,2.4445,11.33,0.0021,23.4401,-11.6033,0.001,-225.1677
38998,-106.885,22.263,-0.0091,-0.2387,-173.5772,-0.4975,3.036,10.7996,0.0022,19.7005,-17.665,0.0029,-226.6225
39007,-106.885,22.263,-0.0091,-0.2387,-173.5772,-0.4975,3.036,10.7996,0.0022,19.7005,-17.665,0.0029,-226.6225
39023,-106.885,22.263,-0.0091,-0.2387,-173.5772,-0.4975,3.036,10.7996,0.0022,19.7005,-17.665,0.0029,-226.6225
39043,-106.7259,22.654,-0.0088,-0.2653,175.9083,-0.6191,3.6392,9.72,0.0023,13.0721,-23.3981,0.0027,-228.3989
39055,-106.7259,22.654,-0.0088,-0.2653,175.9083,-0.6191,3.6392,9.72,0.0023,13.0721,-23.3981,0.0027,-228.3989
39072,-106.6276,22.8632,-0.0086,-0.2729,169.5774,-0.6931,3.8349,8.9887,0.0023,7.0653,-26.3971,-0.0011,-228.5137
39088,-106.6276,22.8632,-0.0086,-0.2729,169.5774,-0.6931,3.8349,8.9887,0.0023,7.0653,-26.3971,-0.0011,-228.5137
39107,-106.4929,23.1621,-0.0088,-0.248,160.0714,-0.7784,3.2268,8.1605,-0.003,-14.0043,-19.0735,-0.1213,-209.6454
39120,-106.4929,23.1621,-0.0088,-0.248,160.0714,-0.7784,3.2268,8.1605,-0.003,-14.0043,-19.0735,-0.1213,-209.6454
39143,-106.4339,23.3321,-0.0091,-0.2124,154.8104,-0.8109,2.6741,7.7596,-0.0017,-21.2048,-15.3809,0.0475,-198.5251
39154,-106.4339,23.3321,-0.0091,-0.2124,154.8104,-0.8109,2.6741,7.7596,-0.0017,-21.2048,-15.3809,0.0475,-198.5251
39170,-106.3826,23.5472,-0.0094,-0.1544,148.1296,-0.8654,1.8934,7.2671,0.0031,-22.5155,-14.2032,0.1398,-189.7907
39186,-106.3826,23.5472,-0.0094,-0.1544,148.1296,-0.8654,1.8934,7.2671,0.0031,-22.5155,-14.2032,0.1398,-189.7907
39208,-106.3634,23.744,-0.0097,-0.0998,142.0688,-0.9059,1.0721,7.0121,0.002,-24.9725,-7.7539,-0.0333,-179.7344
39218,-106.3634,23.744,-0.0097,-0.0998,142.0688,-0.9059,1.0721,7.0121,0.002,-24.9725,-7.7539,-0.0333,-179.7344
39234,-106.3747,23.9546,-0.0101,-0.0377,136.2166,-0.9146,0.1788,7.0339,0.001,-25.8143,0.63,-0.0288,-162.2701
39250,-106.3747,23.9546,-0.0101,-0.0377,136.2166,-0.9146,0.1788,7.0339,0.001,-25.8143,0.63,-0.0288,-162.2701
39266,-106.3747,23.9546,-0.0101,-0.0377,136.2166,-0.9146,0.1788,7.0339,0.001,-25.8143,0.63,-0.0288,-162.2701
39286,-106.4199,24.196,-0.0106,0.0318,130.6323,-0.8895,-0.7281,7.2488,0.0001,-24.1646,5.7268,-0.0246,-140.3526
39301,-106.4199,24.196,-0.0106,0.0318,130.6323,-0.8895,-0.7281,7.2488,0.0001,-24.1646,5.7268,-0.0246,-140.3526
39326,-106.5126,24.5201,-0.0112,0.1057,124.8694,-0.8187,-1.5597,7.6832,-0.0008,-17.8725,9.3354,-0.0195,-114.135
39333,-106.5126,24.5201,-0.0112,0.1057,124.8694,-0.8187,-1.5597,7.6832,-0.0008,-17.8725,9.3354,-0.0195,-114.135
39364,-106.5864,24.7522,-0.0115,0.1402,121.5456,-0.7372,-1.7956,8.0085,-0.0013,-7.6016,10.4845,-0.0155,-103.6647
39372,-106.5864,24.7522,-0.0115,0.1402,121.5456,-0.7372,-1.7956,8.0085,-0.0013,-7.6016,10.4845,-0.0155,-103.6647
39388,-106.5864,24.7522,-0.0115,0.1402,121.5456,-0.7372,-1.7956,8.0085,-0.0013,-7.6016,10.4845,-0.0155,-103.6647
39404,-106.6922,25.0987,-0.0118,0.1686,117.2127,-0.5713,-1.7661,8.4364,-0.0022,0.6739,9.8008,-0.0202,-97.3385
39420,-106.6922,25.0987,-0.0118,0.1686,117.2127,-0.5713,-1.7661,8.4364,-0.0022,0.6739,9.8008,-0.0202,-97.3385
39436,-106.7826,25.4377,-0.012,0.1773,113.3156,-0.3975,-1.5004,8.7857,-0.0029,6.5627,8.6235,-0.0178,-95.8048
39452,-106.7826,25.4377,-0.012,0.1773,113.3156,-0.3975,-1.5004,8.7857,-0.0029,6.5627,8.6235,-0.0178,-95.8048
39487,-106.8768,25.8855,-0.0121,0.1735,108.4249,-0.1809,-0.991,9.1535,-0.0034,9.9748,7.2027,-0.0089,-95.9085
39500,-106.8768,25.8855,-0.0121,0.1735,108.4249,-0.1809,-0.991,9.1535,-0.0034,9.9748,7.2027,-0.0089,-95.9085
39516,-106.8768,25.8855,-0.0121,0.1735,108.4249,-0.1809,-0.991,9.1535,-0.0034,9.9748,7.2027,-0.0089,-95.9085
39532,-106.9349,26.2446,-0.0122,0.1675,104.8653,-0.0598,-0.8326,9.4303,-0.0033,4.033,7.0481,0.0008,-85.5487
39548,-106.9349,26.2446,-0.0122,0.1675,104.8653,-0.0598,-0.8326,9.4303,-0.0033,4.033,7.0481,0.0008,-85.5487
39575,-106.9942,26.6379,-0.0123,0.1595,101.8377,-0.0255,-1.0035,9.6196,-0.0023,-4.0985,4.539,0.0247,-62.783
39580,-106.9942,26.6379,-0.0123,0.1595,101.8377,-0.0255,-1.0035,9.6196,-0.0023,-4.0985,4.539,0.0247,-62.783
39596,-106.9942,26.6379,-0.0123,0.1595,101.8377,-0.0255,-1.0035,9.6196,-0.0023,-4.0985,4.539,0.0247,-62.783
39615,-107.0643,27.075,-0.0122,0.143,99.7938,-0.06,-1.3319,9.7109,-0.0006,-7.2229,2.007,0.0364,-34.2735
39628,-107.0643,27.075,-0.0122,0.143,99.7938,-0.06,-1.3319,9.7109,-0.0006,-7.2229,2.007,0.0364,-34.2735
39648,-107.1219,27.4256,-0.0121,0.1269,98.885,-0.0807,-1.4415,9.7738,0.0002,-3.0365,1.7443,0.022,-19.9959
39660,-107.1219,27.4256,-0.0121,0.1269,98.885,-0.0807,-1.4415,9.7738,0.0002,-3.0365,1.7443,0.022,-19.9959
39676,-107.1219,27.4256,-0.0121,0.1269,98.885,-0.0807,-1.4415,9.7738,0.0002,-3.0365,1.7443,0.022,-19.9959
39699,-107.1905,27.8551,-0.0119,0.1073,98.2578,-0.0793,-1.4649,9.8409,0.0003,-0.5327,1.5299,0.0029,-11.5244
39708,-107.1905,27.8551,-0.0119,0.1073,98.2578,-0.0793,-1.4649,9.8409,0.0003,-0.5327,1.5299,0.0029,-11.5244
39727,-107.2487,28.2426,-0.0106,0.1551,97.9588,0.1218,-1.4577,9.8857,0.0434,0.1839,1.1411,1.0974,-7.4595
39740,-107.2487,28.2426,-0.0106,0.1551,97.9588,0.1218,-1.4577,9.8857,0.0434,0.1839,1.1411,1.0974,-7.4595
39756,-107.2487,28.2426,-0.0106,0.1551,97.9588,0.1218,-1.4577,9.8857,0.0434,0.1839,1.1411,1.0974,-7.4595
39772,-107.2487,28.2426,-0.0106,0.1551,97.9588,0.1218,-1.4577,9.8857,0.0434,0.1839,1.1411,1.0974,-7.4595
39788,-107.318,28.7075,-0.0111,0.0944,97.7778,-0.0056,-1.4112,9.9173,-0.0158,0.9893,0.6716,-1.2581,-2.8721
39804,-107.318,28.7075,-0.0111,0.0944,97.7778,-0.0056,-1.4112,9.9173,-0.0158,0.9893,0.6716,-1.2581,-2.8721
39827,-107.3735,29.0969,-0.0113,0.0683,97.6936,-0.0213,-1.3886,9.937,-0.0082,0.5751,0.5024,0.193,-1.7987
39836,-107.3735,29.0969,-0.0113,0.0683,97.6936,-0.0213,-1.3886,9.937,-0.0082,0.5751,0.5024,0.193,-1.7987
39852,-107.3735,29.0969,-0.0113,0.0683,97.6936,-0.0213,-1.3886,9.937,-0.0082,0.5751,0.5024,0.193,-1.7987
39880,-107.4396,29.5716,-0.0114,0.05,97.6326,-0.0176,-1.3744,9.9948,-0.0036,0.2992,1.2151,0.0982,-0.9954
39886,-107.4396,29.5716,-0.0114,0.05,97.6326,-0.0176,-1.3744,9.9948,-0.0036,0.2992,1.2151,0.0982,-0.9954
39902,-107.4396,29.5716,-0.0114,0.05,97.6326,-0.0176,-1.3744,9.9948,-0.0036,0.2992,1.2151,0.0982,-0.9954
39918,-107.5015,30.024,-0.0115,0.0391,97.5998,-0.0111,-1.3598,10.0027,-0.0015,0.3214,0.1735,0.0456,-0.5714
39934,-107.5015,30.024,-0.0115,0.0391,97.5998,-0.0111,-1.3598,10.0027,-0.0015,0.3214,0.1735,0.0456,-0.5714
39950,-107.555,30.4186,-0.0114,0.0322,97.5831,-0.0064,-1.352,10.0165,-0.0006,0.1979,0.3516,0.0229,-0.3554
39966,-107.555,30.4186,-0.0114,0.0322,97.5831,-0.0064,-1.352,10.0165,-0.0006,0.1979,0.3516,0.0229,-0.3554
39982,-107.555,30.4186,-0.0114,0.0322,97.5831,-0.0064,-1.352,10.0165,-0.0006,0.1979,0.3516,0.0229,-0.3554
39998,-107.611,30.8372,-0.0105,-0.0189,97.5713,0.0544,-1.3541,10.0701,0.0178,-0.0506,1.2851,0.4419,-0.2781
40014,-107.611,30.8372,-0.0105,-0.0189,97.5713,0.0544,-1.3541,10.0701,0.0178,-0.0506,1.2851,0.4419,-0.2781
40030,-107.611,30.8372,-0.0105,-0.0189,97.5713,0.0544,-1.3541,10.0701,0.0178,-0.0506,1.2851,0.4419,-0.2781
40046,-107.6748,31.3102,-0.0112,0.0176,97.5725,-0.0026,-1.347,10.0907,-0.013,0.1531,0.4401,-0.6584,-0.1896
40062,-107.6748,31.3102,-0.0112,0.0176,97.5725,-0.0026,-1.347,10.0907,-0.013,0.1531,0.4401,-0.6584,-0.1896
40078,-107.725,31.686,-0.0116,0.0369,97.5719,-0.0219,-1.3453,10.107,-0.0057,0.045,0.4383,0.1964,-0.0438
40094,-107.725,31.686,-0.0116,0.0369,97.5719,-0.0219,-1.3453,10.107,-0.0057,0.045,0.4383,0.1964,-0.0438
40110,-107.725,31.686,-0.0116,0.0369,97.5719,-0.0219,-1.3453,10.107,-0.0057,0.045,0.4383,0.1964,-0.0438
40126,-107.7825,32.1182,-0.0118,0.041,97.5709,-0.0236,-1.3501,10.1506,-0.0015,-0.1123,1.0239,0.0982,-0.0163
40142,-107.7825,32.1182,-0.0118,0.041,97.5709,-0.0236,-1.3501,10.1506,-0.0015,-0.1123,1.0239,0.0982,-0.0163
40158,-107.7825,32.1182,-0.0118,0.041,97.5709,-0.0236,-1.3501,10.1506,-0.0015,-0.1123,1.0239,0.0982,-0.0163
40174,-107.8438,32.5794,-0.0117,0.0376,97.5704,-0.02,-1.3505,10.1556,0.0003,-0.0096,0.1094,0.0412,-0.0099
40190,-107.8438,32.5794,-0.0117,0.0376,97.5704,-0.02,-1.3505,10.1556,0.0003,-0.0096,0.1094,0.0412,-0.0099
40209,-107.9048,33.0383,-0.0117,0.0324,97.57,-0.0159,-1.3558,10.1959,0.001,-0.1165,0.8944,0.015,-0.0051
40222,-107.9048,33.0383,-0.0117,0.0324,97.57,-0.0159,-1.3558,10.1959,0.001,-0.1165,0.8944,0.015,-0.0051
40249,-107.9516,33.3906,-0.0116,0.0286,97.5699,-0.0132,-1.3579,10.2128,0.0011,-0.0624,0.4886,0.0036,-0.0033
40254,-107.9516,33.3906,-0.0116,0.0286,97.5699,-0.0132,-1.3579,10.2128,0.0011,-0.0624,0.4886,0.0036,-0.0033
40270,-107.9516,33.3906,-0.0116,0.0286,97.5699,-0.0132,-1.3579,10.2128,0.0011,-0.0624,0.4886,0.0036,-0.0033
40289,-108.0131,33.8532,-0.0115,0.024,97.5698,-0.0103,-1.3583,10.2166,0.0011,-0.0086,0.0839,-0.0016,-0.0018
40302,-108.0131,33.8532,-0.0115,0.024,97.5698,-0.0103,-1.3583,10.2166,0.0011,-0.0086,0.0839,-0.0016,-0.0018
40318,-108.0131,33.8532,-0.0115,0.024,97.5698,-0.0103,-1.3583,10.2166,0.0011,-0.0086,0.0839,-0.0016,-0.0018
40342,-108.0687,34.2712,-0.0115,0.021,97.5697,-0.0082,-1.3634,10.2557,0.0009,-0.1247,0.958,-0.0032,-0.0011
40350,-108.0687,34.2712,-0.0115,0.021,97.5697,-0.0082,-1.3634,10.2557,0.0009,-0.1247,0.958,-0.0032,-0.0011
40366,-108.0687,34.2712,-0.0115,0.021,97.5697,-0.0082,-1.3634,10.2557,0.0009,-0.1247,0.958,-0.0032,-0.0011
40382,-108.1357,34.7756,-0.0114,0.0176,97.5697,-0.0061,-1.3628,10.2521,0.0007,0.0121,-0.0746,-0.0037,-0.0005
40398,-108.1357,34.7756,-0.0114,0.0176,97.5697,-0.0061,-1.3628,10.2521,0.0007,0.0121,-0.0746,-0.0037,-0.0005
40414,-108.1727,35.0539,-0.0114,0.0162,97.5697,-0.0053,-1.3673,10.2863,0.0006,-0.166,1.2642,-0.0047,-0.0006
40430,-108.1727,35.0539,-0.0114,0.0162,97.5697,-0.0053,-1.3673,10.2863,0.0006,-0.166,1.2642,-0.0047,-0.0006
40446,-108.1727,35.0539,-0.0114,0.0162,97.5697,-0.0053,-1.3673,10.2863,0.0006,-0.166,1.2642,-0.0047,-0.0006
40462,-108.246,35.6051,-0.0113,0.0139,97.5697,-0.0039,-1.3705,10.3107,0.0005,-0.0589,0.4563,-0.0028,-0.0004
40478,-108.246,35.6051,-0.0113,0.0139,97.5697,-0.0039,-1.3705,10.3107,0.0005,-0.0589,0.4563,-0.0028,-0.0004
40504,-108.294,35.9665,-0.0113,0.0129,97.5697,-0.0032,-1.3726,10.3275,0.0004,-0.0621,0.4775,-0.0028,-0.0003
40510,-108.294,35.9665,-0.0113,0.0129,97.5697,-0.0032,-1.3726,10.3275,0.0004,-0.0621,0.4775,-0.0028,-0.0003
40526,-108.294,35.9665,-0.0113,0.0129,97.5697,-0.0032,-1.3726,10.3275,0.0004,-0.0621,0.4775,-0.0028,-0.0003
40545,-108.3605,36.4667,-0.0113,0.0113,97.5697,-0.0024,-1.3719,10.322,0.0003,0.0161,-0.1136,-0.0021,-0.0001
40558,-108.3605,36.4667,-0.0113,0.0113,97.5697,-0.0024,-1.3719,10.322,0.0003,0.0161,-0.1136,-0.0021,-0.0001
40574,-108.3605,36.4667,-0.0113,0.0113,97.5697,-0.0024,-1.3719,10.322,0.0003,0.0161,-0.1136,-0.0021,-0.0001
40590,-108.4176,36.8963,-0.0113,0.0107,97.5697,-0.0019,-1.3775,10.3644,0.0002,-0.1349,1.0218,-0.0015,-0.0002
40606,-108.4176,36.8963,-0.0113,0.0107,97.5697,-0.0019,-1.3775,10.3644,0.0002,-0.1349,1.0218,-0.0015,-0.0002
40622,-108.4176,36.8963,-0.0113,0.0107,97.5697,-0.0019,-1.3775,10.3644,0.0002,-0.1349,1.0218,-0.0015,-0.0002
40638,-108.478,37.3511,-0.0113,0.0102,97.5697,-0.0014,-1.3787,10.3741,0.0001,-0.0289,0.2223,-0.0019,-0.0001
40654,-108.478,37.3511,-0.0113,0.0102,97.5697,-0.0014,-1.3787,10.3741,0.0001,-0.0289,0.2223,-0.0019,-0.0001
