timestamp,x,y,z,pitch,yaw,roll,vx,vy,vz,ax,ay,az,yaw_rate
110212,-106.6867,-4.8475,-0.0796,0.0,-89.3578,0.0,0.0,-0.0,0.0401,0.0,-0.0,7.2997,-0.0
110228,-106.6867,-4.8475,-0.0796,0.0,-89.3578,0.0,0.0,-0.0,0.0401,0.0,-0.0,7.2997,-0.0
110244,-106.6867,-4.8475,-0.0796,0.0,-89.3578,0.0,0.0,-0.0,0.0401,0.0,-0.0,7.2997,-0.0
110260,-106.6867,-4.8475,-0.0796,0.0,-89.3578,0.0,0.0,-0.0,0.0401,0.0,-0.0,7.2997,-0.0
110276,-106.6867,-4.8475,-0.0796,0.0,-89.3578,0.0,0.0,-0.0,0.0401,0.0,-0.0,7.2997,-0.0
110292,-106.6867,-4.8475,-0.0796,0.0,-89.3578,0.0,0.0,-0.0,0.0401,0.0,-0.0,7.2997,-0.0
110308,-106.6867,-4.8475,-0.0796,0.0,-89.3578,0.0,0.0,-0.0,0.0401,0.0,-0.0,7.2997,-0.0
110324,-106.6867,-4.8475,-0.0796,0.0,-89.3578,0.0,0.0,-0.0,0.0401,0.0,-0.0,7.2997,-0.0
110340,-106.6867,-4.8475,-0.0796,0.0,-89.3578,0.0,0.0,-0.0,0.0401,0.0,-0.0,7.2997,-0.0
110356,-106.6867,-4.8475,-0.0796,0.0,-89.3578,0.0,0.0,-0.0,0.0401,0.0,-0.0,7.2997,-0.0
110372,-106.6867,-4.8475,-0.0796,0.0,-89.3578,0.0,0.0,-0.0,0.0401,0.0,-0.0,7.2997,-0.0
110388,-106.6867,-4.8475,-0.0796,0.0,-89.3578,0.0,0.0,-0.0,0.0401,0.0,-0.0,7.2997,-0.0
110404,-106.6867,-4.8475,-0.0796,0.0,-89.3578,0.0,0.0,-0.0,0.0401,0.0,-0.0,7.2997,-0.0
110420,-106.6867,-4.8475,-0.0796,0.0,-89.3578,0.0,0.0,-0.0,0.0401,0.0,-0.0,7.2997,-0.0
110436,-106.6867,-4.8475,-0.0796,0.0,-89.3578,0.0,0.0,-0.0,0.0401,0.0,-0.0,7.2997,-0.0
110452,-106.6867,-4.8475,-0.0796,0.0,-89.3578,0.0,0.0,-0.0,0.0401,0.0,-0.0,7.2997,-0.0
110468,-106.6867,-4.8475,-0.0796,0.0,-89.3578,0.0,0.0,-0.0,0.0401,0.0,-0.0,7.2997,-0.0
110484,-106.6867,-4.8475,-0.0796,0.0,-89.3578,0.0,0.0,-0.0,0.0401,0.0,-0.0,7.2997,-0.0
110500,-106.6867,-4.8475,-0.0796,0.0,-89.3578,0.0,0.0,-0.0,0.0401,0.0,-0.0,7.2997,-0.0
110516,-106.6867,-4.8475,-0.0796,0.0,-89.3578,0.0,0.0,-0.0,0.0401,0.0,-0.0,7.2997,-0.0
110532,-106.6867,-4.8459,-0.0607,-0.0015,-89.3578,0.0,-0.0004,0.0391,0.2356,-0.0013,0.1161,0.5806,0.0
110548,-106.6867,-4.8459,-0.0607,-0.0015,-89.3578,0.0,-0.0004,0.0391,0.2356,-0.0013,0.1161,0.5806,0.0
110564,-106.6867,-4.8459,-0.0607,-0.0015,-89.3578,0.0,-0.0004,0.0391,0.2356,-0.0013,0.1161,0.5806,0.0
110580,-106.6867,-4.8459,-0.0607,-0.0015,-89.3578,0.0,-0.0004,0.0391,0.2356,-0.0013,0.1161,0.5806,0.0
110596,-106.6867,-4.8459,-0.0607,-0.0015,-89.3578,0.0,-0.0004,0.0391,0.2356,-0.0013,0.1161,0.5806,0.0
110612,-106.6867,-4.8459,-0.0607,-0.0015,-89.3578,0.0,-0.0004,0.0391,0.2356,-0.0013,0.1161,0.5806,0.0
110628,-106.6867,-4.8459,-0.0607,-0.0015,-89.3578,0.0,-0.0004,0.0391,0.2356,-0.0013,0.1161,0.5806,0.0
110644,-106.6868,-4.8411,-0.0396,-0.005,-89.3581,0.0,-0.0012,0.1069,0.1796,-0.0067,0.6132,-0.507,-0.0483
110660,-106.6868,-4.8411,-0.0396,-0.005,-89.3581,0.0,-0.0012,0.1069,0.1796,-0.0067,0.6132,-0.507,-0.0483
110676,-106.6868,-4.8411,-0.0396,-0.005,-89.3581,0.0,-0.0012,0.1069,0.1796,-0.0067,0.6132,-0.507,-0.0483
110692,-106.6868,-4.8411,-0.0396,-0.005,-89.3581,0.0,-0.0012,0.1069,0.1796,-0.0067,0.6132,-0.507,-0.0483
110708,-106.6868,-4.8411,-0.0396,-0.005,-89.3581,0.0,-0.0012,0.1069,0.1796,-0.0067,0.6132,-0.507,-0.0483
110724,-106.6868,-4.8411,-0.0396,-0.005,-89.3581,0.0,-0.0012,0.1069,0.1796,-0.0067,0.6132,-0.507,-0.0483
110742,-106.6872,-4.8063,-0.0265,-0.0289,-89.3551,0.0,-0.0068,0.5979,0.1096,-0.0609,5.3079,-0.7563,0.0242
110756,-106.6872,-4.8063,-0.0265,-0.0289,-89.3551,0.0,-0.0068,0.5979,0.1096,-0.0609,5.3079,-0.7563,0.0242
110772,-106.6872,-4.8063,-0.0265,-0.0289,-89.3551,0.0,-0.0068,0.5979,0.1096,-0.0609,5.3079,-0.7563,0.0242
110788,-106.6872,-4.8063,-0.0265,-0.0289,-89.3551,0.0,-0.0068,0.5979,0.1096,-0.0609,5.3079,-0.7563,0.0242
110804,-106.6872,-4.8063,-0.0265,-0.0289,-89.3551,0.0,-0.0068,0.5979,0.1096,-0.0609,5.3079,-0.7563,0.0242
110820,-106.6872,-4.8063,-0.0265,-0.0289,-89.3551,0.0,-0.0068,0.5979,0.1096,-0.0609,5.3079,-0.7563,0.0242
110837,-106.6881,-4.7228,-0.0184,-0.0481,-89.354,0.0,-0.0101,0.8973,0.0723,-0.0331,3.0016,-0.3743,-0.0062
110852,-106.6881,-4.7228,-0.0184,-0.0481,-89.354,0.0,-0.0101,0.8973,0.0723,-0.0331,3.0016,-0.3743,-0.0062
110868,-106.6881,-4.7228,-0.0184,-0.0481,-89.354,0.0,-0.0101,0.8973,0.0723,-0.0331,3.0016,-0.3743,-0.0062
110884,-106.6881,-4.7228,-0.0184,-0.0481,-89.354,0.0,-0.0101,0.8973,0.0723,-0.0331,3.0016,-0.3743,-0.0062
110900,-106.6881,-4.7228,-0.0184,-0.0481,-89.354,0.0,-0.0101,0.8973,0.0723,-0.0331,3.0016,-0.3743,-0.0062
110916,-106.6881,-4.7228,-0.0184,-0.0481,-89.354,0.0,-0.0101,0.8973,0.0723,-0.0331,3.0016,-0.3743,-0.0062
110932,-106.6892,-4.6217,-0.0143,-0.0419,-89.3648,-0.0001,-0.0086,1.0632,0.0334,0.0153,1.7137,-0.4012,1.5032
110948,-106.6892,-4.6217,-0.0143,-0.0419,-89.3648,-0.0001,-0.0086,1.0632,0.0334,0.0153,1.7137,-0.4012,1.5032
110964,-106.6892,-4.6217,-0.0143,-0.0419,-89.3648,-0.0001,-0.0086,1.0632,0.0334,0.0153,1.7137,-0.4012,1.5032
110980,-106.6892,-4.6217,-0.0143,-0.0419,-89.3648,-0.0001,-0.0086,1.0632,0.0334,0.0153,1.7137,-0.4012,1.5032
110996,-106.6892,-4.6217,-0.0143,-0.0419,-89.3648,-0.0001,-0.0086,1.0632,0.0334,0.0153,1.7137,-0.4012,1.5032
111012,-106.6892,-4.6217,-0.0143,-0.0419,-89.3648,-0.0001,-0.0086,1.0632,0.0334,0.0153,1.7137,-0.4012,1.5032
111028,-106.6892,-4.6217,-0.0143,-0.0419,-89.3648,-0.0001,-0.0086,1.0632,0.0334,0.0153,1.7137,-0.4012,1.5032
111044,-106.6904,-4.4919,-0.0123,-0.0407,-89.3176,-0.001,-0.0106,1.3582,0.0128,-0.0202,2.9888,-0.2092,3.0958
111060,-106.6904,-4.4919,-0.0123,-0.0407,-89.3176,-0.001,-0.0106,1.3582,0.0128,-0.0202,2.9888,-0.2092,3.0958
111076,-106.6904,-4.4919,-0.0123,-0.0407,-89.3176,-0.001,-0.0106,1.3582,0.0128,-0.0202,2.9888,-0.2092,3.0958
111092,-106.6904,-4.4919,-0.0123,-0.0407,-89.3176,-0.001,-0.0106,1.3582,0.0128,-0.0202,2.9888,-0.2092,3.0958
111108,-106.6904,-4.4919,-0.0123,-0.0407,-89.3176,-0.001,-0.0106,1.3582,0.0128,-0.0202,2.9888,-0.2092,3.0958
111124,-106.6904,-4.4919,-0.0123,-0.0407,-89.3176,-0.001,-0.0106,1.3582,0.0128,-0.0202,2.9888,-0.2092,3.0958
111140,-106.6914,-4.362,-0.0116,-0.0275,-89.3697,0.0005,-0.0166,1.5122,0.0053,-0.0612,1.5715,-0.0758,-1.4741
111156,-106.6914,-4.362,-0.0116,-0.0275,-89.3697,0.0005,-0.0166,1.5122,0.0053,-0.0612,1.5715,-0.0758,-1.4741
111172,-106.6914,-4.362,-0.0116,-0.0275,-89.3697,0.0005,-0.0166,1.5122,0.0053,-0.0612,1.5715,-0.0758,-1.4741
111188,-106.6914,-4.362,-0.0116,-0.0275,-89.3697,0.0005,-0.0166,1.5122,0.0053,-0.0612,1.5715,-0.0758,-1.4741
111204,-106.6914,-4.362,-0.0116,-0.0275,-89.3697,0.0005,-0.0166,1.5122,0.0053,-0.0612,1.5715,-0.0758,-1.4741
111220,-106.6914,-4.362,-0.0116,-0.0275,-89.3697,0.0005,-0.0166,1.5122,0.0053,-0.0612,1.5715,-0.0758,-1.4741
111238,-106.6927,-4.2088,-0.0112,-0.0369,-89.4055,0.0002,-0.0218,1.7698,0.0024,-0.0535,2.6523,-0.0303,3.5199
111252,-106.6927,-4.2088,-0.0112,-0.0369,-89.4055,0.0002,-0.0218,1.7698,0.0024,-0.0535,2.6523,-0.0303,3.5199
111268,-106.6927,-4.2088,-0.0112,-0.0369,-89.4055,0.0002,-0.0218,1.7698,0.0024,-0.0535,2.6523,-0.0303,3.5199
111284,-106.6927,-4.2088,-0.0112,-0.0369,-89.4055,0.0002,-0.0218,1.7698,0.0024,-0.0535,2.6523,-0.0303,3.5199
111300,-106.6927,-4.2088,-0.0112,-0.0369,-89.4055,0.0002,-0.0218,1.7698,0.0024,-0.0535,2.6523,-0.0303,3.5199
111316,-106.6927,-4.2088,-0.0112,-0.0369,-89.4055,0.0002,-0.0218,1.7698,0.0024,-0.0535,2.6523,-0.0303,3.5199
111334,-106.6952,-3.9859,-0.0108,-0.0709,-89.396,-0.0007,-0.0243,2.5971,0.0011,-0.0249,8.2933,-0.013,-0.4257
111348,-106.6952,-3.9859,-0.0108,-0.0709,-89.396,-0.0007,-0.0243,2.5971,0.0011,-0.0249,8.2933,-0.013,-0.4257
111364,-106.6952,-3.9859,-0.0108,-0.0709,-89.396,-0.0007,-0.0243,2.5971,0.0011,-0.0249,8.2933,-0.013,-0.4257
111380,-106.6952,-3.9859,-0.0108,-0.0709,-89.396,-0.0007,-0.0243,2.5971,0.0011,-0.0249,8.2933,-0.013,-0.4257
111396,-106.6952,-3.9859,-0.0108,-0.0709,-89.396,-0.0007,-0.0243,2.5971,0.0011,-0.0249,8.2933,-0.013,-0.4257
111412,-106.6952,-3.9859,-0.0108,-0.0709,-89.396,-0.0007,-0.0243,2.5971,0.0011,-0.0249,8.2933,-0.013,-0.4257
111428,-106.6982,-3.7011,-0.0106,-0.0825,-89.3471,0.0004,-0.0325,2.9773,0.0005,-0.0824,3.8464,-0.006,0.2908
111444,-106.6982,-3.7011,-0.0106,-0.0825,-89.3471,0.0004,-0.0325,2.9773,0.0005,-0.0824,3.8464,-0.006,0.2908
111460,-106.6982,-3.7011,-0.0106,-0.0825,-89.3471,0.0004,-0.0325,2.9773,0.0005,-0.0824,3.8464,-0.006,0.2908
111476,-106.6982,-3.7011,-0.0106,-0.0825,-89.3471,0.0004,-0.0325,2.9773,0.0005,-0.0824,3.8464,-0.006,0.2908
111492,-106.6982,-3.7011,-0.0106,-0.0825,-89.3471,0.0004,-0.0325,2.9773,0.0005,-0.0824,3.8464,-0.006,0.2908
111508,-106.6982,-3.7011,-0.0106,-0.0825,-89.3471,0.0004,-0.0325,2.9773,0.0005,-0.0824,3.8464,-0.006,0.2908
111524,-106.7021,-3.3698,-0.0106,-0.0799,-89.3378,0.0012,-0.0408,3.4178,0.0002,-0.0829,4.3804,-0.0025,-0.441
111540,-106.7021,-3.3698,-0.0106,-0.0799,-89.3378,0.0012,-0.0408,3.4178,0.0002,-0.0829,4.3804,-0.0025,-0.441
111556,-106.7021,-3.3698,-0.0106,-0.0799,-89.3378,0.0012,-0.0408,3.4178,0.0002,-0.0829,4.3804,-0.0025,-0.441
111572,-106.7021,-3.3698,-0.0106,-0.0799,-89.3378,0.0012,-0.0408,3.4178,0.0002,-0.0829,4.3804,-0.0025,-0.441
111588,-106.7021,-3.3698,-0.0106,-0.0799,-89.3378,0.0012,-0.0408,3.4178,0.0002,-0.0829,4.3804,-0.0025,-0.441
111604,-106.7021,-3.3698,-0.0106,-0.0799,-89.3378,0.0012,-0.0408,3.4178,0.0002,-0.0829,4.3804,-0.0025,-0.441
111620,-106.7021,-3.3698,-0.0106,-0.0799,-89.3378,0.0012,-0.0408,3.4178,0.0002,-0.0829,4.3804,-0.0025,-0.441
111638,-106.7057,-2.9905,-0.0106,-0.0777,-89.4143,-0.0003,-0.0412,3.9459,0.0001,-0.0042,5.2002,-0.0013,-1.0441
111652,-106.7057,-2.9905,-0.0106,-0.0777,-89.4143,-0.0003,-0.0412,3.9459,0.0001,-0.0042,5.2002,-0.0013,-1.0441
111668,-106.7057,-2.9905,-0.0106,-0.0777,-89.4143,-0.0003,-0.0412,3.9459,0.0001,-0.0042,5.2002,-0.0013,-1.0441
111684,-106.7057,-2.9905,-0.0106,-0.0777,-89.4143,-0.0003,-0.0412,3.9459,0.0001,-0.0042,5.2002,-0.0013,-1.0441
111700,-106.7057,-2.9905,-0.0106,-0.0777,-89.4143,-0.0003,-0.0412,3.9459,0.0001,-0.0042,5.2002,-0.0013,-1.0441
111716,-106.7057,-2.9905,-0.0106,-0.0777,-89.4143,-0.0003,-0.0412,3.9459,0.0001,-0.0042,5.2002,-0.0013,-1.0441
111733,-106.7102,-2.555,-0.0105,-0.0878,-89.4162,-0.0005,-0.0476,4.6515,0.0001,-0.0645,7.1169,-0.0005,0.7481
111748,-106.7102,-2.555,-0.0105,-0.0878,-89.4162,-0.0005,-0.0476,4.6515,0.0001,-0.0645,7.1169,-0.0005,0.7481
111764,-106.7102,-2.555,-0.0105,-0.0878,-89.4162,-0.0005,-0.0476,4.6515,0.0001,-0.0645,7.1169,-0.0005,0.7481
111780,-106.7102,-2.555,-0.0105,-0.0878,-89.4162,-0.0005,-0.0476,4.6515,0.0001,-0.0645,7.1169,-0.0005,0.7481
111796,-106.7102,-2.555,-0.0105,-0.0878,-89.4162,-0.0005,-0.0476,4.6515,0.0001,-0.0645,7.1169,-0.0005,0.7481
111812,-106.7102,-2.555,-0.0105,-0.0878,-89.4162,-0.0005,-0.0476,4.6515,0.0001,-0.0645,7.1169,-0.0005,0.7481
111828,-106.7148,-2.0991,-0.0105,-0.0944,-89.419,-0.0002,-0.0532,5.2176,0.0001,-0.0619,6.215,0.0002,-0.5551
111844,-106.7148,-2.0991,-0.0105,-0.0944,-89.419,-0.0002,-0.0532,5.2176,0.0001,-0.0619,6.215,0.0002,-0.5551
111860,-106.7148,-2.0991,-0.0105,-0.0944,-89.419,-0.0002,-0.0532,5.2176,0.0001,-0.0619,6.215,0.0002,-0.5551
111876,-106.7148,-2.0991,-0.0105,-0.0944,-89.419,-0.0002,-0.0532,5.2176,0.0001,-0.0619,6.215,0.0002,-0.5551
111892,-106.7148,-2.0991,-0.0105,-0.0944,-89.419,-0.0002,-0.0532,5.2176,0.0001,-0.0619,6.215,0.0002,-0.5551
111908,-106.7148,-2.0991,-0.0105,-0.0944,-89.419,-0.0002,-0.0532,5.2176,0.0001,-0.0619,6.215,0.0002,-0.5551
111926,-106.7208,-1.5433,-0.0105,-0.0939,-89.3848,0.0002,-0.0609,5.7645,0.0,-0.0759,5.4239,-0.0008,0.6595
111940,-106.7208,-1.5433,-0.0105,-0.0939,-89.3848,0.0002,-0.0609,5.7645,0.0,-0.0759,5.4239,-0.0008,0.6595
111956,-106.7208,-1.5433,-0.0105,-0.0939,-89.3848,0.0002,-0.0609,5.7645,0.0,-0.0759,5.4239,-0.0008,0.6595
111972,-106.7208,-1.5433,-0.0105,-0.0939,-89.3848,0.0002,-0.0609,5.7645,0.0,-0.0759,5.4239,-0.0008,0.6595
111988,-106.7208,-1.5433,-0.0105,-0.0939,-89.3848,0.0002,-0.0609,5.7645,0.0,-0.0759,5.4239,-0.0008,0.6595
112004,-106.7208,-1.5433,-0.0105,-0.0939,-89.3848,0.0002,-0.0609,5.7645,0.0,-0.0759,5.4239,-0.0008,0.6595
112020,-106.7268,-0.9641,-0.0104,-0.1035,-89.3971,0.0002,-0.0687,6.5226,0.0,-0.0838,8.1193,0.0,-0.243
112036,-106.7268,-0.9641,-0.0104,-0.1035,-89.3971,0.0002,-0.0687,6.5226,0.0,-0.0838,8.1193,0.0,-0.243
112052,-106.7268,-0.9641,-0.0104,-0.1035,-89.3971,0.0002,-0.0687,6.5226,0.0,-0.0838,8.1193,0.0,-0.243
112068,-106.7268,-0.9641,-0.0104,-0.1035,-89.3971,0.0002,-0.0687,6.5226,0.0,-0.0838,8.1193,0.0,-0.243
112084,-106.7268,-0.9641,-0.0104,-0.1035,-89.3971,0.0002,-0.0687,6.5226,0.0,-0.0838,8.1193,0.0,-0.243
112100,-106.7268,-0.9641,-0.0104,-0.1035,-89.3971,0.0002,-0.0687,6.5226,0.0,-0.0838,8.1193,0.0,-0.243
112116,-106.7338,-0.314,-0.0103,-0.117,-89.3846,0.0003,-0.0778,7.2945,-0.0,-0.098,8.2967,-0.0001,0.3538
112132,-106.7338,-0.314,-0.0103,-0.117,-89.3846,0.0003,-0.0778,7.2945,-0.0,-0.098,8.2967,-0.0001,0.3538
112148,-106.7338,-0.314,-0.0103,-0.117,-89.3846,0.0003,-0.0778,7.2945,-0.0,-0.098,8.2967,-0.0001,0.3538
112164,-106.7338,-0.314,-0.0103,-0.117,-89.3846,0.0003,-0.0778,7.2945,-0.0,-0.098,8.2967,-0.0001,0.3538
112180,-106.7338,-0.314,-0.0103,-0.117,-89.3846,0.0003,-0.0778,7.2945,-0.0,-0.098,8.2967,-0.0001,0.3538
112196,-106.7338,-0.314,-0.0103,-0.117,-89.3846,0.0003,-0.0778,7.2945,-0.0,-0.098,8.2967,-0.0001,0.3538
112212,-106.7418,0.4482,-0.0103,-0.1141,-89.3958,0.0001,-0.0839,7.9012,-0.0,-0.0611,6.0994,-0.0,-0.3948
112228,-106.7418,0.4482,-0.0103,-0.1141,-89.3958,0.0001,-0.0839,7.9012,-0.0,-0.0611,6.0994,-0.0,-0.3948
112244,-106.7418,0.4482,-0.0103,-0.1141,-89.3958,0.0001,-0.0839,7.9012,-0.0,-0.0611,6.0994,-0.0,-0.3948
112260,-106.7418,0.4482,-0.0103,-0.1141,-89.3958,0.0001,-0.0839,7.9012,-0.0,-0.0611,6.0994,-0.0,-0.3948
112276,-106.7418,0.4482,-0.0103,-0.1141,-89.3958,0.0001,-0.0839,7.9012,-0.0,-0.0611,6.0994,-0.0,-0.3948
112292,-106.7418,0.4482,-0.0103,-0.1141,-89.3958,0.0001,-0.0839,7.9012,-0.0,-0.0611,6.0994,-0.0,-0.3948
112310,-106.7507,1.2701,-0.0104,-0.1075,-89.3843,0.0001,-0.0908,8.5005,-0.0,-0.0691,6.0226,-0.0,0.2783
112324,-106.7507,1.2701,-0.0104,-0.1075,-89.3843,0.0001,-0.0908,8.5005,-0.0,-0.0691,6.0226,-0.0,0.2783
112340,-106.7507,1.2701,-0.0104,-0.1075,-89.3843,0.0001,-0.0908,8.5005,-0.0,-0.0691,6.0226,-0.0,0.2783
112356,-106.7507,1.2701,-0.0104,-0.1075,-89.3843,0.0001,-0.0908,8.5005,-0.0,-0.0691,6.0226,-0.0,0.2783
112372,-106.7507,1.2701,-0.0104,-0.1075,-89.3843,0.0001,-0.0908,8.5005,-0.0,-0.0691,6.0226,-0.0,0.2783
112388,-106.7507,1.2701,-0.0104,-0.1075,-89.3843,0.0001,-0.0908,8.5005,-0.0,-0.0691,6.0226,-0.0,0.2783
112405,-106.7594,2.095,-0.0104,-0.1076,-89.3885,0.0001,-0.0977,9.1534,0.0,-0.0741,7.0221,0.0001,-0.0017
112420,-106.7594,2.095,-0.0104,-0.1076,-89.3885,0.0001,-0.0977,9.1534,0.0,-0.0741,7.0221,0.0001,-0.0017
112436,-106.7594,2.095,-0.0104,-0.1076,-89.3885,0.0001,-0.0977,9.1534,0.0,-0.0741,7.0221,0.0001,-0.0017
112452,-106.7594,2.095,-0.0104,-0.1076,-89.3885,0.0001,-0.0977,9.1534,0.0,-0.0741,7.0221,0.0001,-0.0017
112468,-106.7594,2.095,-0.0104,-0.1076,-89.3885,0.0001,-0.0977,9.1534,0.0,-0.0741,7.0221,0.0001,-0.0017
112484,-106.7594,2.095,-0.0104,-0.1076,-89.3885,0.0001,-0.0977,9.1534,0.0,-0.0741,7.0221,0.0001,-0.0017
112502,-106.7692,3.0114,-0.0104,-0.1042,-89.3886,0.0001,-0.1034,9.6926,-0.0,-0.0596,5.5753,-0.0001,-0.0004
112516,-106.7692,3.0114,-0.0104,-0.1042,-89.3886,0.0001,-0.1034,9.6926,-0.0,-0.0596,5.5753,-0.0001,-0.0004
112532,-106.7692,3.0114,-0.0104,-0.1042,-89.3886,0.0001,-0.1034,9.6926,-0.0,-0.0596,5.5753,-0.0001,-0.0004
112548,-106.7692,3.0114,-0.0104,-0.1042,-89.3886,0.0001,-0.1034,9.6926,-0.0,-0.0596,5.5753,-0.0001,-0.0004
112564,-106.7692,3.0114,-0.0104,-0.1042,-89.3886,0.0001,-0.1034,9.6926,-0.0,-0.0596,5.5753,-0.0001,-0.0004
112580,-106.7692,3.0114,-0.0104,-0.1042,-89.3886,0.0001,-0.1034,9.6926,-0.0,-0.0596,5.5753,-0.0001,-0.0004
112597,-106.7794,3.9684,-0.0105,-0.0949,-89.3886,0.0,-0.1084,10.1547,0.0,-0.0513,4.8087,0.0001,-0.0
112612,-106.7794,3.9684,-0.0105,-0.0949,-89.3886,0.0,-0.1084,10.1547,0.0,-0.0513,4.8087,0.0001,-0.0
112628,-106.7794,3.9684,-0.0105,-0.0949,-89.3886,0.0,-0.1084,10.1547,0.0,-0.0513,4.8087,0.0001,-0.0
112644,-106.7794,3.9684,-0.0105,-0.0949,-89.3886,0.0,-0.1084,10.1547,0.0,-0.0513,4.8087,0.0001,-0.0
112660,-106.7794,3.9684,-0.0105,-0.0949,-89.3886,0.0,-0.1084,10.1547,0.0,-0.0513,4.8087,0.0001,-0.0
112676,-106.7794,3.9684,-0.0105,-0.0949,-89.3886,0.0,-0.1084,10.1547,0.0,-0.0513,4.8087,0.0001,-0.0
112692,-106.7897,4.9336,-0.0105,-0.0887,-89.3886,0.0,-0.1132,10.6072,-0.0,-0.0521,4.8807,-0.0003,-0.0
112708,-106.7897,4.9336,-0.0105,-0.0887,-89.3886,0.0,-0.1132,10.6072,-0.0,-0.0521,4.8807,-0.0003,-0.0
112724,-106.7897,4.9336,-0.0105,-0.0887,-89.3886,0.0,-0.1132,10.6072,-0.0,-0.0521,4.8807,-0.0003,-0.0
112740,-106.7897,4.9336,-0.0105,-0.0887,-89.3886,0.0,-0.1132,10.6072,-0.0,-0.0521,4.8807,-0.0003,-0.0
112756,-106.7897,4.9336,-0.0105,-0.0887,-89.3886,0.0,-0.1132,10.6072,-0.0,-0.0521,4.8807,-0.0003,-0.0
112772,-106.7897,4.9336,-0.0105,-0.0887,-89.3886,0.0,-0.1132,10.6072,-0.0,-0.0521,4.8807,-0.0003,-0.0
112790,-106.8009,5.979,-0.0105,-0.0826,-89.3886,-0.0,-0.1176,11.0243,0.0,-0.0462,4.3274,0.0003,-0.0
112804,-106.8009,5.979,-0.0105,-0.0826,-89.3886,-0.0,-0.1176,11.0243,0.0,-0.0462,4.3274,0.0003,-0.0
112820,-106.8009,5.979,-0.0105,-0.0826,-89.3886,-0.0,-0.1176,11.0243,0.0,-0.0462,4.3274,0.0003,-0.0
112836,-106.8009,5.979,-0.0105,-0.0826,-89.3886,-0.0,-0.1176,11.0243,0.0,-0.0462,4.3274,0.0003,-0.0
112852,-106.8009,5.979,-0.0105,-0.0826,-89.3886,-0.0,-0.1176,11.0243,0.0,-0.0462,4.3274,0.0003,-0.0
112868,-106.8009,5.979,-0.0105,-0.0826,-89.3886,-0.0,-0.1176,11.0243,0.0,-0.0462,4.3274,0.0003,-0.0
112886,-106.8126,7.0829,-0.0106,-0.0754,-89.3885,0.0,-0.1216,11.3993,0.0,-0.0407,3.818,0.0001,0.0
112900,-106.8126,7.0829,-0.0106,-0.0754,-89.3885,0.0,-0.1216,11.3993,0.0,-0.0407,3.818,0.0001,0.0
112916,-106.8126,7.0829,-0.0106,-0.0754,-89.3885,0.0,-0.1216,11.3993,0.0,-0.0407,3.818,0.0001,0.0
112932,-106.8126,7.0829,-0.0106,-0.0754,-89.3885,0.0,-0.1216,11.3993,0.0,-0.0407,3.818,0.0001,0.0
112948,-106.8126,7.0829,-0.0106,-0.0754,-89.3885,0.0,-0.1216,11.3993,0.0,-0.0407,3.818,0.0001,0.0
112964,-106.8126,7.0829,-0.0106,-0.0754,-89.3885,0.0,-0.1216,11.3993,0.0,-0.0407,3.818,0.0001,0.0
112982,-106.8245,8.1926,-0.0106,-0.0699,-89.3886,0.0,-0.1255,11.7581,0.0,-0.04,3.7514,-0.0001,0.0
112996,-106.8245,8.1926,-0.0106,-0.0699,-89.3886,0.0,-0.1255,11.7581,0.0,-0.04,3.7514,-0.0001,0.0
113012,-106.8245,8.1926,-0.0106,-0.0699,-89.3886,0.0,-0.1255,11.7581,0.0,-0.04,3.7514,-0.0001,0.0
113028,-106.8245,8.1926,-0.0106,-0.0699,-89.3886,0.0,-0.1255,11.7581,0.0,-0.04,3.7514,-0.0001,0.0
113044,-106.8245,8.1926,-0.0106,-0.0699,-89.3886,0.0,-0.1255,11.7581,0.0,-0.04,3.7514,-0.0001,0.0
113060,-106.8245,8.1926,-0.0106,-0.0699,-89.3886,0.0,-0.1255,11.7581,0.0,-0.04,3.7514,-0.0001,0.0
113078,-106.8366,9.3293,-0.0107,-0.0659,-89.3886,0.0,-0.1291,12.0991,0.0,-0.0383,3.5846,0.0,0.0
113092,-106.8366,9.3293,-0.0107,-0.0659,-89.3886,0.0,-0.1291,12.0991,0.0,-0.0383,3.5846,0.0,0.0
113108,-106.8366,9.3293,-0.0107,-0.0659,-89.3886,0.0,-0.1291,12.0991,0.0,-0.0383,3.5846,0.0,0.0
113124,-106.8366,9.3293,-0.0107,-0.0659,-89.3886,0.0,-0.1291,12.0991,0.0,-0.0383,3.5846,0.0,0.0
113140,-106.8366,9.3293,-0.0107,-0.0659,-89.3886,0.0,-0.1291,12.0991,0.0,-0.0383,3.5846,0.0,0.0
113156,-106.8366,9.3293,-0.0107,-0.0659,-89.3886,0.0,-0.1291,12.0991,0.0,-0.0383,3.5846,0.0,0.0
113174,-106.8494,10.5272,-0.0107,-0.0619,-89.3886,-0.0,-0.1325,12.4202,0.0,-0.0351,3.2921,0.0,0.0
113188,-106.8494,10.5272,-0.0107,-0.0619,-89.3886,-0.0,-0.1325,12.4202,0.0,-0.0351,3.2921,0.0,0.0
113220,-106.8494,10.5272,-0.0107,-0.0619,-89.3886,-0.0,-0.1325,12.4202,0.0,-0.0351,3.2921,0.0,0.0
113236,-106.8494,10.5272,-0.0107,-0.0619,-89.3886,-0.0,-0.1325,12.4202,0.0,-0.0351,3.2921,0.0,0.0
113252,-106.8494,10.5272,-0.0107,-0.0619,-89.3886,-0.0,-0.1325,12.4202,0.0,-0.0351,3.2921,0.0,0.0
113270,-106.8913,11.7524,-0.0108,-0.0478,-90.7475,0.1218,-0.9544,12.5031,0.001,-8.3861,0.846,0.01,-30.1945
113284,-106.8913,11.7524,-0.0108,-0.0478,-90.7475,0.1218,-0.9544,12.5031,0.001,-8.3861,0.846,0.01,-30.1945
113300,-106.8913,11.7524,-0.0108,-0.0478,-90.7475,0.1218,-0.9544,12.5031,0.001,-8.3861,0.846,0.01,-30.1945
113316,-106.8913,11.7524,-0.0108,-0.0478,-90.7475,0.1218,-0.9544,12.5031,0.001,-8.3861,0.846,0.01,-30.1945
113332,-106.8913,11.7524,-0.0108,-0.0478,-90.7475,0.1218,-0.9544,12.5031,0.001,-8.3861,0.846,0.01,-30.1945
113348,-106.8913,11.7524,-0.0108,-0.0478,-90.7475,0.1218,-0.9544,12.5031,0.001,-8.3861,0.846,0.01,-30.1945
113366,-106.9893,12.89,-0.0109,-0.0146,-95.7227,0.2508,-1.833,12.3048,0.0011,-9.5652,-2.1595,0.0015,-75.5792
113380,-106.9893,12.89,-0.0109,-0.0146,-95.7227,0.2508,-1.833,12.3048,0.0011,-9.5652,-2.1595,0.0015,-75.5792
113396,-106.9893,12.89,-0.0109,-0.0146,-95.7227,0.2508,-1.833,12.3048,0.0011,-9.5652,-2.1595,0.0015,-75.5792
113412,-106.9893,12.89,-0.0109,-0.0146,-95.7227,0.2508,-1.833,12.3048,0.0011,-9.5652,-2.1595,0.0015,-75.5792
113428,-106.9893,12.89,-0.0109,-0.0146,-95.7227,0.2508,-1.833,12.3048,0.0011,-9.5652,-2.1595,0.0015,-75.5792
113444,-106.9893,12.89,-0.0109,-0.0146,-95.7227,0.2508,-1.833,12.3048,0.0011,-9.5652,-2.1595,0.0015,-75.5792
113462,-107.1257,14.0725,-0.0111,0.0171,-106.1812,0.2593,-2.3174,12.0504,0.0001,-4.9218,-2.5848,-0.0109,-132.2115
113476,-107.1257,14.0725,-0.0111,0.0171,-106.1812,0.2593,-2.3174,12.0504,0.0001,-4.9218,-2.5848,-0.0109,-132.2115
113492,-107.1257,14.0725,-0.0111,0.0171,-106.1812,0.2593,-2.3174,12.0504,0.0001,-4.9218,-2.5848,-0.0109,-132.2115
113508,-107.1257,14.0725,-0.0111,0.0171,-106.1812,0.2593,-2.3174,12.0504,0.0001,-4.9218,-2.5848,-0.0109,-132.2115
113524,-107.1257,14.0725,-0.0111,0.0171,-106.1812,0.2593,-2.3174,12.0504,0.0001,-4.9218,-2.5848,-0.0109,-132.2115
113540,-107.1257,14.0725,-0.0111,0.0171,-106.1812,0.2593,-2.3174,12.0504,0.0001,-4.9218,-2.5848,-0.0109,-132.2115
113558,-107.2346,15.1889,-0.0111,0.0072,-121.9826,0.1242,-1.9669,11.9577,-0.0011,3.6093,-0.9543,-0.012,-185.4217
113572,-107.2346,15.1889,-0.0111,0.0072,-121.9826,0.1242,-1.9669,11.9577,-0.0011,3.6093,-0.9543,-0.012,-185.4217
113588,-107.2346,15.1889,-0.0111,0.0072,-121.9826,0.1242,-1.9669,11.9577,-0.0011,3.6093,-0.9543,-0.012,-185.4217
113604,-107.2346,15.1889,-0.0111,0.0072,-121.9826,0.1242,-1.9669,11.9577,-0.0011,3.6093,-0.9543,-0.012,-185.4217
113620,-107.2346,15.1889,-0.0111,0.0072,-121.9826,0.1242,-1.9669,11.9577,-0.0011,3.6093,-0.9543,-0.012,-185.4217
113636,-107.2346,15.1889,-0.0111,0.0072,-121.9826,0.1242,-1.9669,11.9577,-0.0011,3.6093,-0.9543,-0.012,-185.4217
113654,-107.2334,16.2505,-0.0105,-0.083,-141.3596,-0.1385,-0.2413,11.9297,0.0006,17.8646,-0.2899,0.0177,-209.6119
113668,-107.2334,16.2505,-0.0105,-0.083,-141.3596,-0.1385,-0.2413,11.9297,0.0006,17.8646,-0.2899,0.0177,-209.6119
113684,-107.2334,16.2505,-0.0105,-0.083,-141.3596,-0.1385,-0.2413,11.9297,0.0006,17.8646,-0.2899,0.0177,-209.6119
113700,-107.2334,16.2505,-0.0105,-0.083,-141.3596,-0.1385,-0.2413,11.9297,0.0006,17.8646,-0.2899,0.0177,-209.6119
113716,-107.2334,16.2505,-0.0105,-0.083,-141.3596,-0.1385,-0.2413,11.9297,0.0006,17.8646,-0.2899,0.0177,-209.6119
113732,-107.2334,16.2505,-0.0105,-0.083,-141.3596,-0.1385,-0.2413,11.9297,0.0006,17.8646,-0.2899,0.0177,-209.6119
113750,-107.0579,17.2628,-0.0094,-0.2009,-162.7687,-0.3955,2.0758,11.2459,0.0021,23.3783,-6.899,0.0152,-220.3141
113764,-107.0579,17.2628,-0.0094,-0.2009,-162.7687,-0.3955,2.0758,11.2459,0.0021,23.3783,-6.899,0.0152,-220.3141
113780,-107.0579,17.2628,-0.0094,-0.2009,-162.7687,-0.3955,2.0758,11.2459,0.0021,23.3783,-6.899,0.0152,-220.3141
113796,-107.0579,17.2628,-0.0094,-0.2009,-162.7687,-0.3955,2.0758,11.2459,0.0021,23.3783,-6.899,0.0152,-220.3141
113828,-107.0579,17.2628,-0.0094,-0.2009,-162.7687,-0.3955,2.0758,11.2459,0.0021,23.3783,-6.899,0.0152,-220.3141
113844,-106.7503,18.0929,-0.0088,-0.2613,175.7721,-0.6526,3.5302,9.177,0.0024,15.0378,-21.3921,0.0028,-222.2354
113860,-106.7503,18.0929,-0.0088,-0.2613,175.7721,-0.6526,3.5302,9.177,0.0024,15.0378,-21.3921,0.0028,-222.2354
113876,-106.7503,18.0929,-0.0088,-0.2613,175.7721,-0.6526,3.5302,9.177,0.0024,15.0378,-21.3921,0.0028,-222.2354
113892,-106.7503,18.0929,-0.0088,-0.2613,175.7721,-0.6526,3.5302,9.177,0.0024,15.0378,-21.3921,0.0028,-222.2354
113908,-106.7503,18.0929,-0.0088,-0.2613,175.7721,-0.6526,3.5302,9.177,0.0024,15.0378,-21.3921,0.0028,-222.2354
113924,-106.7503,18.0929,-0.0088,-0.2613,175.7721,-0.6526,3.5302,9.177,0.0024,15.0378,-21.3921,0.0028,-222.2354
113940,-106.4965,18.6757,-0.0091,-0.2095,156.7473,-0.8493,2.5973,7.2089,-0.003,-10.3863,-21.9131,-0.0602,-200.2636
113956,-106.4965,18.6757,-0.0091,-0.2095,156.7473,-0.8493,2.5973,7.2089,-0.003,-10.3863,-21.9131,-0.0602,-200.2636
113972,-106.4965,18.6757,-0.0091,-0.2095,156.7473,-0.8493,2.5973,7.2089,-0.003,-10.3863,-21.9131,-0.0602,-200.2636
113988,-106.4965,18.6757,-0.0091,-0.2095,156.7473,-0.8493,2.5973,7.2089,-0.003,-10.3863,-21.9131,-0.0602,-200.2636
114004,-106.4965,18.6757,-0.0091,-0.2095,156.7473,-0.8493,2.5973,7.2089,-0.003,-10.3863,-21.9131,-0.0602,-200.2636
114020,-106.4965,18.6757,-0.0091,-0.2095,156.7473,-0.8493,2.5973,7.2089,-0.003,-10.3863,-21.9131,-0.0602,-200.2636
114036,-106.4316,19.1836,-0.0099,-0.0668,139.2989,-0.9503,0.4464,6.3784,0.0017,-22.9903,-8.8771,0.0504,-166.614
114052,-106.4316,19.1836,-0.0099,-0.0668,139.2989,-0.9503,0.4464,6.3784,0.0017,-22.9903,-8.8771,0.0504,-166.614
114068,-106.4316,19.1836,-0.0099,-0.0668,139.2989,-0.9503,0.4464,6.3784,0.0017,-22.9903,-8.8771,0.0504,-166.614
114084,-106.4316,19.1836,-0.0099,-0.0668,139.2989,-0.9503,0.4464,6.3784,0.0017,-22.9903,-8.8771,0.0504,-166.614
114100,-106.4316,19.1836,-0.0099,-0.0668,139.2989,-0.9503,0.4464,6.3784,0.0017,-22.9903,-8.8771,0.0504,-166.614
114116,-106.4316,19.1836,-0.0099,-0.0668,139.2989,-0.9503,0.4464,6.3784,0.0017,-22.9903,-8.8771,0.0504,-166.614
114132,-106.5751,19.7633,-0.0112,0.1064,126.4258,-0.8148,-1.6052,7.1975,-0.001,-21.5855,8.618,-0.0281,-111.691
114148,-106.5751,19.7633,-0.0112,0.1064,126.4258,-0.8148,-1.6052,7.1975,-0.001,-21.5855,8.618,-0.0281,-111.691
114164,-106.5751,19.7633,-0.0112,0.1064,126.4258,-0.8148,-1.6052,7.1975,-0.001,-21.5855,8.618,-0.0281,-111.691
114180,-106.5751,19.7633,-0.0112,0.1064,126.4258,-0.8148,-1.6052,7.1975,-0.001,-21.5855,8.618,-0.0281,-111.691
114196,-106.5751,19.7633,-0.0112,0.1064,126.4258,-0.8148,-1.6052,7.1975,-0.001,-21.5855,8.618,-0.0281,-111.691
114212,-106.8029,20.4462,-0.012,0.1881,117.3763,-0.4905,-1.8406,8.2262,-0.0025,-2.5603,11.1856,-0.017,-93.5057
114228,-106.8029,20.4462,-0.012,0.1881,117.3763,-0.4905,-1.8406,8.2262,-0.0025,-2.5603,11.1856,-0.017,-93.5057
114244,-106.8029,20.4462,-0.012,0.1881,117.3763,-0.4905,-1.8406,8.2262,-0.0025,-2.5603,11.1856,-0.017,-93.5057
114260,-106.8029,20.4462,-0.012,0.1881,117.3763,-0.4905,-1.8406,8.2262,-0.0025,-2.5603,11.1856,-0.017,-93.5057
114276,-106.8029,20.4462,-0.012,0.1881,117.3763,-0.4905,-1.8406,8.2262,-0.0025,-2.5603,11.1856,-0.017,-93.5057
114292,-106.8029,20.4462,-0.012,0.1881,117.3763,-0.4905,-1.8406,8.2262,-0.0025,-2.5603,11.1856,-0.017,-93.5057
114309,-106.992,21.2259,-0.0123,0.1852,108.7299,-0.1094,-1.0258,8.9896,-0.0033,8.7948,8.2386,-0.0086,-93.8473
114340,-106.992,21.2259,-0.0123,0.1852,108.7299,-0.1094,-1.0258,8.9896,-0.0033,8.7948,8.2386,-0.0086,-93.8473
114356,-106.992,21.2259,-0.0123,0.1852,108.7299,-0.1094,-1.0258,8.9896,-0.0033,8.7948,8.2386,-0.0086,-93.8473
114372,-106.992,21.2259,-0.0123,0.1852,108.7299,-0.1094,-1.0258,8.9896,-0.0033,8.7948,8.2386,-0.0086,-93.8473
114388,-106.992,21.2259,-0.0123,0.1852,108.7299,-0.1094,-1.0258,8.9896,-0.0033,8.7948,8.2386,-0.0086,-93.8473
114406,-107.1302,22.0629,-0.0124,0.1625,101.8327,0.0,-1.2107,9.4803,-0.0016,-2.0244,5.3705,0.0188,-51.2726
114420,-107.1302,22.0629,-0.0124,0.1625,101.8327,0.0,-1.2107,9.4803,-0.0016,-2.0244,5.3705,0.0188,-51.2726
114436,-107.1302,22.0629,-0.0124,0.1625,101.8327,0.0,-1.2107,9.4803,-0.0016,-2.0244,5.3705,0.0188,-51.2726
114452,-107.1302,22.0629,-0.0124,0.1625,101.8327,0.0,-1.2107,9.4803,-0.0016,-2.0244,5.3705,0.0188,-51.2726
114468,-107.1302,22.0629,-0.0124,0.1625,101.8327,0.0,-1.2107,9.4803,-0.0016,-2.0244,5.3705,0.0188,-51.2726
114484,-107.1302,22.0629,-0.0124,0.1625,101.8327,0.0,-1.2107,9.4803,-0.0016,-2.0244,5.3705,0.0188,-51.2726
114500,-107.2827,22.9321,-0.0121,0.1211,99.3413,-0.0656,-1.5656,9.6334,0.0005,-3.8899,1.6786,0.0228,-13.0705
114516,-107.2827,22.9321,-0.0121,0.1211,99.3413,-0.0656,-1.5656,9.6334,0.0005,-3.8899,1.6786,0.0228,-13.0705
114532,-107.2827,22.9321,-0.0121,0.1211,99.3413,-0.0656,-1.5656,9.6334,0.0005,-3.8899,1.6786,0.0228,-13.0705
114548,-107.2827,22.9321,-0.0121,0.1211,99.3413,-0.0656,-1.5656,9.6334,0.0005,-3.8899,1.6786,0.0228,-13.0705
114564,-107.2827,22.9321,-0.0121,0.1211,99.3413,-0.0656,-1.5656,9.6334,0.0005,-3.8899,1.6786,0.0228,-13.0705
114580,-107.2827,22.9321,-0.0121,0.1211,99.3413,-0.0656,-1.5656,9.6334,0.0005,-3.8899,1.6786,0.0228,-13.0705
114596,-107.4378,23.8684,-0.0117,0.0798,98.6744,-0.0398,-1.5383,9.7442,0.0,0.2833,1.1466,-0.0042,-2.3999
114612,-107.4378,23.8684,-0.0117,0.0798,98.6744,-0.0398,-1.5383,9.7442,0.0,0.2833,1.1466,-0.0042,-2.3999
114628,-107.4378,23.8684,-0.0117,0.0798,98.6744,-0.0398,-1.5383,9.7442,0.0,0.2833,1.1466,-0.0042,-2.3999
114644,-107.4378,23.8684,-0.0117,0.0798,98.6744,-0.0398,-1.5383,9.7442,0.0,0.2833,1.1466,-0.0042,-2.3999
114660,-107.4378,23.8684,-0.0117,0.0798,98.6744,-0.0398,-1.5383,9.7442,0.0,0.2833,1.1466,-0.0042,-2.3999
114676,-107.4378,23.8684,-0.0117,0.0798,98.6744,-0.0398,-1.5383,9.7442,0.0,0.2833,1.1466,-0.0042,-2.3999
114692,-107.5857,24.8155,-0.0115,0.0509,98.5073,-0.0136,-1.5012,9.8147,-0.0001,0.3831,0.7277,-0.0014,-0.1501
114708,-107.5857,24.8155,-0.0115,0.0509,98.5073,-0.0136,-1.5012,9.8147,-0.0001,0.3831,0.7277,-0.0014,-0.1501
114724,-107.5857,24.8155,-0.0115,0.0509,98.5073,-0.0136,-1.5012,9.8147,-0.0001,0.3831,0.7277,-0.0014,-0.1501
114740,-107.5857,24.8155,-0.0115,0.0509,98.5073,-0.0136,-1.5012,9.8147,-0.0001,0.3831,0.7277,-0.0014,-0.1501
114756,-107.5857,24.8155,-0.0115,0.0509,98.5073,-0.0136,-1.5012,9.8147,-0.0001,0.3831,0.7277,-0.0014,-0.1501
114772,-107.5857,24.8155,-0.0115,0.0509,98.5073,-0.0136,-1.5012,9.8147,-0.0001,0.3831,0.7277,-0.0014,-0.1501
114788,-107.7242,25.7296,-0.0114,0.0343,98.4611,-0.002,-1.4853,9.8817,-0.0,0.1712,0.7221,0.0006,0.3956
114804,-107.7242,25.7296,-0.0114,0.0343,98.4611,-0.002,-1.4853,9.8817,-0.0,0.1712,0.7221,0.0006,0.3956
114820,-107.7242,25.7296,-0.0114,0.0343,98.4611,-0.002,-1.4853,9.8817,-0.0,0.1712,0.7221,0.0006,0.3956
114836,-107.7242,25.7296,-0.0114,0.0343,98.4611,-0.002,-1.4853,9.8817,-0.0,0.1712,0.7221,0.0006,0.3956
114852,-107.7242,25.7296,-0.0114,0.0343,98.4611,-0.002,-1.4853,9.8817,-0.0,0.1712,0.7221,0.0006,0.3956
114868,-107.7242,25.7296,-0.0114,0.0343,98.4611,-0.002,-1.4853,9.8817,-0.0,0.1712,0.7221,0.0006,0.3956
114884,-107.8664,26.6796,-0.0113,0.0237,98.4477,0.0018,-1.4811,9.9328,0.0,0.0439,0.5329,0.0008,0.6444
114900,-107.8664,26.6796,-0.0113,0.0237,98.4477,0.0018,-1.4811,9.9328,0.0,0.0439,0.5329,0.0008,0.6444
114916,-107.8664,26.6796,-0.0113,0.0237,98.4477,0.0018,-1.4811,9.9328,0.0,0.0439,0.5329,0.0008,0.6444
114932,-107.8664,26.6796,-0.0113,0.0237,98.4477,0.0018,-1.4811,9.9328,0.0,0.0439,0.5329,0.0008,0.6444
114948,-107.8664,26.6796,-0.0113,0.0237,98.4477,0.0018,-1.4811,9.9328,0.0,0.0439,0.5329,0.0008,0.6444
114964,-108.0073,27.6264,-0.0113,0.0174,98.4437,0.0023,-1.4838,9.9832,0.0,-0.029,0.5303,-0.0,0.6724
114980,-108.0073,27.6264,-0.0113,0.0174,98.4437,0.0023,-1.4838,9.9832,0.0,-0.029,0.5303,-0.0,0.6724
114996,-108.0073,27.6264,-0.0113,0.0174,98.4437,0.0023,-1.4838,9.9832,0.0,-0.029,0.5303,-0.0,0.6724
115012,-108.0073,27.6264,-0.0113,0.0174,98.4437,0.0023,-1.4838,9.9832,0.0,-0.029,0.5303,-0.0,0.6724
115028,-108.0073,27.6264,-0.0113,0.0174,98.4437,0.0023,-1.4838,9.9832,0.0,-0.029,0.5303,-0.0,0.6724
115044,-108.0073,27.6264,-0.0113,0.0174,98.4437,0.0023,-1.4838,9.9832,0.0,-0.029,0.5303,-0.0,0.6724
115060,-108.145,28.5536,-0.0113,0.0142,98.4423,0.0019,-1.4899,10.0358,0.0,-0.0652,0.5682,-0.0003,0.6209
115076,-108.145,28.5536,-0.0113,0.0142,98.4423,0.0019,-1.4899,10.0358,0.0,-0.0652,0.5682,-0.0003,0.6209
115092,-108.145,28.5536,-0.0113,0.0142,98.4423,0.0019,-1.4899,10.0358,0.0,-0.0652,0.5682,-0.0003,0.6209
115108,-108.145,28.5536,-0.0113,0.0142,98.4423,0.0019,-1.4899,10.0358,0.0,-0.0652,0.5682,-0.0003,0.6209
115124,-108.145,28.5536,-0.0113,0.0142,98.4423,0.0019,-1.4899,10.0358,0.0,-0.0652,0.5682,-0.0003,0.6209
115140,-108.145,28.5536,-0.0113,0.0142,98.4423,0.0019,-1.4899,10.0358,0.0,-0.0652,0.5682,-0.0003,0.6209
115157,-108.2817,29.4744,-0.0112,0.0124,98.4419,0.0013,-1.4967,10.0861,0.0,-0.0745,0.5494,-0.0001,0.5895
115172,-108.2817,29.4744,-0.0112,0.0124,98.4419,0.0013,-1.4967,10.0861,0.0,-0.0745,0.5494,-0.0001,0.5895
115188,-108.2817,29.4744,-0.0112,0.0124,98.4419,0.0013,-1.4967,10.0861,0.0,-0.0745,0.5494,-0.0001,0.5895
115204,-108.2817,29.4744,-0.0112,0.0124,98.4419,0.0013,-1.4967,10.0861,0.0,-0.0745,0.5494,-0.0001,0.5895
115220,-108.2817,29.4744,-0.0112,0.0124,98.4419,0.0013,-1.4967,10.0861,0.0,-0.0745,0.5494,-0.0001,0.5895
115236,-108.2817,29.4744,-0.0112,0.0124,98.4419,0.0013,-1.4967,10.0861,0.0,-0.0745,0.5494,-0.0001,0.5895
115254,-108.4268,30.4524,-0.0112,0.0104,98.4422,0.0008,-1.502,10.1238,0.0,-0.0551,0.3899,-0.0,0.709
115268,-108.4268,30.4524,-0.0112,0.0104,98.4422,0.0008,-1.502,10.1238,0.0,-0.0551,0.3899,-0.0,0.709
115284,-108.4268,30.4524,-0.0112,0.0104,98.4422,0.0008,-1.502,10.1238,0.0,-0.0551,0.3899,-0.0,0.709
115300,-108.4268,30.4524,-0.0112,0.0104,98.4422,0.0008,-1.502,10.1238,0.0,-0.0551,0.3899,-0.0,0.709
115316,-108.4268,30.4524,-0.0112,0.0104,98.4422,0.0008,-1.502,10.1238,0.0,-0.0551,0.3899,-0.0,0.709
115332,-108.4268,30.4524,-0.0112,0.0104,98.4422,0.0008,-1.502,10.1238,0.0,-0.0551,0.3899,-0.0,0.709
115349,-108.5746,31.4483,-0.0112,0.009,98.4422,0.0005,-1.5075,10.1617,-0.0,-0.0563,0.3858,-0.0001,0.7362
115364,-108.5746,31.4483,-0.0112,0.009,98.4422,0.0005,-1.5075,10.1617,-0.0,-0.0563,0.3858,-0.0001,0.7362
115380,-108.5746,31.4483,-0.0112,0.009,98.4422,0.0005,-1.5075,10.1617,-0.0,-0.0563,0.3858,-0.0001,0.7362
115396,-108.5746,31.4483,-0.0112,0.009,98.4422,0.0005,-1.5075,10.1617,-0.0,-0.0563,0.3858,-0.0001,0.7362
115412,-108.5746,31.4483,-0.0112,0.009,98.4422,0.0005,-1.5075,10.1617,-0.0,-0.0563,0.3858,-0.0001,0.7362
115428,-108.5746,31.4483,-0.0112,0.009,98.4422,0.0005,-1.5075,10.1617,-0.0,-0.0563,0.3858,-0.0001,0.7362
115446,-108.7182,32.416,-0.0112,0.0087,98.4419,0.0003,-1.5145,10.2084,-0.0,-0.073,0.4922,-0.0,0.6562
115460,-108.7182,32.416,-0.0112,0.0087,98.4419,0.0003,-1.5145,10.2084,-0.0,-0.073,0.4922,-0.0,0.6562
115476,-108.7182,32.416,-0.0112,0.0087,98.4419,0.0003,-1.5145,10.2084,-0.0,-0.073,0.4922,-0.0,0.6562
115492,-108.7182,32.416,-0.0112,0.0087,98.4419,0.0003,-1.5145,10.2084,-0.0,-0.073,0.4922,-0.0,0.6562
115508,-108.7182,32.416,-0.0112,0.0087,98.4419,0.0003,-1.5145,10.2084,-0.0,-0.073,0.4922,-0.0,0.6562
