timestamp,x,y,z,pitch,yaw,roll,vx,vy,vz,ax,ay,az,yaw_rate
90228,-106.6867,-4.8475,-0.0795,0.0,-89.3578,0.0,0.0,0.0,0.0706,-0.0,-0.0,6.4657,-0.0
90244,-106.6867,-4.8475,-0.0795,0.0,-89.3578,0.0,0.0,0.0,0.0706,-0.0,-0.0,6.4657,-0.0
90260,-106.6867,-4.8475,-0.0795,0.0,-89.3578,0.0,0.0,0.0,0.0706,-0.0,-0.0,6.4657,-0.0
90276,-106.6867,-4.8475,-0.0795,0.0,-89.3578,0.0,0.0,0.0,0.0706,-0.0,-0.0,6.4657,-0.0
90292,-106.6867,-4.8475,-0.0795,0.0,-89.3578,0.0,0.0,0.0,0.0706,-0.0,-0.0,6.4657,-0.0
90308,-106.6867,-4.8475,-0.0795,0.0,-89.3578,0.0,0.0,0.0,0.0706,-0.0,-0.0,6.4657,-0.0
90324,-106.6867,-4.8475,-0.0795,0.0,-89.3578,0.0,0.0,0.0,0.0706,-0.0,-0.0,6.4657,-0.0
90340,-106.6867,-4.8475,-0.0795,0.0,-89.3578,0.0,0.0,0.0,0.0706,-0.0,-0.0,6.4657,-0.0
90356,-106.6867,-4.8475,-0.0795,0.0,-89.3578,0.0,0.0,0.0,0.0706,-0.0,-0.0,6.4657,-0.0
90372,-106.6867,-4.8475,-0.0795,0.0,-89.3578,0.0,0.0,0.0,0.0706,-0.0,-0.0,6.4657,-0.0
90388,-106.6867,-4.8475,-0.0795,0.0,-89.3578,0.0,0.0,0.0,0.0706,-0.0,-0.0,6.4657,-0.0
90404,-106.6867,-4.8475,-0.0795,0.0,-89.3578,0.0,0.0,0.0,0.0706,-0.0,-0.0,6.4657,-0.0
90420,-106.6867,-4.8456,-0.0595,-0.0017,-89.3578,0.0,-0.0005,0.0423,0.2363,-0.0025,0.2271,0.8904,0.0001
90436,-106.6867,-4.8456,-0.0595,-0.0017,-89.3578,0.0,-0.0005,0.0423,0.2363,-0.0025,0.2271,0.8904,0.0001
90452,-106.6867,-4.8456,-0.0595,-0.0017,-89.3578,0.0,-0.0005,0.0423,0.2363,-0.0025,0.2271,0.8904,0.0001
90468,-106.6867,-4.8456,-0.0595,-0.0017,-89.3578,0.0,-0.0005,0.0423,0.2363,-0.0025,0.2271,0.8904,0.0001
90484,-106.6867,-4.8456,-0.0595,-0.0017,-89.3578,0.0,-0.0005,0.0423,0.2363,-0.0025,0.2271,0.8904,0.0001
90500,-106.6867,-4.8456,-0.0595,-0.0017,-89.3578,0.0,-0.0005,0.0423,0.2363,-0.0025,0.2271,0.8904,0.0001
90516,-106.6867,-4.8456,-0.0595,-0.0017,-89.3578,0.0,-0.0005,0.0423,0.2363,-0.0025,0.2271,0.8904,0.0001
90532,-106.6867,-4.8456,-0.0595,-0.0017,-89.3578,0.0,-0.0005,0.0423,0.2363,-0.0025,0.2271,0.8904,0.0001
90548,-106.6867,-4.8456,-0.0595,-0.0017,-89.3578,0.0,-0.0005,0.0423,0.2363,-0.0025,0.2271,0.8904,0.0001
90566,-106.6868,-4.8406,-0.0387,-0.0051,-89.3577,0.0,-0.0012,0.1106,0.1754,-0.0053,0.4724,-0.4218,0.0028
90580,-106.6868,-4.8406,-0.0387,-0.0051,-89.3577,0.0,-0.0012,0.1106,0.1754,-0.0053,0.4724,-0.4218,0.0028
90596,-106.6868,-4.8406,-0.0387,-0.0051,-89.3577,0.0,-0.0012,0.1106,0.1754,-0.0053,0.4724,-0.4218,0.0028
90612,-106.6868,-4.8406,-0.0387,-0.0051,-89.3577,0.0,-0.0012,0.1106,0.1754,-0.0053,0.4724,-0.4218,0.0028
90628,-106.6868,-4.8406,-0.0387,-0.0051,-89.3577,0.0,-0.0012,0.1106,0.1754,-0.0053,0.4724,-0.4218,0.0028
90644,-106.6868,-4.8406,-0.0387,-0.0051,-89.3577,0.0,-0.0012,0.1106,0.1754,-0.0053,0.4724,-0.4218,0.0028
90661,-106.6872,-4.8065,-0.026,-0.0282,-89.3591,0.0,-0.0066,0.5845,0.1067,-0.0589,5.176,-0.7501,-0.1277
90676,-106.6872,-4.8065,-0.026,-0.0282,-89.3591,0.0,-0.0066,0.5845,0.1067,-0.0589,5.176,-0.7501,-0.1277
90692,-106.6872,-4.8065,-0.026,-0.0282,-89.3591,0.0,-0.0066,0.5845,0.1067,-0.0589,5.176,-0.7501,-0.1277
90708,-106.6872,-4.8065,-0.026,-0.0282,-89.3591,0.0,-0.0066,0.5845,0.1067,-0.0589,5.176,-0.7501,-0.1277
90724,-106.6872,-4.8065,-0.026,-0.0282,-89.3591,0.0,-0.0066,0.5845,0.1067,-0.0589,5.176,-0.7501,-0.1277
90740,-106.6872,-4.8065,-0.026,-0.0282,-89.3591,0.0,-0.0066,0.5845,0.1067,-0.0589,5.176,-0.7501,-0.1277
90756,-106.688,-4.7317,-0.0186,-0.0486,-89.3573,0.0,-0.0112,1.0006,0.0586,-0.0492,4.5023,-0.5206,0.2431
90772,-106.688,-4.7317,-0.0186,-0.0486,-89.3573,0.0,-0.0112,1.0006,0.0586,-0.0492,4.5023,-0.5206,0.2431
90788,-106.688,-4.7317,-0.0186,-0.0486,-89.3573,0.0,-0.0112,1.0006,0.0586,-0.0492,4.5023,-0.5206,0.2431
90804,-106.688,-4.7317,-0.0186,-0.0486,-89.3573,0.0,-0.0112,1.0006,0.0586,-0.0492,4.5023,-0.5206,0.2431
90820,-106.688,-4.7317,-0.0186,-0.0486,-89.3573,0.0,-0.0112,1.0006,0.0586,-0.0492,4.5023,-0.5206,0.2431
90836,-106.6886,-4.635,-0.0144,-0.0464,-89.3917,-0.0004,-0.0103,1.1356,0.0325,0.0093,1.4736,-0.2847,-0.2347
90852,-106.6886,-4.635,-0.0144,-0.0464,-89.3917,-0.0004,-0.0103,1.1356,0.0325,0.0093,1.4736,-0.2847,-0.2347
90868,-106.6886,-4.635,-0.0144,-0.0464,-89.3917,-0.0004,-0.0103,1.1356,0.0325,0.0093,1.4736,-0.2847,-0.2347
90884,-106.6886,-4.635,-0.0144,-0.0464,-89.3917,-0.0004,-0.0103,1.1356,0.0325,0.0093,1.4736,-0.2847,-0.2347
90900,-106.6886,-4.635,-0.0144,-0.0464,-89.3917,-0.0004,-0.0103,1.1356,0.0325,0.0093,1.4736,-0.2847,-0.2347
90916,-106.6886,-4.635,-0.0144,-0.0464,-89.3917,-0.0004,-0.0103,1.1356,0.0325,0.0093,1.4736,-0.2847,-0.2347
90932,-106.6896,-4.5306,-0.0125,-0.0278,-89.3917,-0.0,-0.0119,1.1151,0.0133,-0.0164,-0.2105,-0.1967,0.1393
90948,-106.6896,-4.5306,-0.0125,-0.0278,-89.3917,-0.0,-0.0119,1.1151,0.0133,-0.0164,-0.2105,-0.1967,0.1393
90964,-106.6896,-4.5306,-0.0125,-0.0278,-89.3917,-0.0,-0.0119,1.1151,0.0133,-0.0164,-0.2105,-0.1967,0.1393
90980,-106.6896,-4.5306,-0.0125,-0.0278,-89.3917,-0.0,-0.0119,1.1151,0.0133,-0.0164,-0.2105,-0.1967,0.1393
90996,-106.6896,-4.5306,-0.0125,-0.0278,-89.3917,-0.0,-0.0119,1.1151,0.0133,-0.0164,-0.2105,-0.1967,0.1393
91012,-106.6896,-4.5306,-0.0125,-0.0278,-89.3917,-0.0,-0.0119,1.1151,0.0133,-0.0164,-0.2105,-0.1967,0.1393
91030,-106.6909,-4.4268,-0.0117,-0.0224,-89.3815,0.0001,-0.0138,1.2664,0.006,-0.0201,1.6251,-0.0785,0.0427
91044,-106.6909,-4.4268,-0.0117,-0.0224,-89.3815,0.0001,-0.0138,1.2664,0.006,-0.0201,1.6251,-0.0785,0.0427
91060,-106.6909,-4.4268,-0.0117,-0.0224,-89.3815,0.0001,-0.0138,1.2664,0.006,-0.0201,1.6251,-0.0785,0.0427
91076,-106.6909,-4.4268,-0.0117,-0.0224,-89.3815,0.0001,-0.0138,1.2664,0.006,-0.0201,1.6251,-0.0785,0.0427
91092,-106.6909,-4.4268,-0.0117,-0.0224,-89.3815,0.0001,-0.0138,1.2664,0.006,-0.0201,1.6251,-0.0785,0.0427
91108,-106.6909,-4.4268,-0.0117,-0.0224,-89.3815,0.0001,-0.0138,1.2664,0.006,-0.0201,1.6251,-0.0785,0.0427
91126,-106.6927,-4.2903,-0.0112,-0.0405,-89.3384,0.0005,-0.0203,1.6994,0.0028,-0.0688,4.5876,-0.0338,4.2916
91140,-106.6927,-4.2903,-0.0112,-0.0405,-89.3384,0.0005,-0.0203,1.6994,0.0028,-0.0688,4.5876,-0.0338,4.2916
91156,-106.6927,-4.2903,-0.0112,-0.0405,-89.3384,0.0005,-0.0203,1.6994,0.0028,-0.0688,4.5876,-0.0338,4.2916
91172,-106.6927,-4.2903,-0.0112,-0.0405,-89.3384,0.0005,-0.0203,1.6994,0.0028,-0.0688,4.5876,-0.0338,4.2916
91188,-106.6927,-4.2903,-0.0112,-0.0405,-89.3384,0.0005,-0.0203,1.6994,0.0028,-0.0688,4.5876,-0.0338,4.2916
91204,-106.6927,-4.2903,-0.0112,-0.0405,-89.3384,0.0005,-0.0203,1.6994,0.0028,-0.0688,4.5876,-0.0338,4.2916
91222,-106.6941,-4.1018,-0.0109,-0.0603,-89.3778,-0.0002,-0.0215,2.1188,0.0014,-0.0131,4.4174,-0.0156,0.1537
91236,-106.6941,-4.1018,-0.0109,-0.0603,-89.3778,-0.0002,-0.0215,2.1188,0.0014,-0.0131,4.4174,-0.0156,0.1537
91252,-106.6941,-4.1018,-0.0109,-0.0603,-89.3778,-0.0002,-0.0215,2.1188,0.0014,-0.0131,4.4174,-0.0156,0.1537
91268,-106.6941,-4.1018,-0.0109,-0.0603,-89.3778,-0.0002,-0.0215,2.1188,0.0014,-0.0131,4.4174,-0.0156,0.1537
91284,-106.6941,-4.1018,-0.0109,-0.0603,-89.3778,-0.0002,-0.0215,2.1188,0.0014,-0.0131,4.4174,-0.0156,0.1537
91300,-106.6941,-4.1018,-0.0109,-0.0603,-89.3778,-0.0002,-0.0215,2.1188,0.0014,-0.0131,4.4174,-0.0156,0.1537
91316,-106.6964,-3.8711,-0.0107,-0.0718,-89.3958,-0.0001,-0.0262,2.7697,0.0006,-0.0495,6.9223,-0.0076,-1.8847
91332,-106.6964,-3.8711,-0.0107,-0.0718,-89.3958,-0.0001,-0.0262,2.7697,0.0006,-0.0495,6.9223,-0.0076,-1.8847
91348,-106.6964,-3.8711,-0.0107,-0.0718,-89.3958,-0.0001,-0.0262,2.7697,0.0006,-0.0495,6.9223,-0.0076,-1.8847
91364,-106.6964,-3.8711,-0.0107,-0.0718,-89.3958,-0.0001,-0.0262,2.7697,0.0006,-0.0495,6.9223,-0.0076,-1.8847
91380,-106.6964,-3.8711,-0.0107,-0.0718,-89.3958,-0.0001,-0.0262,2.7697,0.0006,-0.0495,6.9223,-0.0076,-1.8847
91396,-106.6984,-3.5907,-0.0105,-0.0899,-89.4813,-0.0011,-0.032,3.3449,0.0004,-0.0653,6.4399,-0.0032,-5.0911
91412,-106.6984,-3.5907,-0.0105,-0.0899,-89.4813,-0.0011,-0.032,3.3449,0.0004,-0.0653,6.4399,-0.0032,-5.0911
91428,-106.6984,-3.5907,-0.0105,-0.0899,-89.4813,-0.0011,-0.032,3.3449,0.0004,-0.0653,6.4399,-0.0032,-5.0911
91444,-106.6984,-3.5907,-0.0105,-0.0899,-89.4813,-0.0011,-0.032,3.3449,0.0004,-0.0653,6.4399,-0.0032,-5.0911
91460,-106.6984,-3.5907,-0.0105,-0.0899,-89.4813,-0.0011,-0.032,3.3449,0.0004,-0.0653,6.4399,-0.0032,-5.0911
91476,-106.6984,-3.5907,-0.0105,-0.0899,-89.4813,-0.0011,-0.032,3.3449,0.0004,-0.0653,6.4399,-0.0032,-5.0911
91494,-106.7013,-3.2421,-0.0104,-0.1005,-89.5093,-0.0013,-0.0335,3.9238,0.0002,-0.0163,6.2508,-0.002,0.7231
91508,-106.7013,-3.2421,-0.0104,-0.1005,-89.5093,-0.0013,-0.0335,3.9238,0.0002,-0.0163,6.2508,-0.002,0.7231
91524,-106.7013,-3.2421,-0.0104,-0.1005,-89.5093,-0.0013,-0.0335,3.9238,0.0002,-0.0163,6.2508,-0.002,0.7231
91540,-106.7013,-3.2421,-0.0104,-0.1005,-89.5093,-0.0013,-0.0335,3.9238,0.0002,-0.0163,6.2508,-0.002,0.7231
91556,-106.7013,-3.2421,-0.0104,-0.1005,-89.5093,-0.0013,-0.0335,3.9238,0.0002,-0.0163,6.2508,-0.002,0.7231
91572,-106.7013,-3.2421,-0.0104,-0.1005,-89.5093,-0.0013,-0.0335,3.9238,0.0002,-0.0163,6.2508,-0.002,0.7231
91588,-106.705,-2.8493,-0.0104,-0.1006,-89.4808,-0.0005,-0.0409,4.5815,0.0001,-0.0809,7.2597,-0.0012,-0.5503
91604,-106.705,-2.8493,-0.0104,-0.1006,-89.4808,-0.0005,-0.0409,4.5815,0.0001,-0.0809,7.2597,-0.0012,-0.5503
91620,-106.705,-2.8493,-0.0104,-0.1006,-89.4808,-0.0005,-0.0409,4.5815,0.0001,-0.0809,7.2597,-0.0012,-0.5503
91636,-106.705,-2.8493,-0.0104,-0.1006,-89.4808,-0.0005,-0.0409,4.5815,0.0001,-0.0809,7.2597,-0.0012,-0.5503
91652,-106.705,-2.8493,-0.0104,-0.1006,-89.4808,-0.0005,-0.0409,4.5815,0.0001,-0.0809,7.2597,-0.0012,-0.5503
91668,-106.705,-2.8493,-0.0104,-0.1006,-89.4808,-0.0005,-0.0409,4.5815,0.0001,-0.0809,7.2597,-0.0012,-0.5503
91684,-106.7089,-2.3905,-0.0104,-0.1004,-89.493,-0.0004,-0.0453,5.1237,0.0001,-0.047,5.7944,-0.0002,0.5304
91700,-106.7089,-2.3905,-0.0104,-0.1004,-89.493,-0.0004,-0.0453,5.1237,0.0001,-0.047,5.7944,-0.0002,0.5304
91716,-106.7089,-2.3905,-0.0104,-0.1004,-89.493,-0.0004,-0.0453,5.1237,0.0001,-0.047,5.7944,-0.0002,0.5304
91732,-106.7089,-2.3905,-0.0104,-0.1004,-89.493,-0.0004,-0.0453,5.1237,0.0001,-0.047,5.7944,-0.0002,0.5304
91748,-106.7089,-2.3905,-0.0104,-0.1004,-89.493,-0.0004,-0.0453,5.1237,0.0001,-0.047,5.7944,-0.0002,0.5304
91764,-106.7133,-1.906,-0.0105,-0.0961,-89.4855,-0.0001,-0.0519,5.6812,0.0,-0.0744,6.2305,-0.0004,-1.2726
91780,-106.7133,-1.906,-0.0105,-0.0961,-89.4855,-0.0001,-0.0519,5.6812,0.0,-0.0744,6.2305,-0.0004,-1.2726
91796,-106.7133,-1.906,-0.0105,-0.0961,-89.4855,-0.0001,-0.0519,5.6812,0.0,-0.0744,6.2305,-0.0004,-1.2726
91812,-106.7133,-1.906,-0.0105,-0.0961,-89.4855,-0.0001,-0.0519,5.6812,0.0,-0.0744,6.2305,-0.0004,-1.2726
91828,-106.7133,-1.906,-0.0105,-0.0961,-89.4855,-0.0001,-0.0519,5.6812,0.0,-0.0744,6.2305,-0.0004,-1.2726
91844,-106.7133,-1.906,-0.0105,-0.0961,-89.4855,-0.0001,-0.0519,5.6812,0.0,-0.0744,6.2305,-0.0004,-1.2726
91860,-106.7133,-1.906,-0.0105,-0.0961,-89.4855,-0.0001,-0.0519,5.6812,0.0,-0.0744,6.2305,-0.0004,-1.2726
91876,-106.7193,-1.3189,-0.0105,-0.0938,-89.4247,0.0008,-0.0598,6.2256,0.0,-0.0797,5.4906,-0.0,1.9985
91892,-106.7193,-1.3189,-0.0105,-0.0938,-89.4247,0.0008,-0.0598,6.2256,0.0,-0.0797,5.4906,-0.0,1.9985
91908,-106.7193,-1.3189,-0.0105,-0.0938,-89.4247,0.0008,-0.0598,6.2256,0.0,-0.0797,5.4906,-0.0,1.9985
91924,-106.7193,-1.3189,-0.0105,-0.0938,-89.4247,0.0008,-0.0598,6.2256,0.0,-0.0797,5.4906,-0.0,1.9985
91940,-106.7193,-1.3189,-0.0105,-0.0938,-89.4247,0.0008,-0.0598,6.2256,0.0,-0.0797,5.4906,-0.0,1.9985
91957,-106.7256,-0.701,-0.0104,-0.1022,-89.4123,0.0011,-0.0707,6.9274,0.0,-0.116,7.453,-0.0001,-0.8924
91972,-106.7256,-0.701,-0.0104,-0.1022,-89.4123,0.0011,-0.0707,6.9274,0.0,-0.116,7.453,-0.0001,-0.8924
91988,-106.7256,-0.701,-0.0104,-0.1022,-89.4123,0.0011,-0.0707,6.9274,0.0,-0.116,7.453,-0.0001,-0.8924
92004,-106.7256,-0.701,-0.0104,-0.1022,-89.4123,0.0011,-0.0707,6.9274,0.0,-0.116,7.453,-0.0001,-0.8924
92020,-106.7256,-0.701,-0.0104,-0.1022,-89.4123,0.0011,-0.0707,6.9274,0.0,-0.116,7.453,-0.0001,-0.8924
92036,-106.7256,-0.701,-0.0104,-0.1022,-89.4123,0.0011,-0.0707,6.9274,0.0,-0.116,7.453,-0.0001,-0.8924
92052,-106.7328,-0.0018,-0.0103,-0.1105,-89.4035,0.001,-0.0783,7.6125,-0.0,-0.0785,7.1373,-0.0002,0.8904
92068,-106.7328,-0.0018,-0.0103,-0.1105,-89.4035,0.001,-0.0783,7.6125,-0.0,-0.0785,7.1373,-0.0002,0.8904
92084,-106.7328,-0.0018,-0.0103,-0.1105,-89.4035,0.001,-0.0783,7.6125,-0.0,-0.0785,7.1373,-0.0002,0.8904
92100,-106.7328,-0.0018,-0.0103,-0.1105,-89.4035,0.001,-0.0783,7.6125,-0.0,-0.0785,7.1373,-0.0002,0.8904
92116,-106.7328,-0.0018,-0.0103,-0.1105,-89.4035,0.001,-0.0783,7.6125,-0.0,-0.0785,7.1373,-0.0002,0.8904
92132,-106.7328,-0.0018,-0.0103,-0.1105,-89.4035,0.001,-0.0783,7.6125,-0.0,-0.0785,7.1373,-0.0002,0.8904
92150,-106.7404,0.7247,-0.0103,-0.1163,-89.4034,0.0007,-0.0864,8.3142,0.0,-0.089,7.7006,0.0001,-0.0064
92164,-106.7404,0.7247,-0.0103,-0.1163,-89.4034,0.0007,-0.0864,8.3142,0.0,-0.089,7.7006,0.0001,-0.0064
92180,-106.7404,0.7247,-0.0103,-0.1163,-89.4034,0.0007,-0.0864,8.3142,0.0,-0.089,7.7006,0.0001,-0.0064
92196,-106.7404,0.7247,-0.0103,-0.1163,-89.4034,0.0007,-0.0864,8.3142,0.0,-0.089,7.7006,0.0001,-0.0064
92212,-106.7404,0.7247,-0.0103,-0.1163,-89.4034,0.0007,-0.0864,8.3142,0.0,-0.089,7.7006,0.0001,-0.0064
92228,-106.7404,0.7247,-0.0103,-0.1163,-89.4034,0.0007,-0.0864,8.3142,0.0,-0.089,7.7006,0.0001,-0.0064
92246,-106.7484,1.4974,-0.0103,-0.1113,-89.4031,0.0005,-0.0912,8.7569,-0.0,-0.0533,4.9233,-0.0003,0.0017
92260,-106.7484,1.4974,-0.0103,-0.1113,-89.4031,0.0005,-0.0912,8.7569,-0.0,-0.0533,4.9233,-0.0003,0.0017
92276,-106.7484,1.4974,-0.0103,-0.1113,-89.4031,0.0005,-0.0912,8.7569,-0.0,-0.0533,4.9233,-0.0003,0.0017
92292,-106.7484,1.4974,-0.0103,-0.1113,-89.4031,0.0005,-0.0912,8.7569,-0.0,-0.0533,4.9233,-0.0003,0.0017
92308,-106.7484,1.4974,-0.0103,-0.1113,-89.4031,0.0005,-0.0912,8.7569,-0.0,-0.0533,4.9233,-0.0003,0.0017
92324,-106.7484,1.4974,-0.0103,-0.1113,-89.4031,0.0005,-0.0912,8.7569,-0.0,-0.0533,4.9233,-0.0003,0.0017
92340,-106.7571,2.3297,-0.0104,-0.1037,-89.403,0.0003,-0.0971,9.3221,-0.0,-0.0649,6.1603,0.0003,0.0006
92356,-106.7571,2.3297,-0.0104,-0.1037,-89.403,0.0003,-0.0971,9.3221,-0.0,-0.0649,6.1603,0.0003,0.0006
92372,-106.7571,2.3297,-0.0104,-0.1037,-89.403,0.0003,-0.0971,9.3221,-0.0,-0.0649,6.1603,0.0003,0.0006
92388,-106.7571,2.3297,-0.0104,-0.1037,-89.403,0.0003,-0.0971,9.3221,-0.0,-0.0649,6.1603,0.0003,0.0006
92404,-106.7571,2.3297,-0.0104,-0.1037,-89.403,0.0003,-0.0971,9.3221,-0.0,-0.0649,6.1603,0.0003,0.0006
92422,-106.7662,3.2066,-0.0104,-0.1013,-89.4029,0.0002,-0.1027,9.8535,0.0,-0.061,5.8355,0.0001,0.0002
92436,-106.7662,3.2066,-0.0104,-0.1013,-89.4029,0.0002,-0.1027,9.8535,0.0,-0.061,5.8355,0.0001,0.0002
92452,-106.7662,3.2066,-0.0104,-0.1013,-89.4029,0.0002,-0.1027,9.8535,0.0,-0.061,5.8355,0.0001,0.0002
92468,-106.7662,3.2066,-0.0104,-0.1013,-89.4029,0.0002,-0.1027,9.8535,0.0,-0.061,5.8355,0.0001,0.0002
92484,-106.7662,3.2066,-0.0104,-0.1013,-89.4029,0.0002,-0.1027,9.8535,0.0,-0.061,5.8355,0.0001,0.0002
92500,-106.7662,3.2066,-0.0104,-0.1013,-89.4029,0.0002,-0.1027,9.8535,0.0,-0.061,5.8355,0.0001,0.0002
92516,-106.7758,4.1273,-0.0105,-0.0956,-89.4029,0.0001,-0.1075,10.3152,-0.0,-0.0529,5.0729,-0.0001,0.0
92532,-106.7758,4.1273,-0.0105,-0.0956,-89.4029,0.0001,-0.1075,10.3152,-0.0,-0.0529,5.0729,-0.0001,0.0
92548,-106.7758,4.1273,-0.0105,-0.0956,-89.4029,0.0001,-0.1075,10.3152,-0.0,-0.0529,5.0729,-0.0001,0.0
92564,-106.7758,4.1273,-0.0105,-0.0956,-89.4029,0.0001,-0.1075,10.3152,-0.0,-0.0529,5.0729,-0.0001,0.0
92580,-106.7758,4.1273,-0.0105,-0.0956,-89.4029,0.0001,-0.1075,10.3152,-0.0,-0.0529,5.0729,-0.0001,0.0
92596,-106.7758,4.1273,-0.0105,-0.0956,-89.4029,0.0001,-0.1075,10.3152,-0.0,-0.0529,5.0729,-0.0001,0.0
92612,-106.7858,5.0846,-0.0105,-0.0887,-89.4029,0.0001,-0.1118,10.733,-0.0,-0.048,4.6056,-0.0002,0.0002
92628,-106.7858,5.0846,-0.0105,-0.0887,-89.4029,0.0001,-0.1118,10.733,-0.0,-0.048,4.6056,-0.0002,0.0002
92644,-106.7858,5.0846,-0.0105,-0.0887,-89.4029,0.0001,-0.1118,10.733,-0.0,-0.048,4.6056,-0.0002,0.0002
92660,-106.7858,5.0846,-0.0105,-0.0887,-89.4029,0.0001,-0.1118,10.733,-0.0,-0.048,4.6056,-0.0002,0.0002
92676,-106.7858,5.0846,-0.0105,-0.0887,-89.4029,0.0001,-0.1118,10.733,-0.0,-0.048,4.6056,-0.0002,0.0002
92692,-106.7858,5.0846,-0.0105,-0.0887,-89.4029,0.0001,-0.1118,10.733,-0.0,-0.048,4.6056,-0.0002,0.0002
92708,-106.7969,6.1516,-0.0106,-0.0807,-89.403,0.0001,-0.1159,11.1256,0.0,-0.042,4.0316,0.0002,0.0004
92724,-106.7969,6.1516,-0.0106,-0.0807,-89.403,0.0001,-0.1159,11.1256,0.0,-0.042,4.0316,0.0002,0.0004
92740,-106.7969,6.1516,-0.0106,-0.0807,-89.403,0.0001,-0.1159,11.1256,0.0,-0.042,4.0316,0.0002,0.0004
92756,-106.7969,6.1516,-0.0106,-0.0807,-89.403,0.0001,-0.1159,11.1256,0.0,-0.042,4.0316,0.0002,0.0004
92772,-106.7969,6.1516,-0.0106,-0.0807,-89.403,0.0001,-0.1159,11.1256,0.0,-0.042,4.0316,0.0002,0.0004
92788,-106.7969,6.1516,-0.0106,-0.0807,-89.403,0.0001,-0.1159,11.1256,0.0,-0.042,4.0316,0.0002,0.0004
92806,-106.8084,7.2589,-0.0106,-0.0727,-89.4029,0.0,-0.1196,11.4795,-0.0,-0.0377,3.6205,-0.0002,0.0002
92820,-106.8084,7.2589,-0.0106,-0.0727,-89.4029,0.0,-0.1196,11.4795,-0.0,-0.0377,3.6205,-0.0002,0.0002
92836,-106.8084,7.2589,-0.0106,-0.0727,-89.4029,0.0,-0.1196,11.4795,-0.0,-0.0377,3.6205,-0.0002,0.0002
92852,-106.8084,7.2589,-0.0106,-0.0727,-89.4029,0.0,-0.1196,11.4795,-0.0,-0.0377,3.6205,-0.0002,0.0002
92868,-106.8084,7.2589,-0.0106,-0.0727,-89.4029,0.0,-0.1196,11.4795,-0.0,-0.0377,3.6205,-0.0002,0.0002
92884,-106.8193,8.2978,-0.0107,-0.0672,-89.4029,0.0,-0.123,11.8015,-0.0,-0.0377,3.6133,0.0002,-0.0001
92900,-106.8193,8.2978,-0.0107,-0.0672,-89.4029,0.0,-0.123,11.8015,-0.0,-0.0377,3.6133,0.0002,-0.0001
92916,-106.8193,8.2978,-0.0107,-0.0672,-89.4029,0.0,-0.123,11.8015,-0.0,-0.0377,3.6133,0.0002,-0.0001
92932,-106.8193,8.2978,-0.0107,-0.0672,-89.4029,0.0,-0.123,11.8015,-0.0,-0.0377,3.6133,0.0002,-0.0001
92948,-106.8193,8.2978,-0.0107,-0.0672,-89.4029,0.0,-0.123,11.8015,-0.0,-0.0377,3.6133,0.0002,-0.0001
92964,-106.8193,8.2978,-0.0107,-0.0672,-89.4029,0.0,-0.123,11.8015,-0.0,-0.0377,3.6133,0.0002,-0.0001
92982,-106.8308,9.4008,-0.0107,-0.0638,-89.403,0.0,-0.1263,12.1248,-0.0,-0.0366,3.5101,-0.0001,-0.0
92996,-106.8308,9.4008,-0.0107,-0.0638,-89.403,0.0,-0.1263,12.1248,-0.0,-0.0366,3.5101,-0.0001,-0.0
93012,-106.8308,9.4008,-0.0107,-0.0638,-89.403,0.0,-0.1263,12.1248,-0.0,-0.0366,3.5101,-0.0001,-0.0
93028,-106.8308,9.4008,-0.0107,-0.0638,-89.403,0.0,-0.1263,12.1248,-0.0,-0.0366,3.5101,-0.0001,-0.0
93044,-106.8308,9.4008,-0.0107,-0.0638,-89.403,0.0,-0.1263,12.1248,-0.0,-0.0366,3.5101,-0.0001,-0.0
93060,-106.8308,9.4008,-0.0107,-0.0638,-89.403,0.0,-0.1263,12.1248,-0.0,-0.0366,3.5101,-0.0001,-0.0
93076,-106.8424,10.5155,-0.0107,-0.0611,-89.403,0.0,-0.1295,12.425,0.0,-0.0345,3.3101,0.0001,-0.0
93092,-106.8424,10.5155,-0.0107,-0.0611,-89.403,0.0,-0.1295,12.425,0.0,-0.0345,3.3101,0.0001,-0.0
93108,-106.8424,10.5155,-0.0107,-0.0611,-89.403,0.0,-0.1295,12.425,0.0,-0.0345,3.3101,0.0001,-0.0
93124,-106.8424,10.5155,-0.0107,-0.0611,-89.403,0.0,-0.1295,12.425,0.0,-0.0345,3.3101,0.0001,-0.0
93140,-106.8424,10.5155,-0.0107,-0.0611,-89.403,0.0,-0.1295,12.425,0.0,-0.0345,3.3101,0.0001,-0.0
93156,-106.8424,10.5155,-0.0107,-0.0611,-89.403,0.0,-0.1295,12.425,0.0,-0.0345,3.3101,0.0001,-0.0
93172,-106.8548,11.7061,-0.0107,-0.0574,-89.4029,0.0,-0.1324,12.7066,0.0,-0.031,2.9762,-0.0,-0.0
93188,-106.8548,11.7061,-0.0107,-0.0574,-89.4029,0.0,-0.1324,12.7066,0.0,-0.031,2.9762,-0.0,-0.0
93204,-106.8548,11.7061,-0.0107,-0.0574,-89.4029,0.0,-0.1324,12.7066,0.0,-0.031,2.9762,-0.0,-0.0
93220,-106.8548,11.7061,-0.0107,-0.0574,-89.4029,0.0,-0.1324,12.7066,0.0,-0.031,2.9762,-0.0,-0.0
93254,-106.8667,12.8492,-0.0108,-0.0511,-89.4029,0.0,-0.1344,12.9023,0.0,-0.0229,2.1957,0.0,-0.0
93268,-106.8667,12.8492,-0.0108,-0.0511,-89.4029,0.0,-0.1344,12.9023,0.0,-0.0229,2.1957,0.0,-0.0
93284,-106.8667,12.8492,-0.0108,-0.0511,-89.4029,0.0,-0.1344,12.9023,0.0,-0.0229,2.1957,0.0,-0.0
93300,-106.8667,12.8492,-0.0108,-0.0511,-89.4029,0.0,-0.1344,12.9023,0.0,-0.0229,2.1957,0.0,-0.0
93316,-106.8667,12.8492,-0.0108,-0.0511,-89.4029,0.0,-0.1344,12.9023,0.0,-0.0229,2.1957,0.0,-0.0
93332,-106.8667,12.8492,-0.0108,-0.0511,-89.4029,0.0,-0.1344,12.9023,0.0,-0.0229,2.1957,0.0,-0.0
93350,-106.9038,14.0389,-0.0109,-0.0357,-90.5542,0.1086,-0.8844,12.8932,0.0009,-8.1469,-0.0992,0.01,-27.3725
93364,-106.9038,14.0389,-0.0109,-0.0357,-90.5542,0.1086,-0.8844,12.8932,0.0009,-8.1469,-0.0992,0.01,-27.3725
93380,-106.9038,14.0389,-0.0109,-0.0357,-90.5542,0.1086,-0.8844,12.8932,0.0009,-8.1469,-0.0992,0.01,-27.3725
93396,-106.9038,14.0389,-0.0109,-0.0357,-90.5542,0.1086,-0.8844,12.8932,0.0009,-8.1469,-0.0992,0.01,-27.3725
93412,-106.9038,14.0389,-0.0109,-0.0357,-90.5542,0.1086,-0.8844,12.8932,0.0009,-8.1469,-0.0992,0.01,-27.3725
93428,-106.9038,14.0389,-0.0109,-0.0357,-90.5542,0.1086,-0.8844,12.8932,0.0009,-8.1469,-0.0992,0.01,-27.3725
93445,-107.0038,15.2592,-0.011,-0.0018,-95.572,0.2503,-1.8262,12.6307,0.0012,-9.8333,-2.7404,0.0028,-74.9162
93460,-107.0038,15.2592,-0.011,-0.0018,-95.572,0.2503,-1.8262,12.6307,0.0012,-9.8333,-2.7404,0.0028,-74.9162
93476,-107.0038,15.2592,-0.011,-0.0018,-95.572,0.2503,-1.8262,12.6307,0.0012,-9.8333,-2.7404,0.0028,-74.9162
93492,-107.0038,15.2592,-0.011,-0.0018,-95.572,0.2503,-1.8262,12.6307,0.0012,-9.8333,-2.7404,0.0028,-74.9162
93508,-107.0038,15.2592,-0.011,-0.0018,-95.572,0.2503,-1.8262,12.6307,0.0012,-9.8333,-2.7404,0.0028,-74.9162
93524,-107.0038,15.2592,-0.011,-0.0018,-95.572,0.2503,-1.8262,12.6307,0.0012,-9.8333,-2.7404,0.0028,-74.9162
93540,-107.1289,16.3725,-0.0111,0.0258,-104.8639,0.2653,-2.3028,12.3623,0.0002,-5.2863,-2.9769,-0.0112,-126.941
93556,-107.1289,16.3725,-0.0111,0.0258,-104.8639,0.2653,-2.3028,12.3623,0.0002,-5.2863,-2.9769,-0.0112,-126.941
93572,-107.1289,16.3725,-0.0111,0.0258,-104.8639,0.2653,-2.3028,12.3623,0.0002,-5.2863,-2.9769,-0.0112,-126.941
93588,-107.1289,16.3725,-0.0111,0.0258,-104.8639,0.2653,-2.3028,12.3623,0.0002,-5.2863,-2.9769,-0.0112,-126.941
93604,-107.1289,16.3725,-0.0111,0.0258,-104.8639,0.2653,-2.3028,12.3623,0.0002,-5.2863,-2.9769,-0.0112,-126.941
93622,-107.2365,17.4264,-0.0112,0.023,-118.7753,0.1596,-2.1594,12.2067,-0.0009,1.6114,-1.7482,-0.0124,-179.4941
93636,-107.2365,17.4264,-0.0112,0.023,-118.7753,0.1596,-2.1594,12.2067,-0.0009,1.6114,-1.7482,-0.0124,-179.4941
93652,-107.2365,17.4264,-0.0112,0.023,-118.7753,0.1596,-2.1594,12.2067,-0.0009,1.6114,-1.7482,-0.0124,-179.4941
93668,-107.2365,17.4264,-0.0112,0.023,-118.7753,0.1596,-2.1594,12.2067,-0.0009,1.6114,-1.7482,-0.0124,-179.4941
93684,-107.2365,17.4264,-0.0112,0.023,-118.7753,0.1596,-2.1594,12.2067,-0.0009,1.6114,-1.7482,-0.0124,-179.4941
93700,-107.2365,17.4264,-0.0112,0.023,-118.7753,0.1596,-2.1594,12.2067,-0.0009,1.6114,-1.7482,-0.0124,-179.4941
93718,-107.2648,18.4793,-0.0107,-0.0513,-137.146,-0.078,-0.7086,12.2097,-0.0005,15.6086,0.032,0.0051,-208.3984
93732,-107.2648,18.4793,-0.0107,-0.0513,-137.146,-0.078,-0.7086,12.2097,-0.0005,15.6086,0.032,0.0051,-208.3984
93748,-107.2648,18.4793,-0.0107,-0.0513,-137.146,-0.078,-0.7086,12.2097,-0.0005,15.6086,0.032,0.0051,-208.3984
93764,-107.2648,18.4793,-0.0107,-0.0513,-137.146,-0.078,-0.7086,12.2097,-0.0005,15.6086,0.032,0.0051,-208.3984
93780,-107.2648,18.4793,-0.0107,-0.0513,-137.146,-0.078,-0.7086,12.2097,-0.0005,15.6086,0.032,0.0051,-208.3984
93796,-107.2648,18.4793,-0.0107,-0.0513,-137.146,-0.078,-0.7086,12.2097,-0.0005,15.6086,0.032,0.0051,-208.3984
93813,-107.1442,19.4641,-0.0098,-0.1662,-157.0564,-0.3332,1.4136,11.7349,0.002,22.9888,-5.1432,0.027,-220.394
93828,-107.1442,19.4641,-0.0098,-0.1662,-157.0564,-0.3332,1.4136,11.7349,0.002,22.9888,-5.1432,0.027,-220.394
93860,-107.1442,19.4641,-0.0098,-0.1662,-157.0564,-0.3332,1.4136,11.7349,0.002,22.9888,-5.1432,0.027,-220.394
93876,-107.1442,19.4641,-0.0098,-0.1662,-157.0564,-0.3332,1.4136,11.7349,0.002,22.9888,-5.1432,0.027,-220.394
93892,-107.1442,19.4641,-0.0098,-0.1662,-157.0564,-0.3332,1.4136,11.7349,0.002,22.9888,-5.1432,0.027,-220.394
93908,-106.8947,20.3064,-0.009,-0.2392,-177.2667,-0.5951,2.9992,9.9563,0.0026,17.4294,-19.5519,0.0063,-222.7086
93924,-106.8947,20.3064,-0.009,-0.2392,-177.2667,-0.5951,2.9992,9.9563,0.0026,17.4294,-19.5519,0.0063,-222.7086
93940,-106.8947,20.3064,-0.009,-0.2392,-177.2667,-0.5951,2.9992,9.9563,0.0026,17.4294,-19.5519,0.0063,-222.7086
93956,-106.8947,20.3064,-0.009,-0.2392,-177.2667,-0.5951,2.9992,9.9563,0.0026,17.4294,-19.5519,0.0063,-222.7086
93972,-106.8947,20.3064,-0.009,-0.2392,-177.2667,-0.5951,2.9992,9.9563,0.0026,17.4294,-19.5519,0.0063,-222.7086
93990,-106.6641,20.9379,-0.0092,-0.2004,164.1968,-0.8078,2.3625,7.9122,-0.0033,-7.2839,-23.387,-0.0676,-200.7018
94004,-106.6641,20.9379,-0.0092,-0.2004,164.1968,-0.8078,2.3625,7.9122,-0.0033,-7.2839,-23.387,-0.0676,-200.7018
94020,-106.6641,20.9379,-0.0092,-0.2004,164.1968,-0.8078,2.3625,7.9122,-0.0033,-7.2839,-23.387,-0.0676,-200.7018
94036,-106.6641,20.9379,-0.0092,-0.2004,164.1968,-0.8078,2.3625,7.9122,-0.0033,-7.2839,-23.387,-0.0676,-200.7018
94052,-106.6641,20.9379,-0.0092,-0.2004,164.1968,-0.8078,2.3625,7.9122,-0.0033,-7.2839,-23.387,-0.0676,-200.7018
94068,-106.6641,20.9379,-0.0092,-0.2004,164.1968,-0.8078,2.3625,7.9122,-0.0033,-7.2839,-23.387,-0.0676,-200.7018
94084,-106.5967,21.4751,-0.0099,-0.0762,146.3972,-0.951,0.3892,6.5898,0.0027,-21.2005,-14.2072,0.0644,-177.5346
94100,-106.5967,21.4751,-0.0099,-0.0762,146.3972,-0.951,0.3892,6.5898,0.0027,-21.2005,-14.2072,0.0644,-177.5346
94116,-106.5967,21.4751,-0.0099,-0.0762,146.3972,-0.951,0.3892,6.5898,0.0027,-21.2005,-14.2072,0.0644,-177.5346
94132,-106.5967,21.4751,-0.0099,-0.0762,146.3972,-0.951,0.3892,6.5898,0.0027,-21.2005,-14.2072,0.0644,-177.5346
94148,-106.5967,21.4751,-0.0099,-0.0762,146.3972,-0.951,0.3892,6.5898,0.0027,-21.2005,-14.2072,0.0644,-177.5346
94166,-106.7266,21.9789,-0.011,0.078,133.5567,-0.868,-1.6861,7.0082,-0.0005,-24.3632,4.9117,-0.037,-129.2709
94180,-106.7266,21.9789,-0.011,0.078,133.5567,-0.868,-1.6861,7.0082,-0.0005,-24.3632,4.9117,-0.037,-129.2709
94196,-106.7266,21.9789,-0.011,0.078,133.5567,-0.868,-1.6861,7.0082,-0.0005,-24.3632,4.9117,-0.037,-129.2709
94212,-106.7266,21.9789,-0.011,0.078,133.5567,-0.868,-1.6861,7.0082,-0.0005,-24.3632,4.9117,-0.037,-129.2709
94228,-106.7266,21.9789,-0.011,0.078,133.5567,-0.868,-1.6861,7.0082,-0.0005,-24.3632,4.9117,-0.037,-129.2709
94246,-106.9725,22.5716,-0.0119,0.1833,124.3638,-0.629,-2.5384,7.9355,-0.0019,-10.1267,11.0179,-0.0169,-99.0306
94260,-106.9725,22.5716,-0.0119,0.1833,124.3638,-0.629,-2.5384,7.9355,-0.0019,-10.1267,11.0179,-0.0169,-99.0306
94276,-106.9725,22.5716,-0.0119,0.1833,124.3638,-0.629,-2.5384,7.9355,-0.0019,-10.1267,11.0179,-0.0169,-99.0306
94292,-106.9725,22.5716,-0.0119,0.1833,124.3638,-0.629,-2.5384,7.9355,-0.0019,-10.1267,11.0179,-0.0169,-99.0306
94308,-106.9725,22.5716,-0.0119,0.1833,124.3638,-0.629,-2.5384,7.9355,-0.0019,-10.1267,11.0179,-0.0169,-99.0306
94324,-106.9725,22.5716,-0.0119,0.1833,124.3638,-0.629,-2.5384,7.9355,-0.0019,-10.1267,11.0179,-0.0169,-99.0306
94340,-107.2214,23.2572,-0.0122,0.2006,116.2041,-0.2704,-2.0848,8.7767,-0.0032,5.3481,9.9182,-0.016,-95.3412
94372,-107.2214,23.2572,-0.0122,0.2006,116.2041,-0.2704,-2.0848,8.7767,-0.0032,5.3481,9.9182,-0.016,-95.3412
94388,-107.2214,23.2572,-0.0122,0.2006,116.2041,-0.2704,-2.0848,8.7767,-0.0032,5.3481,9.9182,-0.016,-95.3412
94404,-107.2214,23.2572,-0.0122,0.2006,116.2041,-0.2704,-2.0848,8.7767,-0.0032,5.3481,9.9182,-0.016,-95.3412
94422,-107.4497,24.0285,-0.0124,0.1828,109.4638,-0.111,-2.3428,9.2457,-0.0022,-2.9698,5.3986,0.0115,-56.229
94436,-107.4497,24.0285,-0.0124,0.1828,109.4638,-0.111,-2.3428,9.2457,-0.0022,-2.9698,5.3986,0.0115,-56.229
94452,-107.4497,24.0285,-0.0124,0.1828,109.4638,-0.111,-2.3428,9.2457,-0.0022,-2.9698,5.3986,0.0115,-56.229
94468,-107.4497,24.0285,-0.0124,0.1828,109.4638,-0.111,-2.3428,9.2457,-0.0022,-2.9698,5.3986,0.0115,-56.229
94484,-107.4497,24.0285,-0.0124,0.1828,109.4638,-0.111,-2.3428,9.2457,-0.0022,-2.9698,5.3986,0.0115,-56.229
94500,-107.6981,24.833,-0.0121,0.1392,106.817,-0.1387,-2.7612,9.3507,-0.0,-4.8005,1.2044,0.0251,-15.4218
94516,-107.6981,24.833,-0.0121,0.1392,106.817,-0.1387,-2.7612,9.3507,-0.0,-4.8005,1.2044,0.0251,-15.4218
94532,-107.6981,24.833,-0.0121,0.1392,106.817,-0.1387,-2.7612,9.3507,-0.0,-4.8005,1.2044,0.0251,-15.4218
94548,-107.6981,24.833,-0.0121,0.1392,106.817,-0.1387,-2.7612,9.3507,-0.0,-4.8005,1.2044,0.0251,-15.4218
94564,-107.6981,24.833,-0.0121,0.1392,106.817,-0.1387,-2.7612,9.3507,-0.0,-4.8005,1.2044,0.0251,-15.4218
94580,-107.6981,24.833,-0.0121,0.1392,106.817,-0.1387,-2.7612,9.3507,-0.0,-4.8005,1.2044,0.0251,-15.4218
94598,-107.9481,25.6601,-0.0118,0.0956,106.0296,-0.0941,-2.7783,9.4619,-0.0002,-0.1945,1.2636,-0.0016,-5.7211
94612,-107.9481,25.6601,-0.0118,0.0956,106.0296,-0.0941,-2.7783,9.4619,-0.0002,-0.1945,1.2636,-0.0016,-5.7211
94628,-107.9481,25.6601,-0.0118,0.0956,106.0296,-0.0941,-2.7783,9.4619,-0.0002,-0.1945,1.2636,-0.0016,-5.7211
94644,-107.9481,25.6601,-0.0118,0.0956,106.0296,-0.0941,-2.7783,9.4619,-0.0002,-0.1945,1.2636,-0.0016,-5.7211
94660,-107.9481,25.6601,-0.0118,0.0956,106.0296,-0.0941,-2.7783,9.4619,-0.0002,-0.1945,1.2636,-0.0016,-5.7211
94676,-107.9481,25.6601,-0.0118,0.0956,106.0296,-0.0941,-2.7783,9.4619,-0.0002,-0.1945,1.2636,-0.0016,-5.7211
94693,-108.2095,26.556,-0.0116,0.0626,105.7833,-0.0461,-2.7487,9.56,-0.0003,0.3149,1.0412,-0.0012,-2.098
94708,-108.2095,26.556,-0.0116,0.0626,105.7833,-0.0461,-2.7487,9.56,-0.0003,0.3149,1.0412,-0.0012,-2.098
94724,-108.2095,26.556,-0.0116,0.0626,105.7833,-0.0461,-2.7487,9.56,-0.0003,0.3149,1.0412,-0.0012,-2.098
94740,-108.2095,26.556,-0.0116,0.0626,105.7833,-0.0461,-2.7487,9.56,-0.0003,0.3149,1.0412,-0.0012,-2.098
94756,-108.2095,26.556,-0.0116,0.0626,105.7833,-0.0461,-2.7487,9.56,-0.0003,0.3149,1.0412,-0.0012,-2.098
94772,-108.2095,26.556,-0.0116,0.0626,105.7833,-0.0461,-2.7487,9.56,-0.0003,0.3149,1.0412,-0.0012,-2.098
94788,-108.4575,27.4238,-0.0115,0.0426,105.7159,-0.0201,-2.7358,9.6388,-0.0002,0.142,0.8724,0.0014,-1.0014
94804,-108.4575,27.4238,-0.0115,0.0426,105.7159,-0.0201,-2.7358,9.6388,-0.0002,0.142,0.8724,0.0014,-1.0014
94820,-108.4575,27.4238,-0.0115,0.0426,105.7159,-0.0201,-2.7358,9.6388,-0.0002,0.142,0.8724,0.0014,-1.0014
94836,-108.4575,27.4238,-0.0115,0.0426,105.7159,-0.0201,-2.7358,9.6388,-0.0002,0.142,0.8724,0.0014,-1.0014
94852,-108.4575,27.4238,-0.0115,0.0426,105.7159,-0.0201,-2.7358,9.6388,-0.0002,0.142,0.8724,0.0014,-1.0014
94869,-108.7047,28.2981,-0.0114,0.0299,105.6964,-0.008,-2.7364,9.6997,-0.0,-0.0061,0.6733,0.0013,-0.7022
94884,-108.7047,28.2981,-0.0114,0.0299,105.6964,-0.008,-2.7364,9.6997,-0.0,-0.0061,0.6733,0.0013,-0.7022
94900,-108.7047,28.2981,-0.0114,0.0299,105.6964,-0.008,-2.7364,9.6997,-0.0,-0.0061,0.6733,0.0013,-0.7022
94916,-108.7047,28.2981,-0.0114,0.0299,105.6964,-0.008,-2.7364,9.6997,-0.0,-0.0061,0.6733,0.0013,-0.7022
94932,-108.7047,28.2981,-0.0114,0.0299,105.6964,-0.008,-2.7364,9.6997,-0.0,-0.0061,0.6733,0.0013,-0.7022
94948,-108.7047,28.2981,-0.0114,0.0299,105.6964,-0.008,-2.7364,9.6997,-0.0,-0.0061,0.6733,0.0013,-0.7022
94966,-108.9518,29.1752,-0.0113,0.0218,105.6908,-0.003,-2.744,9.7517,0.0,-0.0845,0.5772,0.0007,-0.6036
94980,-108.9518,29.1752,-0.0113,0.0218,105.6908,-0.003,-2.744,9.7517,0.0,-0.0845,0.5772,0.0007,-0.6036
94996,-108.9518,29.1752,-0.0113,0.0218,105.6908,-0.003,-2.744,9.7517,0.0,-0.0845,0.5772,0.0007,-0.6036
95012,-108.9518,29.1752,-0.0113,0.0218,105.6908,-0.003,-2.744,9.7517,0.0,-0.0845,0.5772,0.0007,-0.6036
95028,-108.9518,29.1752,-0.0113,0.0218,105.6908,-0.003,-2.744,9.7517,0.0,-0.0845,0.5772,0.0007,-0.6036
95044,-108.9518,29.1752,-0.0113,0.0218,105.6908,-0.003,-2.744,9.7517,0.0,-0.0845,0.5772,0.0007,-0.6036
95060,-109.2088,30.089,-0.0113,0.0163,105.6889,-0.001,-2.7531,9.7939,0.0,-0.0968,0.4515,0.0001,-0.6526
95076,-109.2088,30.089,-0.0113,0.0163,105.6889,-0.001,-2.7531,9.7939,0.0,-0.0968,0.4515,0.0001,-0.6526
95092,-109.2088,30.089,-0.0113,0.0163,105.6889,-0.001,-2.7531,9.7939,0.0,-0.0968,0.4515,0.0001,-0.6526
95108,-109.2088,30.089,-0.0113,0.0163,105.6889,-0.001,-2.7531,9.7939,0.0,-0.0968,0.4515,0.0001,-0.6526
95124,-109.2088,30.089,-0.0113,0.0163,105.6889,-0.001,-2.7531,9.7939,0.0,-0.0968,0.4515,0.0001,-0.6526
95140,-109.4619,30.9897,-0.0113,0.0131,105.6886,-0.0003,-2.7647,9.8392,0.0,-0.1268,0.4934,0.0002,-0.5955
95156,-109.4619,30.9897,-0.0113,0.0131,105.6886,-0.0003,-2.7647,9.8392,0.0,-0.1268,0.4934,0.0002,-0.5955
95172,-109.4619,30.9897,-0.0113,0.0131,105.6886,-0.0003,-2.7647,9.8392,0.0,-0.1268,0.4934,0.0002,-0.5955
95188,-109.4619,30.9897,-0.0113,0.0131,105.6886,-0.0003,-2.7647,9.8392,0.0,-0.1268,0.4934,0.0002,-0.5955
95204,-109.4619,30.9897,-0.0113,0.0131,105.6886,-0.0003,-2.7647,9.8392,0.0,-0.1268,0.4934,0.0002,-0.5955
95220,-109.4619,30.9897,-0.0113,0.0131,105.6886,-0.0003,-2.7647,9.8392,0.0,-0.1268,0.4934,0.0002,-0.5955
95238,-109.7198,31.9078,-0.0112,0.0111,105.6884,-0.0001,-2.776,9.8808,0.0,-0.1213,0.4467,-0.0002,-0.6192
95252,-109.7198,31.9078,-0.0112,0.0111,105.6884,-0.0001,-2.776,9.8808,0.0,-0.1213,0.4467,-0.0002,-0.6192
95268,-109.7198,31.9078,-0.0112,0.0111,105.6884,-0.0001,-2.776,9.8808,0.0,-0.1213,0.4467,-0.0002,-0.6192
95284,-109.7198,31.9078,-0.0112,0.0111,105.6884,-0.0001,-2.776,9.8808,0.0,-0.1213,0.4467,-0.0002,-0.6192
95300,-109.7198,31.9078,-0.0112,0.0111,105.6884,-0.0001,-2.776,9.8808,0.0,-0.1213,0.4467,-0.0002,-0.6192
95316,-109.7198,31.9078,-0.0112,0.0111,105.6884,-0.0001,-2.776,9.8808,0.0,-0.1213,0.4467,-0.0002,-0.6192
95333,-109.9721,32.8056,-0.0112,0.0102,105.6886,0.0,-2.7885,9.9258,0.0,-0.1378,0.4969,-0.0,-0.5503
95348,-109.9721,32.8056,-0.0112,0.0102,105.6886,0.0,-2.7885,9.9258,0.0,-0.1378,0.4969,-0.0,-0.5503
95364,-109.9721,32.8056,-0.0112,0.0102,105.6886,0.0,-2.7885,9.9258,0.0,-0.1378,0.4969,-0.0,-0.5503
95380,-109.9721,32.8056,-0.0112,0.0102,105.6886,0.0,-2.7885,9.9258,0.0,-0.1378,0.4969,-0.0,-0.5503
95396,-109.9721,32.8056,-0.0112,0.0102,105.6886,0.0,-2.7885,9.9258,0.0,-0.1378,0.4969,-0.0,-0.5503
95412,-109.9721,32.8056,-0.0112,0.0102,105.6886,0.0,-2.7885,9.9258,0.0,-0.1378,0.4969,-0.0,-0.5503
95428,-110.2393,33.7567,-0.0112,0.0091,105.6882,0.0,-2.7982,9.9607,-0.0,-0.1023,0.3649,-0.0003,-0.6656
95444,-110.2393,33.7567,-0.0112,0.0091,105.6882,0.0,-2.7982,9.9607,-0.0,-0.1023,0.3649,-0.0003,-0.6656
95460,-110.2393,33.7567,-0.0112,0.0091,105.6882,0.0,-2.7982,9.9607,-0.0,-0.1023,0.3649,-0.0003,-0.6656
95476,-110.2393,33.7567,-0.0112,0.0091,105.6882,0.0,-2.7982,9.9607,-0.0,-0.1023,0.3649,-0.0003,-0.6656
95492,-110.2393,33.7567,-0.0112,0.0091,105.6882,0.0,-2.7982,9.9607,-0.0,-0.1023,0.3649,-0.0003,-0.6656
95508,-110.2393,33.7567,-0.0112,0.0091,105.6882,0.0,-2.7982,9.9607,-0.0,-0.1023,0.3649,-0.0003,-0.6656
95524,-110.4934,34.6614,-0.0112,0.0088,105.6886,0.0,-2.8109,10.0058,0.0,-0.1392,0.4977,0.0002,-0.5349
95540,-110.4934,34.6614,-0.0112,0.0088,105.6886,0.0,-2.8109,10.0058,0.0,-0.1392,0.4977,0.0002,-0.5349
