timestamp,x,y,z,pitch,yaw,roll,vx,vy,vz,ax,ay,az,yaw_rate
155777,-106.6867,-4.8475,-0.0635,0.0,-89.3578,0.0,-0.0,-0.0,0.2358,-0.0,0.0,0.9486,0.0
155793,-106.6867,-4.8475,-0.0635,0.0,-89.3578,0.0,-0.0,-0.0,0.2358,-0.0,0.0,0.9486,0.0
155809,-106.6867,-4.8475,-0.0635,0.0,-89.3578,0.0,-0.0,-0.0,0.2358,-0.0,0.0,0.9486,0.0
155825,-106.6867,-4.8475,-0.0635,0.0,-89.3578,0.0,-0.0,-0.0,0.2358,-0.0,0.0,0.9486,0.0
155841,-106.6867,-4.8475,-0.0635,0.0,-89.3578,0.0,-0.0,-0.0,0.2358,-0.0,0.0,0.9486,0.0
155857,-106.6867,-4.8475,-0.0635,0.0,-89.3578,0.0,-0.0,-0.0,0.2358,-0.0,0.0,0.9486,0.0
155873,-106.6867,-4.8475,-0.0635,0.0,-89.3578,0.0,-0.0,-0.0,0.2358,-0.0,0.0,0.9486,0.0
155889,-106.6867,-4.8475,-0.0635,0.0,-89.3578,0.0,-0.0,-0.0,0.2358,-0.0,0.0,0.9486,0.0
155905,-106.6867,-4.8475,-0.0635,0.0,-89.3578,0.0,-0.0,-0.0,0.2358,-0.0,0.0,0.9486,0.0
155921,-106.6867,-4.8475,-0.0635,0.0,-89.3578,0.0,-0.0,-0.0,0.2358,-0.0,0.0,0.9486,0.0
155939,-106.6867,-4.8456,-0.0417,-0.0016,-89.3578,-0.0,-0.0005,0.041,0.1891,-0.0029,0.2602,-0.2964,-0.0001
155953,-106.6867,-4.8456,-0.0417,-0.0016,-89.3578,-0.0,-0.0005,0.041,0.1891,-0.0029,0.2602,-0.2964,-0.0001
155969,-106.6867,-4.8456,-0.0417,-0.0016,-89.3578,-0.0,-0.0005,0.041,0.1891,-0.0029,0.2602,-0.2964,-0.0001
155985,-106.6867,-4.8456,-0.0417,-0.0016,-89.3578,-0.0,-0.0005,0.041,0.1891,-0.0029,0.2602,-0.2964,-0.0001
156001,-106.6867,-4.8456,-0.0417,-0.0016,-89.3578,-0.0,-0.0005,0.041,0.1891,-0.0029,0.2602,-0.2964,-0.0001
156017,-106.6867,-4.8456,-0.0417,-0.0016,-89.3578,-0.0,-0.0005,0.041,0.1891,-0.0029,0.2602,-0.2964,-0.0001
156033,-106.6868,-4.8407,-0.0278,-0.005,-89.3576,0.0,-0.0018,0.1587,0.1167,-0.0143,1.2608,-0.7749,0.0073
156049,-106.6868,-4.8407,-0.0278,-0.005,-89.3576,0.0,-0.0018,0.1587,0.1167,-0.0143,1.2608,-0.7749,0.0073
156065,-106.6868,-4.8407,-0.0278,-0.005,-89.3576,0.0,-0.0018,0.1587,0.1167,-0.0143,1.2608,-0.7749,0.0073
156081,-106.6868,-4.8407,-0.0278,-0.005,-89.3576,0.0,-0.0018,0.1587,0.1167,-0.0143,1.2608,-0.7749,0.0073
156097,-106.6868,-4.8407,-0.0278,-0.005,-89.3576,0.0,-0.0018,0.1587,0.1167,-0.0143,1.2608,-0.7749,0.0073
156113,-106.6868,-4.8407,-0.0278,-0.005,-89.3576,0.0,-0.0018,0.1587,0.1167,-0.0143,1.2608,-0.7749,0.0073
156130,-106.6871,-4.8069,-0.0195,-0.0254,-89.3672,0.0001,-0.006,0.5047,0.0638,-0.0448,3.6419,-0.5572,0.8717
156145,-106.6871,-4.8069,-0.0195,-0.0254,-89.3672,0.0001,-0.006,0.5047,0.0638,-0.0448,3.6419,-0.5572,0.8717
156161,-106.6871,-4.8069,-0.0195,-0.0254,-89.3672,0.0001,-0.006,0.5047,0.0638,-0.0448,3.6419,-0.5572,0.8717
156177,-106.6871,-4.8069,-0.0195,-0.0254,-89.3672,0.0001,-0.006,0.5047,0.0638,-0.0448,3.6419,-0.5572,0.8717
156193,-106.6871,-4.8069,-0.0195,-0.0254,-89.3672,0.0001,-0.006,0.5047,0.0638,-0.0448,3.6419,-0.5572,0.8717
156209,-106.6871,-4.8069,-0.0195,-0.0254,-89.3672,0.0001,-0.006,0.5047,0.0638,-0.0448,3.6419,-0.5572,0.8717
156225,-106.6876,-4.7405,-0.0152,-0.0443,-89.3889,-0.0002,-0.0096,0.9245,0.0338,-0.0395,4.6286,-0.3304,-0.0785
156241,-106.6876,-4.7405,-0.0152,-0.0443,-89.3889,-0.0002,-0.0096,0.9245,0.0338,-0.0395,4.6286,-0.3304,-0.0785
156257,-106.6876,-4.7405,-0.0152,-0.0443,-89.3889,-0.0002,-0.0096,0.9245,0.0338,-0.0395,4.6286,-0.3304,-0.0785
156273,-106.6876,-4.7405,-0.0152,-0.0443,-89.3889,-0.0002,-0.0096,0.9245,0.0338,-0.0395,4.6286,-0.3304,-0.0785
156289,-106.6876,-4.7405,-0.0152,-0.0443,-89.3889,-0.0002,-0.0096,0.9245,0.0338,-0.0395,4.6286,-0.3304,-0.0785
156305,-106.6885,-4.6439,-0.0128,-0.0452,-89.4099,-0.0004,-0.006,1.0487,0.0216,0.0383,1.3097,-0.1292,1.7531
156321,-106.6885,-4.6439,-0.0128,-0.0452,-89.4099,-0.0004,-0.006,1.0487,0.0216,0.0383,1.3097,-0.1292,1.7531
156337,-106.6885,-4.6439,-0.0128,-0.0452,-89.4099,-0.0004,-0.006,1.0487,0.0216,0.0383,1.3097,-0.1292,1.7531
156353,-106.6885,-4.6439,-0.0128,-0.0452,-89.4099,-0.0004,-0.006,1.0487,0.0216,0.0383,1.3097,-0.1292,1.7531
156369,-106.6885,-4.6439,-0.0128,-0.0452,-89.4099,-0.0004,-0.006,1.0487,0.0216,0.0383,1.3097,-0.1292,1.7531
156385,-106.6885,-4.6439,-0.0128,-0.0452,-89.4099,-0.0004,-0.006,1.0487,0.0216,0.0383,1.3097,-0.1292,1.7531
156403,-106.6898,-4.5255,-0.0116,-0.0392,-89.345,-0.0002,-0.0124,1.1576,0.0076,-0.0676,1.1473,-0.1473,-0.9732
156417,-106.6898,-4.5255,-0.0116,-0.0392,-89.345,-0.0002,-0.0124,1.1576,0.0076,-0.0676,1.1473,-0.1473,-0.9732
156433,-106.6898,-4.5255,-0.0116,-0.0392,-89.345,-0.0002,-0.0124,1.1576,0.0076,-0.0676,1.1473,-0.1473,-0.9732
156449,-106.6898,-4.5255,-0.0116,-0.0392,-89.345,-0.0002,-0.0124,1.1576,0.0076,-0.0676,1.1473,-0.1473,-0.9732
156465,-106.6898,-4.5255,-0.0116,-0.0392,-89.345,-0.0002,-0.0124,1.1576,0.0076,-0.0676,1.1473,-0.1473,-0.9732
156481,-106.6898,-4.5255,-0.0116,-0.0392,-89.345,-0.0002,-0.0124,1.1576,0.0076,-0.0676,1.1473,-0.1473,-0.9732
156497,-106.6898,-4.5255,-0.0116,-0.0392,-89.345,-0.0002,-0.0124,1.1576,0.0076,-0.0676,1.1473,-0.1473,-0.9732
156513,-106.6909,-4.3914,-0.0112,-0.0314,-89.395,-0.0001,-0.0098,1.3339,0.0028,0.0264,1.7985,-0.0484,0.708
156529,-106.6909,-4.3914,-0.0112,-0.0314,-89.395,-0.0001,-0.0098,1.3339,0.0028,0.0264,1.7985,-0.0484,0.708
156545,-106.6909,-4.3914,-0.0112,-0.0314,-89.395,-0.0001,-0.0098,1.3339,0.0028,0.0264,1.7985,-0.0484,0.708
156561,-106.6909,-4.3914,-0.0112,-0.0314,-89.395,-0.0001,-0.0098,1.3339,0.0028,0.0264,1.7985,-0.0484,0.708
156577,-106.6909,-4.3914,-0.0112,-0.0314,-89.395,-0.0001,-0.0098,1.3339,0.0028,0.0264,1.7985,-0.0484,0.708
156595,-106.6922,-4.2427,-0.011,-0.0347,-89.4163,0.0001,-0.0178,1.6754,0.0012,-0.0845,3.6418,-0.0174,-0.7243
156609,-106.6922,-4.2427,-0.011,-0.0347,-89.4163,0.0001,-0.0178,1.6754,0.0012,-0.0845,3.6418,-0.0174,-0.7243
156625,-106.6922,-4.2427,-0.011,-0.0347,-89.4163,0.0001,-0.0178,1.6754,0.0012,-0.0845,3.6418,-0.0174,-0.7243
156641,-106.6922,-4.2427,-0.011,-0.0347,-89.4163,0.0001,-0.0178,1.6754,0.0012,-0.0845,3.6418,-0.0174,-0.7243
156657,-106.6922,-4.2427,-0.011,-0.0347,-89.4163,0.0001,-0.0178,1.6754,0.0012,-0.0845,3.6418,-0.0174,-0.7243
156673,-106.6922,-4.2427,-0.011,-0.0347,-89.4163,0.0001,-0.0178,1.6754,0.0012,-0.0845,3.6418,-0.0174,-0.7243
156691,-106.6941,-4.0689,-0.0109,-0.0437,-89.3981,0.0,-0.0201,1.9592,0.0006,-0.026,3.1019,-0.007,0.1508
156705,-106.6941,-4.0689,-0.0109,-0.0437,-89.3981,0.0,-0.0201,1.9592,0.0006,-0.026,3.1019,-0.007,0.1508
156721,-106.6941,-4.0689,-0.0109,-0.0437,-89.3981,0.0,-0.0201,1.9592,0.0006,-0.026,3.1019,-0.007,0.1508
156737,-106.6941,-4.0689,-0.0109,-0.0437,-89.3981,0.0,-0.0201,1.9592,0.0006,-0.026,3.1019,-0.007,0.1508
156753,-106.6941,-4.0689,-0.0109,-0.0437,-89.3981,0.0,-0.0201,1.9592,0.0006,-0.026,3.1019,-0.007,0.1508
156769,-106.6941,-4.0689,-0.0109,-0.0437,-89.3981,0.0,-0.0201,1.9592,0.0006,-0.026,3.1019,-0.007,0.1508
156785,-106.6966,-3.8418,-0.0107,-0.0713,-89.4077,0.0005,-0.0313,2.7738,0.0003,-0.1214,8.8376,-0.0031,-0.1088
156801,-106.6966,-3.8418,-0.0107,-0.0713,-89.4077,0.0005,-0.0313,2.7738,0.0003,-0.1214,8.8376,-0.0031,-0.1088
156817,-106.6966,-3.8418,-0.0107,-0.0713,-89.4077,0.0005,-0.0313,2.7738,0.0003,-0.1214,8.8376,-0.0031,-0.1088
156833,-106.6966,-3.8418,-0.0107,-0.0713,-89.4077,0.0005,-0.0313,2.7738,0.0003,-0.1214,8.8376,-0.0031,-0.1088
156849,-106.6966,-3.8418,-0.0107,-0.0713,-89.4077,0.0005,-0.0313,2.7738,0.0003,-0.1214,8.8376,-0.0031,-0.1088
156865,-106.6992,-3.5635,-0.0105,-0.0875,-89.4317,-0.0005,-0.0338,3.3902,0.0001,-0.0274,6.8536,-0.0015,-0.188
156881,-106.6992,-3.5635,-0.0105,-0.0875,-89.4317,-0.0005,-0.0338,3.3902,0.0001,-0.0274,6.8536,-0.0015,-0.188
156897,-106.6992,-3.5635,-0.0105,-0.0875,-89.4317,-0.0005,-0.0338,3.3902,0.0001,-0.0274,6.8536,-0.0015,-0.188
156913,-106.6992,-3.5635,-0.0105,-0.0875,-89.4317,-0.0005,-0.0338,3.3902,0.0001,-0.0274,6.8536,-0.0015,-0.188
156929,-106.6992,-3.5635,-0.0105,-0.0875,-89.4317,-0.0005,-0.0338,3.3902,0.0001,-0.0274,6.8536,-0.0015,-0.188
156945,-106.6992,-3.5635,-0.0105,-0.0875,-89.4317,-0.0005,-0.0338,3.3902,0.0001,-0.0274,6.8536,-0.0015,-0.188
156962,-106.7027,-3.2182,-0.0105,-0.0898,-89.4249,-0.0005,-0.0379,3.9078,0.0001,-0.0425,5.4057,-0.0009,2.0917
156977,-106.7027,-3.2182,-0.0105,-0.0898,-89.4249,-0.0005,-0.0379,3.9078,0.0001,-0.0425,5.4057,-0.0009,2.0917
156993,-106.7027,-3.2182,-0.0105,-0.0898,-89.4249,-0.0005,-0.0379,3.9078,0.0001,-0.0425,5.4057,-0.0009,2.0917
157009,-106.7027,-3.2182,-0.0105,-0.0898,-89.4249,-0.0005,-0.0379,3.9078,0.0001,-0.0425,5.4057,-0.0009,2.0917
157025,-106.7027,-3.2182,-0.0105,-0.0898,-89.4249,-0.0005,-0.0379,3.9078,0.0001,-0.0425,5.4057,-0.0009,2.0917
157041,-106.7027,-3.2182,-0.0105,-0.0898,-89.4249,-0.0005,-0.0379,3.9078,0.0001,-0.0425,5.4057,-0.0009,2.0917
157058,-106.7053,-2.8446,-0.0105,-0.0917,-89.5233,-0.0016,-0.0361,4.4422,0.0,0.0198,5.9154,-0.0001,1.0536
157073,-106.7053,-2.8446,-0.0105,-0.0917,-89.5233,-0.0016,-0.0361,4.4422,0.0,0.0198,5.9154,-0.0001,1.0536
157089,-106.7053,-2.8446,-0.0105,-0.0917,-89.5233,-0.0016,-0.0361,4.4422,0.0,0.0198,5.9154,-0.0001,1.0536
157105,-106.7053,-2.8446,-0.0105,-0.0917,-89.5233,-0.0016,-0.0361,4.4422,0.0,0.0198,5.9154,-0.0001,1.0536
157121,-106.7053,-2.8446,-0.0105,-0.0917,-89.5233,-0.0016,-0.0361,4.4422,0.0,0.0198,5.9154,-0.0001,1.0536
157137,-106.7053,-2.8446,-0.0105,-0.0917,-89.5233,-0.0016,-0.0361,4.4422,0.0,0.0198,5.9154,-0.0001,1.0536
157153,-106.7077,-2.4226,-0.0105,-0.0947,-89.6296,-0.0027,-0.0342,4.9704,0.0,0.0204,5.8599,-0.0002,-2.5584
157169,-106.7077,-2.4226,-0.0105,-0.0947,-89.6296,-0.0027,-0.0342,4.9704,0.0,0.0204,5.8599,-0.0002,-2.5584
157185,-106.7077,-2.4226,-0.0105,-0.0947,-89.6296,-0.0027,-0.0342,4.9704,0.0,0.0204,5.8599,-0.0002,-2.5584
157201,-106.7077,-2.4226,-0.0105,-0.0947,-89.6296,-0.0027,-0.0342,4.9704,0.0,0.0204,5.8599,-0.0002,-2.5584
157217,-106.7077,-2.4226,-0.0105,-0.0947,-89.6296,-0.0027,-0.0342,4.9704,0.0,0.0204,5.8599,-0.0002,-2.5584
157233,-106.7104,-1.9477,-0.0104,-0.0994,-89.6599,-0.0027,-0.0325,5.5704,0.0,0.0197,6.6455,-0.0001,1.3379
157249,-106.7104,-1.9477,-0.0104,-0.0994,-89.6599,-0.0027,-0.0325,5.5704,0.0,0.0197,6.6455,-0.0001,1.3379
157265,-106.7104,-1.9477,-0.0104,-0.0994,-89.6599,-0.0027,-0.0325,5.5704,0.0,0.0197,6.6455,-0.0001,1.3379
157281,-106.7104,-1.9477,-0.0104,-0.0994,-89.6599,-0.0027,-0.0325,5.5704,0.0,0.0197,6.6455,-0.0001,1.3379
157297,-106.7104,-1.9477,-0.0104,-0.0994,-89.6599,-0.0027,-0.0325,5.5704,0.0,0.0197,6.6455,-0.0001,1.3379
157313,-106.7104,-1.9477,-0.0104,-0.0994,-89.6599,-0.0027,-0.0325,5.5704,0.0,0.0197,6.6455,-0.0001,1.3379
157331,-106.7133,-1.4037,-0.0104,-0.1061,-89.6842,-0.0012,-0.0358,6.2217,0.0006,-0.0359,7.0494,0.0065,-1.4092
157345,-106.7133,-1.4037,-0.0104,-0.1061,-89.6842,-0.0012,-0.0358,6.2217,0.0006,-0.0359,7.0494,0.0065,-1.4092
157361,-106.7133,-1.4037,-0.0104,-0.1061,-89.6842,-0.0012,-0.0358,6.2217,0.0006,-0.0359,7.0494,0.0065,-1.4092
157377,-106.7133,-1.4037,-0.0104,-0.1061,-89.6842,-0.0012,-0.0358,6.2217,0.0006,-0.0359,7.0494,0.0065,-1.4092
157393,-106.7133,-1.4037,-0.0104,-0.1061,-89.6842,-0.0012,-0.0358,6.2217,0.0006,-0.0359,7.0494,0.0065,-1.4092
157409,-106.7133,-1.4037,-0.0104,-0.1061,-89.6842,-0.0012,-0.0358,6.2217,0.0006,-0.0359,7.0494,0.0065,-1.4092
157426,-106.7168,-0.7946,-0.0103,-0.1126,-89.6803,0.0004,-0.0379,6.8884,-0.0,-0.0225,7.173,-0.0067,1.0085
157441,-106.7168,-0.7946,-0.0103,-0.1126,-89.6803,0.0004,-0.0379,6.8884,-0.0,-0.0225,7.173,-0.0067,1.0085
157457,-106.7168,-0.7946,-0.0103,-0.1126,-89.6803,0.0004,-0.0379,6.8884,-0.0,-0.0225,7.173,-0.0067,1.0085
157473,-106.7168,-0.7946,-0.0103,-0.1126,-89.6803,0.0004,-0.0379,6.8884,-0.0,-0.0225,7.173,-0.0067,1.0085
157489,-106.7168,-0.7946,-0.0103,-0.1126,-89.6803,0.0004,-0.0379,6.8884,-0.0,-0.0225,7.173,-0.0067,1.0085
157507,-106.7203,-0.1525,-0.0103,-0.1098,-89.6791,0.0003,-0.0408,7.3711,-0.0001,-0.0331,5.3847,-0.0012,0.4226
157521,-106.7203,-0.1525,-0.0103,-0.1098,-89.6791,0.0003,-0.0408,7.3711,-0.0001,-0.0331,5.3847,-0.0012,0.4226
157537,-106.7203,-0.1525,-0.0103,-0.1098,-89.6791,0.0003,-0.0408,7.3711,-0.0001,-0.0331,5.3847,-0.0012,0.4226
157553,-106.7203,-0.1525,-0.0103,-0.1098,-89.6791,0.0003,-0.0408,7.3711,-0.0001,-0.0331,5.3847,-0.0012,0.4226
157569,-106.7203,-0.1525,-0.0103,-0.1098,-89.6791,0.0003,-0.0408,7.3711,-0.0001,-0.0331,5.3847,-0.0012,0.4226
157585,-106.7203,-0.1525,-0.0103,-0.1098,-89.6791,0.0003,-0.0408,7.3711,-0.0001,-0.0331,5.3847,-0.0012,0.4226
157601,-106.7242,0.5718,-0.0103,-0.1123,-89.6882,0.0001,-0.0442,8.0836,-0.0001,-0.0361,7.6585,0.0005,-0.0866
157617,-106.7242,0.5718,-0.0103,-0.1123,-89.6882,0.0001,-0.0442,8.0836,-0.0001,-0.0361,7.6585,0.0005,-0.0866
157633,-106.7242,0.5718,-0.0103,-0.1123,-89.6882,0.0001,-0.0442,8.0836,-0.0001,-0.0361,7.6585,0.0005,-0.0866
157649,-106.7242,0.5718,-0.0103,-0.1123,-89.6882,0.0001,-0.0442,8.0836,-0.0001,-0.0361,7.6585,0.0005,-0.0866
157665,-106.7242,0.5718,-0.0103,-0.1123,-89.6882,0.0001,-0.0442,8.0836,-0.0001,-0.0361,7.6585,0.0005,-0.0866
157681,-106.7242,0.5718,-0.0103,-0.1123,-89.6882,0.0001,-0.0442,8.0836,-0.0001,-0.0361,7.6585,0.0005,-0.0866
157698,-106.7284,1.3414,-0.0103,-0.115,-89.6867,0.0001,-0.0478,8.7329,-0.0001,-0.0392,7.1387,0.0001,0.0001
157713,-106.7284,1.3414,-0.0103,-0.115,-89.6867,0.0001,-0.0478,8.7329,-0.0001,-0.0392,7.1387,0.0001,0.0001
157729,-106.7284,1.3414,-0.0103,-0.115,-89.6867,0.0001,-0.0478,8.7329,-0.0001,-0.0392,7.1387,0.0001,0.0001
157745,-106.7284,1.3414,-0.0103,-0.115,-89.6867,0.0001,-0.0478,8.7329,-0.0001,-0.0392,7.1387,0.0001,0.0001
157761,-106.7284,1.3414,-0.0103,-0.115,-89.6867,0.0001,-0.0478,8.7329,-0.0001,-0.0392,7.1387,0.0001,0.0001
157777,-106.7284,1.3414,-0.0103,-0.115,-89.6867,0.0001,-0.0478,8.7329,-0.0001,-0.0392,7.1387,0.0001,0.0001
157793,-106.733,2.1799,-0.0103,-0.1102,-89.6867,0.0,-0.0507,9.275,-0.0,-0.0318,5.8519,0.0004,0.0002
157809,-106.733,2.1799,-0.0103,-0.1102,-89.6867,0.0,-0.0507,9.275,-0.0,-0.0318,5.8519,0.0004,0.0002
157825,-106.733,2.1799,-0.0103,-0.1102,-89.6867,0.0,-0.0507,9.275,-0.0,-0.0318,5.8519,0.0004,0.0002
157841,-106.733,2.1799,-0.0103,-0.1102,-89.6867,0.0,-0.0507,9.275,-0.0,-0.0318,5.8519,0.0004,0.0002
157857,-106.733,2.1799,-0.0103,-0.1102,-89.6867,0.0,-0.0507,9.275,-0.0,-0.0318,5.8519,0.0004,0.0002
157874,-106.733,2.1799,-0.0103,-0.1102,-89.6867,0.0,-0.0507,9.275,-0.0,-0.0318,5.8519,0.0004,0.0002
157889,-106.7378,3.0589,-0.0104,-0.1015,-89.6867,0.0,-0.0534,9.7586,-0.0,-0.0287,5.2554,0.0002,0.0
157905,-106.7378,3.0589,-0.0104,-0.1015,-89.6867,0.0,-0.0534,9.7586,-0.0,-0.0287,5.2554,0.0002,0.0
157921,-106.7378,3.0589,-0.0104,-0.1015,-89.6867,0.0,-0.0534,9.7586,-0.0,-0.0287,5.2554,0.0002,0.0
157937,-106.7378,3.0589,-0.0104,-0.1015,-89.6867,0.0,-0.0534,9.7586,-0.0,-0.0287,5.2554,0.0002,0.0
157953,-106.7378,3.0589,-0.0104,-0.1015,-89.6867,0.0,-0.0534,9.7586,-0.0,-0.0287,5.2554,0.0002,0.0
157971,-106.7378,3.0589,-0.0104,-0.1015,-89.6867,0.0,-0.0534,9.7586,-0.0,-0.0287,5.2554,0.0002,0.0
157985,-106.7432,4.0362,-0.0105,-0.0912,-89.6867,0.0,-0.0557,10.1897,0.0,-0.0241,4.4166,0.0,0.0
158001,-106.7432,4.0362,-0.0105,-0.0912,-89.6867,0.0,-0.0557,10.1897,0.0,-0.0241,4.4166,0.0,0.0
158017,-106.7432,4.0362,-0.0105,-0.0912,-89.6867,0.0,-0.0557,10.1897,0.0,-0.0241,4.4166,0.0,0.0
158033,-106.7432,4.0362,-0.0105,-0.0912,-89.6867,0.0,-0.0557,10.1897,0.0,-0.0241,4.4166,0.0,0.0
158049,-106.7432,4.0362,-0.0105,-0.0912,-89.6867,0.0,-0.0557,10.1897,0.0,-0.0241,4.4166,0.0,0.0
158065,-106.7432,4.0362,-0.0105,-0.0912,-89.6867,0.0,-0.0557,10.1897,0.0,-0.0241,4.4166,0.0,0.0
158081,-106.7489,5.0741,-0.0106,-0.0815,-89.6867,0.0,-0.058,10.6,-0.0,-0.0226,4.1214,-0.0,0.0
158097,-106.7489,5.0741,-0.0106,-0.0815,-89.6867,0.0,-0.058,10.6,-0.0,-0.0226,4.1214,-0.0,0.0
158113,-106.7489,5.0741,-0.0106,-0.0815,-89.6867,0.0,-0.058,10.6,-0.0,-0.0226,4.1214,-0.0,0.0
158129,-106.7489,5.0741,-0.0106,-0.0815,-89.6867,0.0,-0.058,10.6,-0.0,-0.0226,4.1214,-0.0,0.0
158145,-106.7489,5.0741,-0.0106,-0.0815,-89.6867,0.0,-0.058,10.6,-0.0,-0.0226,4.1214,-0.0,0.0
158161,-106.7489,5.0741,-0.0106,-0.0815,-89.6867,0.0,-0.058,10.6,-0.0,-0.0226,4.1214,-0.0,0.0
158177,-106.7489,5.0741,-0.0106,-0.0815,-89.6867,0.0,-0.058,10.6,-0.0,-0.0226,4.1214,-0.0,0.0
158193,-106.7489,5.0741,-0.0106,-0.0815,-89.6867,0.0,-0.058,10.6,-0.0,-0.0226,4.1214,-0.0,0.0
158209,-106.7548,6.1578,-0.0106,-0.0756,-89.6867,0.0,-0.0602,11.0126,0.0,-0.0207,3.7886,0.0001,-0.0
158225,-106.7548,6.1578,-0.0106,-0.0756,-89.6867,0.0,-0.0602,11.0126,0.0,-0.0207,3.7886,0.0001,-0.0
158241,-106.7548,6.1578,-0.0106,-0.0756,-89.6867,0.0,-0.0602,11.0126,0.0,-0.0207,3.7886,0.0001,-0.0
158257,-106.7548,6.1578,-0.0106,-0.0756,-89.6867,0.0,-0.0602,11.0126,0.0,-0.0207,3.7886,0.0001,-0.0
158275,-106.7548,6.1578,-0.0106,-0.0756,-89.6867,0.0,-0.0602,11.0126,0.0,-0.0207,3.7886,0.0001,-0.0
158289,-106.7604,7.1813,-0.0106,-0.0738,-89.6867,0.0,-0.0624,11.4163,-0.0,-0.0242,4.434,-0.0002,0.0
158305,-106.7604,7.1813,-0.0106,-0.0738,-89.6867,0.0,-0.0624,11.4163,-0.0,-0.0242,4.434,-0.0002,0.0
158321,-106.7604,7.1813,-0.0106,-0.0738,-89.6867,0.0,-0.0624,11.4163,-0.0,-0.0242,4.434,-0.0002,0.0
158337,-106.7604,7.1813,-0.0106,-0.0738,-89.6867,0.0,-0.0624,11.4163,-0.0,-0.0242,4.434,-0.0002,0.0
158353,-106.7604,7.1813,-0.0106,-0.0738,-89.6867,0.0,-0.0624,11.4163,-0.0,-0.0242,4.434,-0.0002,0.0
158370,-106.7661,8.2247,-0.0106,-0.0716,-89.6867,0.0,-0.0644,11.7743,0.0,-0.0218,3.9867,0.0002,-0.0
158385,-106.7661,8.2247,-0.0106,-0.0716,-89.6867,0.0,-0.0644,11.7743,0.0,-0.0218,3.9867,0.0002,-0.0
158401,-106.7661,8.2247,-0.0106,-0.0716,-89.6867,0.0,-0.0644,11.7743,0.0,-0.0218,3.9867,0.0002,-0.0
158417,-106.7661,8.2247,-0.0106,-0.0716,-89.6867,0.0,-0.0644,11.7743,0.0,-0.0218,3.9867,0.0002,-0.0
158433,-106.7661,8.2247,-0.0106,-0.0716,-89.6867,0.0,-0.0644,11.7743,0.0,-0.0218,3.9867,0.0002,-0.0
158449,-106.7661,8.2247,-0.0106,-0.0716,-89.6867,0.0,-0.0644,11.7743,0.0,-0.0218,3.9867,0.0002,-0.0
158465,-106.7723,9.3623,-0.0107,-0.0673,-89.6867,0.0,-0.0662,12.1096,-0.0,-0.0193,3.5238,-0.0001,-0.0
158481,-106.7723,9.3623,-0.0107,-0.0673,-89.6867,0.0,-0.0662,12.1096,-0.0,-0.0193,3.5238,-0.0001,-0.0
158497,-106.7723,9.3623,-0.0107,-0.0673,-89.6867,0.0,-0.0662,12.1096,-0.0,-0.0193,3.5238,-0.0001,-0.0
158513,-106.7723,9.3623,-0.0107,-0.0673,-89.6867,0.0,-0.0662,12.1096,-0.0,-0.0193,3.5238,-0.0001,-0.0
158529,-106.7723,9.3623,-0.0107,-0.0673,-89.6867,0.0,-0.0662,12.1096,-0.0,-0.0193,3.5238,-0.0001,-0.0
158545,-106.7723,9.3623,-0.0107,-0.0673,-89.6867,0.0,-0.0662,12.1096,-0.0,-0.0193,3.5238,-0.0001,-0.0
158561,-106.7784,10.4781,-0.0107,-0.0629,-89.6867,0.0,-0.0678,12.4062,0.0,-0.0179,3.2634,0.0002,-0.0
158577,-106.7784,10.4781,-0.0107,-0.0629,-89.6867,0.0,-0.0678,12.4062,0.0,-0.0179,3.2634,0.0002,-0.0
158593,-106.7784,10.4781,-0.0107,-0.0629,-89.6867,0.0,-0.0678,12.4062,0.0,-0.0179,3.2634,0.0002,-0.0
158609,-106.7784,10.4781,-0.0107,-0.0629,-89.6867,0.0,-0.0678,12.4062,0.0,-0.0179,3.2634,0.0002,-0.0
158625,-106.7784,10.4781,-0.0107,-0.0629,-89.6867,0.0,-0.0678,12.4062,0.0,-0.0179,3.2634,0.0002,-0.0
158641,-106.7784,10.4781,-0.0107,-0.0629,-89.6867,0.0,-0.0678,12.4062,0.0,-0.0179,3.2634,0.0002,-0.0
158658,-106.7853,11.7354,-0.0107,-0.058,-89.6867,0.0,-0.0695,12.7039,-0.0,-0.016,2.9298,-0.0001,-0.0001
158673,-106.7853,11.7354,-0.0107,-0.058,-89.6867,0.0,-0.0695,12.7039,-0.0,-0.016,2.9298,-0.0001,-0.0001
158689,-106.7853,11.7354,-0.0107,-0.058,-89.6867,0.0,-0.0695,12.7039,-0.0,-0.016,2.9298,-0.0001,-0.0001
158705,-106.7853,11.7354,-0.0107,-0.058,-89.6867,0.0,-0.0695,12.7039,-0.0,-0.016,2.9298,-0.0001,-0.0001
158721,-106.7853,11.7354,-0.0107,-0.058,-89.6867,0.0,-0.0695,12.7039,-0.0,-0.016,2.9298,-0.0001,-0.0001
158737,-106.7853,11.7354,-0.0107,-0.058,-89.6867,0.0,-0.0695,12.7039,-0.0,-0.016,2.9298,-0.0001,-0.0001
158754,-106.7923,13.0067,-0.0108,-0.0506,-89.6867,0.0,-0.0706,12.9187,-0.0,-0.0118,2.1677,0.0001,-0.0001
158769,-106.7923,13.0067,-0.0108,-0.0506,-89.6867,0.0,-0.0706,12.9187,-0.0,-0.0118,2.1677,0.0001,-0.0001
158801,-106.7923,13.0067,-0.0108,-0.0506,-89.6867,0.0,-0.0706,12.9187,-0.0,-0.0118,2.1677,0.0001,-0.0001
158817,-106.7923,13.0067,-0.0108,-0.0506,-89.6867,0.0,-0.0706,12.9187,-0.0,-0.0118,2.1677,0.0001,-0.0001
158833,-106.7923,13.0067,-0.0108,-0.0506,-89.6867,0.0,-0.0706,12.9187,-0.0,-0.0118,2.1677,0.0001,-0.0001
158850,-106.8232,14.1941,-0.0109,-0.0351,-90.8286,0.108,-0.8172,12.9093,0.0009,-8.135,-0.102,0.01,-27.2397
158865,-106.8232,14.1941,-0.0109,-0.0351,-90.8286,0.108,-0.8172,12.9093,0.0009,-8.135,-0.102,0.01,-27.2397
158881,-106.8232,14.1941,-0.0109,-0.0351,-90.8286,0.108,-0.8172,12.9093,0.0009,-8.135,-0.102,0.01,-27.2397
158897,-106.8232,14.1941,-0.0109,-0.0351,-90.8286,0.108,-0.8172,12.9093,0.0009,-8.135,-0.102,0.01,-27.2397
158913,-106.8232,14.1941,-0.0109,-0.0351,-90.8286,0.108,-0.8172,12.9093,0.0009,-8.135,-0.102,0.01,-27.2397
158929,-106.8232,14.1941,-0.0109,-0.0351,-90.8286,0.108,-0.8172,12.9093,0.0009,-8.135,-0.102,0.01,-27.2397
158945,-106.9108,15.3563,-0.011,-0.0034,-95.4488,0.244,-1.716,12.6677,0.0012,-9.8749,-2.6544,0.0032,-71.922
158961,-106.9108,15.3563,-0.011,-0.0034,-95.4488,0.244,-1.716,12.6677,0.0012,-9.8749,-2.6544,0.0032,-71.922
158977,-106.9108,15.3563,-0.011,-0.0034,-95.4488,0.244,-1.716,12.6677,0.0012,-9.8749,-2.6544,0.0032,-71.922
158993,-106.9108,15.3563,-0.011,-0.0034,-95.4488,0.244,-1.716,12.6677,0.0012,-9.8749,-2.6544,0.0032,-71.922
159009,-106.9108,15.3563,-0.011,-0.0034,-95.4488,0.244,-1.716,12.6677,0.0012,-9.8749,-2.6544,0.0032,-71.922
159025,-107.0343,16.513,-0.0111,0.0263,-104.897,0.267,-2.2425,12.3839,0.0002,-5.6347,-3.0379,-0.0105,-125.9452
159041,-107.0343,16.513,-0.0111,0.0263,-104.897,0.267,-2.2425,12.3839,0.0002,-5.6347,-3.0379,-0.0105,-125.9452
159057,-107.0343,16.513,-0.0111,0.0263,-104.897,0.267,-2.2425,12.3839,0.0002,-5.6347,-3.0379,-0.0105,-125.9452
159073,-107.0343,16.513,-0.0111,0.0263,-104.897,0.267,-2.2425,12.3839,0.0002,-5.6347,-3.0379,-0.0105,-125.9452
159089,-107.0343,16.513,-0.0111,0.0263,-104.897,0.267,-2.2425,12.3839,0.0002,-5.6347,-3.0379,-0.0105,-125.9452
159105,-107.0343,16.513,-0.0111,0.0263,-104.897,0.267,-2.2425,12.3839,0.0002,-5.6347,-3.0379,-0.0105,-125.9452
159121,-107.1405,17.6047,-0.0112,0.0232,-119.2516,0.1584,-2.0886,12.2241,-0.0009,1.6719,-1.735,-0.0128,-180.0449
159137,-107.1405,17.6047,-0.0112,0.0232,-119.2516,0.1584,-2.0886,12.2241,-0.0009,1.6719,-1.735,-0.0128,-180.0449
159153,-107.1405,17.6047,-0.0112,0.0232,-119.2516,0.1584,-2.0886,12.2241,-0.0009,1.6719,-1.735,-0.0128,-180.0449
159169,-107.1405,17.6047,-0.0112,0.0232,-119.2516,0.1584,-2.0886,12.2241,-0.0009,1.6719,-1.735,-0.0128,-180.0449
159185,-107.1405,17.6047,-0.0112,0.0232,-119.2516,0.1584,-2.0886,12.2241,-0.0009,1.6719,-1.735,-0.0128,-180.0449
159201,-107.1405,17.6047,-0.0112,0.0232,-119.2516,0.1584,-2.0886,12.2241,-0.0009,1.6719,-1.735,-0.0128,-180.0449
159217,-107.1405,17.6047,-0.0112,0.0232,-119.2516,0.1584,-2.0886,12.2241,-0.0009,1.6719,-1.735,-0.0128,-180.0449
159233,-107.1575,18.7319,-0.0107,-0.0612,-139.0836,-0.1028,-0.485,12.2049,-0.0,16.0892,-0.1928,0.0091,-209.9404
159249,-107.1575,18.7319,-0.0107,-0.0612,-139.0836,-0.1028,-0.485,12.2049,-0.0,16.0892,-0.1928,0.0091,-209.9404
159265,-107.1575,18.7319,-0.0107,-0.0612,-139.0836,-0.1028,-0.485,12.2049,-0.0,16.0892,-0.1928,0.0091,-209.9404
159281,-107.1575,18.7319,-0.0107,-0.0612,-139.0836,-0.1028,-0.485,12.2049,-0.0,16.0892,-0.1928,0.0091,-209.9404
159297,-107.1575,18.7319,-0.0107,-0.0612,-139.0836,-0.1028,-0.485,12.2049,-0.0,16.0892,-0.1928,0.0091,-209.9404
159313,-107.0164,19.7198,-0.0097,-0.1765,-159.3196,-0.3549,1.68,11.6493,0.0021,23.1953,-5.9524,0.0229,-221.3463
159329,-107.0164,19.7198,-0.0097,-0.1765,-159.3196,-0.3549,1.68,11.6493,0.0021,23.1953,-5.9524,0.0229,-221.3463
159345,-107.0164,19.7198,-0.0097,-0.1765,-159.3196,-0.3549,1.68,11.6493,0.0021,23.1953,-5.9524,0.0229,-221.3463
159361,-107.0164,19.7198,-0.0097,-0.1765,-159.3196,-0.3549,1.68,11.6493,0.0021,23.1953,-5.9524,0.0229,-221.3463
159377,-107.0164,19.7198,-0.0097,-0.1765,-159.3196,-0.3549,1.68,11.6493,0.0021,23.1953,-5.9524,0.0229,-221.3463
159411,-106.732,20.5725,-0.0088,-0.2667,-179.9136,-0.5393,3.7179,10.3747,0.0018,22.3774,-13.9958,-0.0035,-230.425
159425,-106.732,20.5725,-0.0088,-0.2667,-179.9136,-0.5393,3.7179,10.3747,0.0018,22.3774,-13.9958,-0.0035,-230.425
159441,-106.732,20.5725,-0.0088,-0.2667,-179.9136,-0.5393,3.7179,10.3747,0.0018,22.3774,-13.9958,-0.0035,-230.425
159457,-106.732,20.5725,-0.0088,-0.2667,-179.9136,-0.5393,3.7179,10.3747,0.0018,22.3774,-13.9958,-0.0035,-230.425
159473,-106.732,20.5725,-0.0088,-0.2667,-179.9136,-0.5393,3.7179,10.3747,0.0018,22.3774,-13.9958,-0.0035,-230.425
159489,-106.732,20.5725,-0.0088,-0.2667,-179.9136,-0.5393,3.7179,10.3747,0.0018,22.3774,-13.9958,-0.0035,-230.425
159505,-106.3713,21.2502,-0.0084,-0.302,159.1905,-0.7248,4.5791,8.1763,0.0019,9.568,-24.427,0.0011,-232.4685
159521,-106.3713,21.2502,-0.0084,-0.302,159.1905,-0.7248,4.5791,8.1763,0.0019,9.568,-24.427,0.0011,-232.4685
159537,-106.3713,21.2502,-0.0084,-0.302,159.1905,-0.7248,4.5791,8.1763,0.0019,9.568,-24.427,0.0011,-232.4685
159553,-106.3713,21.2502,-0.0084,-0.302,159.1905,-0.7248,4.5791,8.1763,0.0019,9.568,-24.427,0.0011,-232.4685
159569,-106.3713,21.2502,-0.0084,-0.302,159.1905,-0.7248,4.5791,8.1763,0.0019,9.568,-24.427,0.0011,-232.4685
159587,-106.0981,21.7675,-0.009,-0.2223,140.5012,-0.8578,3.1075,6.8575,0.0042,-16.9174,-15.1609,0.0268,-196.7135
159601,-106.0981,21.7675,-0.009,-0.2223,140.5012,-0.8578,3.1075,6.8575,0.0042,-16.9174,-15.1609,0.0268,-196.7135
159617,-106.0981,21.7675,-0.009,-0.2223,140.5012,-0.8578,3.1075,6.8575,0.0042,-16.9174,-15.1609,0.0268,-196.7135
159633,-106.0981,21.7675,-0.009,-0.2223,140.5012,-0.8578,3.1075,6.8575,0.0042,-16.9174,-15.1609,0.0268,-196.7135
159649,-106.0981,21.7675,-0.009,-0.2223,140.5012,-0.8578,3.1075,6.8575,0.0042,-16.9174,-15.1609,0.0268,-196.7135
159665,-106.0163,22.2674,-0.0099,-0.0645,125.3796,-0.9086,1.0041,6.8719,0.0008,-24.6589,0.1687,-0.0401,-156.2859
159681,-106.0163,22.2674,-0.0099,-0.0645,125.3796,-0.9086,1.0041,6.8719,0.0008,-24.6589,0.1687,-0.0401,-156.2859
159697,-106.0163,22.2674,-0.0099,-0.0645,125.3796,-0.9086,1.0041,6.8719,0.0008,-24.6589,0.1687,-0.0401,-156.2859
159713,-106.0163,22.2674,-0.0099,-0.0645,125.3796,-0.9086,1.0041,6.8719,0.0008,-24.6589,0.1687,-0.0401,-156.2859
159729,-106.0163,22.2674,-0.0099,-0.0645,125.3796,-0.9086,1.0041,6.8719,0.0008,-24.6589,0.1687,-0.0401,-156.2859
159745,-106.0163,22.2674,-0.0099,-0.0645,125.3796,-0.9086,1.0041,6.8719,0.0008,-24.6589,0.1687,-0.0401,-156.2859
159762,-106.0854,22.888,-0.0111,0.0921,114.1998,-0.7866,-0.5214,7.8623,-0.0011,-17.116,11.1124,-0.0209,-104.5023
159777,-106.0854,22.888,-0.0111,0.0921,114.1998,-0.7866,-0.5214,7.8623,-0.0011,-17.116,11.1124,-0.0209,-104.5023
159793,-106.0854,22.888,-0.0111,0.0921,114.1998,-0.7866,-0.5214,7.8623,-0.0011,-17.116,11.1124,-0.0209,-104.5023
159809,-106.0854,22.888,-0.0111,0.0921,114.1998,-0.7866,-0.5214,7.8623,-0.0011,-17.116,11.1124,-0.0209,-104.5023
159825,-106.0854,22.888,-0.0111,0.0921,114.1998,-0.7866,-0.5214,7.8623,-0.0011,-17.116,11.1124,-0.0209,-104.5023
159843,-106.1811,23.5786,-0.0118,0.154,105.9785,-0.4603,-0.2829,8.6559,-0.0027,2.8032,9.3278,-0.0193,-94.2405
159857,-106.1811,23.5786,-0.0118,0.154,105.9785,-0.4603,-0.2829,8.6559,-0.0027,2.8032,9.3278,-0.0193,-94.2405
159873,-106.1811,23.5786,-0.0118,0.154,105.9785,-0.4603,-0.2829,8.6559,-0.0027,2.8032,9.3278,-0.0193,-94.2405
159889,-106.1811,23.5786,-0.0118,0.154,105.9785,-0.4603,-0.2829,8.6559,-0.0027,2.8032,9.3278,-0.0193,-94.2405
159921,-106.1811,23.5786,-0.0118,0.154,105.9785,-0.4603,-0.2829,8.6559,-0.0027,2.8032,9.3278,-0.0193,-94.2405
159939,-106.2548,24.3466,-0.0121,0.1604,99.48,-0.2646,-0.5664,9.1725,-0.0023,-3.2738,5.9642,0.0051,-52.8412
159953,-106.2548,24.3466,-0.0121,0.1604,99.48,-0.2646,-0.5664,9.1725,-0.0023,-3.2738,5.9642,0.0051,-52.8412
159969,-106.2548,24.3466,-0.0121,0.1604,99.48,-0.2646,-0.5664,9.1725,-0.0023,-3.2738,5.9642,0.0051,-52.8412
159985,-106.2548,24.3466,-0.0121,0.1604,99.48,-0.2646,-0.5664,9.1725,-0.0023,-3.2738,5.9642,0.0051,-52.8412
160001,-106.2548,24.3466,-0.0121,0.1604,99.48,-0.2646,-0.5664,9.1725,-0.0023,-3.2738,5.9642,0.0051,-52.8412
160019,-106.3536,25.1747,-0.0119,0.1265,96.8821,-0.249,-1.0337,9.3398,-0.0005,-5.2158,1.8673,0.0202,-16.5207
160033,-106.3536,25.1747,-0.0119,0.1265,96.8821,-0.249,-1.0337,9.3398,-0.0005,-5.2158,1.8673,0.0202,-16.5207
160049,-106.3536,25.1747,-0.0119,0.1265,96.8821,-0.249,-1.0337,9.3398,-0.0005,-5.2158,1.8673,0.0202,-16.5207
160065,-106.3536,25.1747,-0.0119,0.1265,96.8821,-0.249,-1.0337,9.3398,-0.0005,-5.2158,1.8673,0.0202,-16.5207
160081,-106.3536,25.1747,-0.0119,0.1265,96.8821,-0.249,-1.0337,9.3398,-0.0005,-5.2158,1.8673,0.0202,-16.5207
160097,-106.3536,25.1747,-0.0119,0.1265,96.8821,-0.249,-1.0337,9.3398,-0.0005,-5.2158,1.8673,0.0202,-16.5207
160115,-106.4561,26.04,-0.0117,0.0883,96.1256,-0.1665,-1.0613,9.4759,-0.0006,-0.3003,1.4797,-0.0015,-5.0469
160129,-106.4561,26.04,-0.0117,0.0883,96.1256,-0.1665,-1.0613,9.4759,-0.0006,-0.3003,1.4797,-0.0015,-5.0469
160145,-106.4561,26.04,-0.0117,0.0883,96.1256,-0.1665,-1.0613,9.4759,-0.0006,-0.3003,1.4797,-0.0015,-5.0469
160161,-106.4561,26.04,-0.0117,0.0883,96.1256,-0.1665,-1.0613,9.4759,-0.0006,-0.3003,1.4797,-0.0015,-5.0469
160177,-106.4561,26.04,-0.0117,0.0883,96.1256,-0.1665,-1.0613,9.4759,-0.0006,-0.3003,1.4797,-0.0015,-5.0469
160195,-106.4561,26.04,-0.0117,0.0883,96.1256,-0.1665,-1.0613,9.4759,-0.0006,-0.3003,1.4797,-0.0015,-5.0469
160209,-106.5507,26.8929,-0.0115,0.0592,95.923,-0.0945,-1.0293,9.5489,-0.0006,0.3571,0.8148,0.0003,-0.4589
160225,-106.5507,26.8929,-0.0115,0.0592,95.923,-0.0945,-1.0293,9.5489,-0.0006,0.3571,0.8148,0.0003,-0.4589
160241,-106.5507,26.8929,-0.0115,0.0592,95.923,-0.0945,-1.0293,9.5489,-0.0006,0.3571,0.8148,0.0003,-0.4589
160257,-106.5507,26.8929,-0.0115,0.0592,95.923,-0.0945,-1.0293,9.5489,-0.0006,0.3571,0.8148,0.0003,-0.4589
160273,-106.5507,26.8929,-0.0115,0.0592,95.923,-0.0945,-1.0293,9.5489,-0.0006,0.3571,0.8148,0.0003,-0.4589
160289,-106.6451,27.7829,-0.0114,0.0405,95.8558,-0.0501,-1.0083,9.6326,-0.0003,0.2266,0.9018,0.0025,0.3276
160305,-106.6451,27.7829,-0.0114,0.0405,95.8558,-0.0501,-1.0083,9.6326,-0.0003,0.2266,0.9018,0.0025,0.3276
160321,-106.6451,27.7829,-0.0114,0.0405,95.8558,-0.0501,-1.0083,9.6326,-0.0003,0.2266,0.9018,0.0025,0.3276
160337,-106.6451,27.7829,-0.0114,0.0405,95.8558,-0.0501,-1.0083,9.6326,-0.0003,0.2266,0.9018,0.0025,0.3276
160353,-106.6451,27.7829,-0.0114,0.0405,95.8558,-0.0501,-1.0083,9.6326,-0.0003,0.2266,0.9018,0.0025,0.3276
160369,-106.6451,27.7829,-0.0114,0.0405,95.8558,-0.0501,-1.0083,9.6326,-0.0003,0.2266,0.9018,0.0025,0.3276
160387,-106.7398,28.696,-0.0114,0.0278,95.8367,-0.0246,-1.0004,9.6981,0.0005,0.0835,0.6941,0.009,0.6306
160401,-106.7398,28.696,-0.0114,0.0278,95.8367,-0.0246,-1.0004,9.6981,0.0005,0.0835,0.6941,0.009,0.6306
160417,-106.7398,28.696,-0.0114,0.0278,95.8367,-0.0246,-1.0004,9.6981,0.0005,0.0835,0.6941,0.009,0.6306
160433,-106.7398,28.696,-0.0114,0.0278,95.8367,-0.0246,-1.0004,9.6981,0.0005,0.0835,0.6941,0.009,0.6306
160449,-106.7398,28.696,-0.0114,0.0278,95.8367,-0.0246,-1.0004,9.6981,0.0005,0.0835,0.6941,0.009,0.6306
160465,-106.7398,28.696,-0.0114,0.0278,95.8367,-0.0246,-1.0004,9.6981,0.0005,0.0835,0.6941,0.009,0.6306
160483,-106.8321,29.5939,-0.0113,0.0215,95.8315,-0.0141,-1.0003,9.7605,0.0001,0.0006,0.6761,-0.0043,0.6454
160497,-106.8321,29.5939,-0.0113,0.0215,95.8315,-0.0141,-1.0003,9.7605,0.0001,0.0006,0.6761,-0.0043,0.6454
160513,-106.8321,29.5939,-0.0113,0.0215,95.8315,-0.0141,-1.0003,9.7605,0.0001,0.0006,0.6761,-0.0043,0.6454
160529,-106.8321,29.5939,-0.0113,0.0215,95.8315,-0.0141,-1.0003,9.7605,0.0001,0.0006,0.6761,-0.0043,0.6454
160545,-106.8321,29.5939,-0.0113,0.0215,95.8315,-0.0141,-1.0003,9.7605,0.0001,0.0006,0.6761,-0.0043,0.6454
160561,-106.8321,29.5939,-0.0113,0.0215,95.8315,-0.0141,-1.0003,9.7605,0.0001,0.0006,0.6761,-0.0043,0.6454
160577,-106.9254,30.5059,-0.0113,0.017,95.83,-0.0078,-1.0034,9.8156,0.0,-0.0327,0.5922,-0.0011,0.6766
160593,-106.9254,30.5059,-0.0113,0.017,95.83,-0.0078,-1.0034,9.8156,0.0,-0.0327,0.5922,-0.0011,0.6766
160609,-106.9254,30.5059,-0.0113,0.017,95.83,-0.0078,-1.0034,9.8156,0.0,-0.0327,0.5922,-0.0011,0.6766
160625,-106.9254,30.5059,-0.0113,0.017,95.83,-0.0078,-1.0034,9.8156,0.0,-0.0327,0.5922,-0.0011,0.6766
160641,-106.9254,30.5059,-0.0113,0.017,95.83,-0.0078,-1.0034,9.8156,0.0,-0.0327,0.5922,-0.0011,0.6766
160657,-106.9254,30.5059,-0.0113,0.017,95.83,-0.0078,-1.0034,9.8156,0.0,-0.0327,0.5922,-0.0011,0.6766
160673,-107.0155,31.3876,-0.0113,0.0134,95.8219,-0.0044,-1.006,9.851,0.0,-0.0292,0.3942,-0.0001,-0.8261
160689,-107.0155,31.3876,-0.0113,0.0134,95.8219,-0.0044,-1.006,9.851,0.0,-0.0292,0.3942,-0.0001,-0.8261
160705,-107.0155,31.3876,-0.0113,0.0134,95.8219,-0.0044,-1.006,9.851,0.0,-0.0292,0.3942,-0.0001,-0.8261
160721,-107.0155,31.3876,-0.0113,0.0134,95.8219,-0.0044,-1.006,9.851,0.0,-0.0292,0.3942,-0.0001,-0.8261
160737,-107.0155,31.3876,-0.0113,0.0134,95.8219,-0.0044,-1.006,9.851,0.0,-0.0292,0.3942,-0.0001,-0.8261
160754,-107.1088,32.3021,-0.0112,0.012,95.8224,-0.0025,-1.0116,9.9108,-0.0,-0.0601,0.6467,-0.0003,-0.6567
160769,-107.1088,32.3021,-0.0112,0.012,95.8224,-0.0025,-1.0116,9.9108,-0.0,-0.0601,0.6467,-0.0003,-0.6567
160785,-107.1088,32.3021,-0.0112,0.012,95.8224,-0.0025,-1.0116,9.9108,-0.0,-0.0601,0.6467,-0.0003,-0.6567
160801,-107.1088,32.3021,-0.0112,0.012,95.8224,-0.0025,-1.0116,9.9108,-0.0,-0.0601,0.6467,-0.0003,-0.6567
160817,-107.1088,32.3021,-0.0112,0.012,95.8224,-0.0025,-1.0116,9.9108,-0.0,-0.0601,0.6467,-0.0003,-0.6567
160833,-107.1088,32.3021,-0.0112,0.012,95.8224,-0.0025,-1.0116,9.9108,-0.0,-0.0601,0.6467,-0.0003,-0.6567
160849,-107.2078,33.2727,-0.0112,0.0107,95.822,-0.0014,-1.0159,9.955,0.0,-0.0443,0.4526,0.0002,-0.7654
160865,-107.2078,33.2727,-0.0112,0.0107,95.822,-0.0014,-1.0159,9.955,0.0,-0.0443,0.4526,0.0002,-0.7654
160881,-107.2078,33.2727,-0.0112,0.0107,95.822,-0.0014,-1.0159,9.955,0.0,-0.0443,0.4526,0.0002,-0.7654
160897,-107.2078,33.2727,-0.0112,0.0107,95.822,-0.0014,-1.0159,9.955,0.0,-0.0443,0.4526,0.0002,-0.7654
160913,-107.2078,33.2727,-0.0112,0.0107,95.822,-0.0014,-1.0159,9.955,0.0,-0.0443,0.4526,0.0002,-0.7654
160929,-107.2078,33.2727,-0.0112,0.0107,95.822,-0.0014,-1.0159,9.955,0.0,-0.0443,0.4526,0.0002,-0.7654
160947,-107.2994,34.1703,-0.0112,0.0095,95.8299,-0.0008,-1.0196,9.9922,0.0,-0.0408,0.4134,0.0001,0.8111
160961,-107.2994,34.1703,-0.0112,0.0095,95.8299,-0.0008,-1.0196,9.9922,0.0,-0.0408,0.4134,0.0001,0.8111
160977,-107.2994,34.1703,-0.0112,0.0095,95.8299,-0.0008,-1.0196,9.9922,0.0,-0.0408,0.4134,0.0001,0.8111
160993,-107.2994,34.1703,-0.0112,0.0095,95.8299,-0.0008,-1.0196,9.9922,0.0,-0.0408,0.4134,0.0001,0.8111
161009,-107.2994,34.1703,-0.0112,0.0095,95.8299,-0.0008,-1.0196,9.9922,0.0,-0.0408,0.4134,0.0001,0.8111
161025,-107.2994,34.1703,-0.0112,0.0095,95.8299,-0.0008,-1.0196,9.9922,0.0,-0.0408,0.4134,0.0001,0.8111
161041,-107.3911,35.0684,-0.0112,0.0089,95.8219,-0.0005,-1.0238,10.0333,0.0,-0.0472,0.4584,-0.0001,-0.7985
161057,-107.3911,35.0684,-0.0112,0.0089,95.8219,-0.0005,-1.0238,10.0333,0.0,-0.0472,0.4584,-0.0001,-0.7985
161073,-107.3911,35.0684,-0.0112,0.0089,95.8219,-0.0005,-1.0238,10.0333,0.0,-0.0472,0.4584,-0.0001,-0.7985
161089,-107.3911,35.0684,-0.0112,0.0089,95.8219,-0.0005,-1.0238,10.0333,0.0,-0.0472,0.4584,-0.0001,-0.7985
