timestamp,x,y,z,pitch,yaw,roll,vx,vy,vz,ax,ay,az,yaw_rate
115327,-106.6867,-4.8475,-0.0793,0.0,-89.3578,0.0,-0.0,-0.0,0.0668,0.0,-0.0,6.5171,-0.0
115343,-106.6867,-4.8475,-0.0793,0.0,-89.3578,0.0,-0.0,-0.0,0.0668,0.0,-0.0,6.5171,-0.0
115359,-106.6867,-4.8475,-0.0793,0.0,-89.3578,0.0,-0.0,-0.0,0.0668,0.0,-0.0,6.5171,-0.0
115375,-106.6867,-4.8475,-0.0793,0.0,-89.3578,0.0,-0.0,-0.0,0.0668,0.0,-0.0,6.5171,-0.0
115391,-106.6867,-4.8475,-0.0793,0.0,-89.3578,0.0,-0.0,-0.0,0.0668,0.0,-0.0,6.5171,-0.0
115407,-106.6867,-4.8475,-0.0793,0.0,-89.3578,0.0,-0.0,-0.0,0.0668,0.0,-0.0,6.5171,-0.0
115423,-106.6867,-4.8475,-0.0793,0.0,-89.3578,0.0,-0.0,-0.0,0.0668,0.0,-0.0,6.5171,-0.0
115439,-106.6867,-4.8475,-0.0793,0.0,-89.3578,0.0,-0.0,-0.0,0.0668,0.0,-0.0,6.5171,-0.0
115455,-106.6867,-4.8475,-0.0793,0.0,-89.3578,0.0,-0.0,-0.0,0.0668,0.0,-0.0,6.5171,-0.0
115471,-106.6867,-4.8475,-0.0793,0.0,-89.3578,0.0,-0.0,-0.0,0.0668,0.0,-0.0,6.5171,-0.0
115487,-106.6867,-4.8475,-0.0793,0.0,-89.3578,0.0,-0.0,-0.0,0.0668,0.0,-0.0,6.5171,-0.0
115503,-106.6867,-4.8475,-0.0793,0.0,-89.3578,0.0,-0.0,-0.0,0.0668,0.0,-0.0,6.5171,-0.0
115519,-106.6867,-4.8456,-0.0595,-0.0017,-89.3578,0.0,-0.0005,0.042,0.2357,-0.0024,0.2185,0.8776,0.0001
115535,-106.6867,-4.8456,-0.0595,-0.0017,-89.3578,0.0,-0.0005,0.042,0.2357,-0.0024,0.2185,0.8776,0.0001
115551,-106.6867,-4.8456,-0.0595,-0.0017,-89.3578,0.0,-0.0005,0.042,0.2357,-0.0024,0.2185,0.8776,0.0001
115567,-106.6867,-4.8456,-0.0595,-0.0017,-89.3578,0.0,-0.0005,0.042,0.2357,-0.0024,0.2185,0.8776,0.0001
115583,-106.6867,-4.8456,-0.0595,-0.0017,-89.3578,0.0,-0.0005,0.042,0.2357,-0.0024,0.2185,0.8776,0.0001
115599,-106.6867,-4.8456,-0.0595,-0.0017,-89.3578,0.0,-0.0005,0.042,0.2357,-0.0024,0.2185,0.8776,0.0001
115615,-106.6867,-4.8456,-0.0595,-0.0017,-89.3578,0.0,-0.0005,0.042,0.2357,-0.0024,0.2185,0.8776,0.0001
115631,-106.6867,-4.8456,-0.0595,-0.0017,-89.3578,0.0,-0.0005,0.042,0.2357,-0.0024,0.2185,0.8776,0.0001
115647,-106.6868,-4.8406,-0.0387,-0.0051,-89.3578,0.0,-0.0012,0.1086,0.1754,-0.0058,0.5194,-0.4703,-0.0021
115663,-106.6868,-4.8406,-0.0387,-0.0051,-89.3578,0.0,-0.0012,0.1086,0.1754,-0.0058,0.5194,-0.4703,-0.0021
115679,-106.6868,-4.8406,-0.0387,-0.0051,-89.3578,0.0,-0.0012,0.1086,0.1754,-0.0058,0.5194,-0.4703,-0.0021
115695,-106.6868,-4.8406,-0.0387,-0.0051,-89.3578,0.0,-0.0012,0.1086,0.1754,-0.0058,0.5194,-0.4703,-0.0021
115711,-106.6868,-4.8406,-0.0387,-0.0051,-89.3578,0.0,-0.0012,0.1086,0.1754,-0.0058,0.5194,-0.4703,-0.0021
115727,-106.6868,-4.8406,-0.0387,-0.0051,-89.3578,0.0,-0.0012,0.1086,0.1754,-0.0058,0.5194,-0.4703,-0.0021
115743,-106.6868,-4.8406,-0.0387,-0.0051,-89.3578,0.0,-0.0012,0.1086,0.1754,-0.0058,0.5194,-0.4703,-0.0021
115759,-106.6872,-4.8057,-0.0254,-0.0284,-89.3532,0.0001,-0.0072,0.5848,0.1028,-0.0606,4.8607,-0.7412,0.0983
115775,-106.6872,-4.8057,-0.0254,-0.0284,-89.3532,0.0001,-0.0072,0.5848,0.1028,-0.0606,4.8607,-0.7412,0.0983
115791,-106.6872,-4.8057,-0.0254,-0.0284,-89.3532,0.0001,-0.0072,0.5848,0.1028,-0.0606,4.8607,-0.7412,0.0983
115807,-106.6872,-4.8057,-0.0254,-0.0284,-89.3532,0.0001,-0.0072,0.5848,0.1028,-0.0606,4.8607,-0.7412,0.0983
115823,-106.6872,-4.8057,-0.0254,-0.0284,-89.3532,0.0001,-0.0072,0.5848,0.1028,-0.0606,4.8607,-0.7412,0.0983
115839,-106.6872,-4.8057,-0.0254,-0.0284,-89.3532,0.0001,-0.0072,0.5848,0.1028,-0.0606,4.8607,-0.7412,0.0983
115855,-106.6882,-4.7228,-0.0178,-0.0486,-89.3493,0.0,-0.0103,0.9052,0.0679,-0.0318,3.2336,-0.3526,0.0055
115871,-106.6882,-4.7228,-0.0178,-0.0486,-89.3493,0.0,-0.0103,0.9052,0.0679,-0.0318,3.2336,-0.3526,0.0055
115887,-106.6882,-4.7228,-0.0178,-0.0486,-89.3493,0.0,-0.0103,0.9052,0.0679,-0.0318,3.2336,-0.3526,0.0055
115903,-106.6882,-4.7228,-0.0178,-0.0486,-89.3493,0.0,-0.0103,0.9052,0.0679,-0.0318,3.2336,-0.3526,0.0055
115919,-106.6882,-4.7228,-0.0178,-0.0486,-89.3493,0.0,-0.0103,0.9052,0.0679,-0.0318,3.2336,-0.3526,0.0055
115935,-106.6882,-4.7228,-0.0178,-0.0486,-89.3493,0.0,-0.0103,0.9052,0.0679,-0.0318,3.2336,-0.3526,0.0055
115951,-106.6893,-4.6259,-0.014,-0.0423,-89.3496,0.0,-0.0124,1.0958,0.0288,-0.023,2.0633,-0.4236,-0.0037
115967,-106.6893,-4.6259,-0.014,-0.0423,-89.3496,0.0,-0.0124,1.0958,0.0288,-0.023,2.0633,-0.4236,-0.0037
115983,-106.6893,-4.6259,-0.014,-0.0423,-89.3496,0.0,-0.0124,1.0958,0.0288,-0.023,2.0633,-0.4236,-0.0037
115999,-106.6893,-4.6259,-0.014,-0.0423,-89.3496,0.0,-0.0124,1.0958,0.0288,-0.023,2.0633,-0.4236,-0.0037
116015,-106.6893,-4.6259,-0.014,-0.0423,-89.3496,0.0,-0.0124,1.0958,0.0288,-0.023,2.0633,-0.4236,-0.0037
116033,-106.6906,-4.5193,-0.0124,-0.0399,-89.3492,-0.0,-0.0161,1.4167,0.0131,-0.0406,3.5573,-0.173,0.0056
116047,-106.6906,-4.5193,-0.0124,-0.0399,-89.3492,-0.0,-0.0161,1.4167,0.0131,-0.0406,3.5573,-0.173,0.0056
116063,-106.6906,-4.5193,-0.0124,-0.0399,-89.3492,-0.0,-0.0161,1.4167,0.0131,-0.0406,3.5573,-0.173,0.0056
116079,-106.6906,-4.5193,-0.0124,-0.0399,-89.3492,-0.0,-0.0161,1.4167,0.0131,-0.0406,3.5573,-0.173,0.0056
116095,-106.6906,-4.5193,-0.0124,-0.0399,-89.3492,-0.0,-0.0161,1.4167,0.0131,-0.0406,3.5573,-0.173,0.0056
116111,-106.6906,-4.5193,-0.0124,-0.0399,-89.3492,-0.0,-0.0161,1.4167,0.0131,-0.0406,3.5573,-0.173,0.0056
116129,-106.692,-4.3919,-0.0116,-0.0314,-89.3403,0.0,-0.0161,1.4184,0.0057,-0.0003,0.017,-0.0783,0.9299
116143,-106.692,-4.3919,-0.0116,-0.0314,-89.3403,0.0,-0.0161,1.4184,0.0057,-0.0003,0.017,-0.0783,0.9299
116159,-106.692,-4.3919,-0.0116,-0.0314,-89.3403,0.0,-0.0161,1.4184,0.0057,-0.0003,0.017,-0.0783,0.9299
116175,-106.692,-4.3919,-0.0116,-0.0314,-89.3403,0.0,-0.0161,1.4184,0.0057,-0.0003,0.017,-0.0783,0.9299
116191,-106.692,-4.3919,-0.0116,-0.0314,-89.3403,0.0,-0.0161,1.4184,0.0057,-0.0003,0.017,-0.0783,0.9299
116207,-106.692,-4.3919,-0.0116,-0.0314,-89.3403,0.0,-0.0161,1.4184,0.0057,-0.0003,0.017,-0.0783,0.9299
116225,-106.694,-4.2286,-0.0111,-0.0513,-89.3366,0.0003,-0.0253,2.0231,0.0026,-0.0951,6.2853,-0.0328,-1.2813
116239,-106.694,-4.2286,-0.0111,-0.0513,-89.3366,0.0003,-0.0253,2.0231,0.0026,-0.0951,6.2853,-0.0328,-1.2813
116255,-106.694,-4.2286,-0.0111,-0.0513,-89.3366,0.0003,-0.0253,2.0231,0.0026,-0.0951,6.2853,-0.0328,-1.2813
116271,-106.694,-4.2286,-0.0111,-0.0513,-89.3366,0.0003,-0.0253,2.0231,0.0026,-0.0951,6.2853,-0.0328,-1.2813
116287,-106.694,-4.2286,-0.0111,-0.0513,-89.3366,0.0003,-0.0253,2.0231,0.0026,-0.0951,6.2853,-0.0328,-1.2813
116303,-106.694,-4.2286,-0.0111,-0.0513,-89.3366,0.0003,-0.0253,2.0231,0.0026,-0.0951,6.2853,-0.0328,-1.2813
116320,-106.6964,-4.0197,-0.0108,-0.0665,-89.3091,-0.0004,-0.0245,2.4183,0.0012,0.0082,4.2451,-0.0145,4.9921
116335,-106.6964,-4.0197,-0.0108,-0.0665,-89.3091,-0.0004,-0.0245,2.4183,0.0012,0.0082,4.2451,-0.0145,4.9921
116351,-106.6964,-4.0197,-0.0108,-0.0665,-89.3091,-0.0004,-0.0245,2.4183,0.0012,0.0082,4.2451,-0.0145,4.9921
116367,-106.6964,-4.0197,-0.0108,-0.0665,-89.3091,-0.0004,-0.0245,2.4183,0.0012,0.0082,4.2451,-0.0145,4.9921
116383,-106.6964,-4.0197,-0.0108,-0.0665,-89.3091,-0.0004,-0.0245,2.4183,0.0012,0.0082,4.2451,-0.0145,4.9921
116399,-106.6964,-4.0197,-0.0108,-0.0665,-89.3091,-0.0004,-0.0245,2.4183,0.0012,0.0082,4.2451,-0.0145,4.9921
116416,-106.7003,-3.7421,-0.0107,-0.0777,-89.2643,0.0012,-0.0361,2.9979,0.0006,-0.117,5.8404,-0.0067,1.1594
116431,-106.7003,-3.7421,-0.0107,-0.0777,-89.2643,0.0012,-0.0361,2.9979,0.0006,-0.117,5.8404,-0.0067,1.1594
116447,-106.7003,-3.7421,-0.0107,-0.0777,-89.2643,0.0012,-0.0361,2.9979,0.0006,-0.117,5.8404,-0.0067,1.1594
116463,-106.7003,-3.7421,-0.0107,-0.0777,-89.2643,0.0012,-0.0361,2.9979,0.0006,-0.117,5.8404,-0.0067,1.1594
116479,-106.7003,-3.7421,-0.0107,-0.0777,-89.2643,0.0012,-0.0361,2.9979,0.0006,-0.117,5.8404,-0.0067,1.1594
116495,-106.7003,-3.7421,-0.0107,-0.0777,-89.2643,0.0012,-0.0361,2.9979,0.0006,-0.117,5.8404,-0.0067,1.1594
116511,-106.7042,-3.4544,-0.0106,-0.0793,-89.2325,0.0007,-0.0464,3.5044,0.0003,-0.1151,5.7018,-0.0031,-2.2296
116527,-106.7042,-3.4544,-0.0106,-0.0793,-89.2325,0.0007,-0.0464,3.5044,0.0003,-0.1151,5.7018,-0.0031,-2.2296
116543,-106.7042,-3.4544,-0.0106,-0.0793,-89.2325,0.0007,-0.0464,3.5044,0.0003,-0.1151,5.7018,-0.0031,-2.2296
116559,-106.7042,-3.4544,-0.0106,-0.0793,-89.2325,0.0007,-0.0464,3.5044,0.0003,-0.1151,5.7018,-0.0031,-2.2296
116575,-106.7042,-3.4544,-0.0106,-0.0793,-89.2325,0.0007,-0.0464,3.5044,0.0003,-0.1151,5.7018,-0.0031,-2.2296
116591,-106.7094,-3.1077,-0.0106,-0.0844,-89.1757,0.0014,-0.057,4.0569,0.0001,-0.115,5.942,-0.0018,0.3495
116607,-106.7094,-3.1077,-0.0106,-0.0844,-89.1757,0.0014,-0.057,4.0569,0.0001,-0.115,5.942,-0.0018,0.3495
116623,-106.7094,-3.1077,-0.0106,-0.0844,-89.1757,0.0014,-0.057,4.0569,0.0001,-0.115,5.942,-0.0018,0.3495
116639,-106.7094,-3.1077,-0.0106,-0.0844,-89.1757,0.0014,-0.057,4.0569,0.0001,-0.115,5.942,-0.0018,0.3495
116655,-106.7094,-3.1077,-0.0106,-0.0844,-89.1757,0.0014,-0.057,4.0569,0.0001,-0.115,5.942,-0.0018,0.3495
116671,-106.7094,-3.1077,-0.0106,-0.0844,-89.1757,0.0014,-0.057,4.0569,0.0001,-0.115,5.942,-0.0018,0.3495
116687,-106.7151,-2.7143,-0.0105,-0.0921,-89.1684,0.0013,-0.0679,4.6425,0.0001,-0.1188,6.4178,-0.0006,-0.2531
116703,-106.7151,-2.7143,-0.0105,-0.0921,-89.1684,0.0013,-0.0679,4.6425,0.0001,-0.1188,6.4178,-0.0006,-0.2531
116719,-106.7151,-2.7143,-0.0105,-0.0921,-89.1684,0.0013,-0.0679,4.6425,0.0001,-0.1188,6.4178,-0.0006,-0.2531
116735,-106.7151,-2.7143,-0.0105,-0.0921,-89.1684,0.0013,-0.0679,4.6425,0.0001,-0.1188,6.4178,-0.0006,-0.2531
116751,-106.7151,-2.7143,-0.0105,-0.0921,-89.1684,0.0013,-0.0679,4.6425,0.0001,-0.1188,6.4178,-0.0006,-0.2531
116767,-106.7151,-2.7143,-0.0105,-0.0921,-89.1684,0.0013,-0.0679,4.6425,0.0001,-0.1188,6.4178,-0.0006,-0.2531
116785,-106.7217,-2.2599,-0.0105,-0.0954,-89.1647,0.001,-0.0765,5.1695,0.0,-0.0924,5.6694,-0.0005,-1.1228
116799,-106.7217,-2.2599,-0.0105,-0.0954,-89.1647,0.001,-0.0765,5.1695,0.0,-0.0924,5.6694,-0.0005,-1.1228
116815,-106.7217,-2.2599,-0.0105,-0.0954,-89.1647,0.001,-0.0765,5.1695,0.0,-0.0924,5.6694,-0.0005,-1.1228
116831,-106.7217,-2.2599,-0.0105,-0.0954,-89.1647,0.001,-0.0765,5.1695,0.0,-0.0924,5.6694,-0.0005,-1.1228
116847,-106.7217,-2.2599,-0.0105,-0.0954,-89.1647,0.001,-0.0765,5.1695,0.0,-0.0924,5.6694,-0.0005,-1.1228
116863,-106.7217,-2.2599,-0.0105,-0.0954,-89.1647,0.001,-0.0765,5.1695,0.0,-0.0924,5.6694,-0.0005,-1.1228
116879,-106.7293,-1.7711,-0.0104,-0.0972,-89.1282,0.0011,-0.0858,5.7283,0.0,-0.1039,6.2042,-0.0002,1.549
116895,-106.7293,-1.7711,-0.0104,-0.0972,-89.1282,0.0011,-0.0858,5.7283,0.0,-0.1039,6.2042,-0.0002,1.549
116911,-106.7293,-1.7711,-0.0104,-0.0972,-89.1282,0.0011,-0.0858,5.7283,0.0,-0.1039,6.2042,-0.0002,1.549
116927,-106.7293,-1.7711,-0.0104,-0.0972,-89.1282,0.0011,-0.0858,5.7283,0.0,-0.1039,6.2042,-0.0002,1.549
116943,-106.7293,-1.7711,-0.0104,-0.0972,-89.1282,0.0011,-0.0858,5.7283,0.0,-0.1039,6.2042,-0.0002,1.549
116959,-106.7293,-1.7711,-0.0104,-0.0972,-89.1282,0.0011,-0.0858,5.7283,0.0,-0.1039,6.2042,-0.0002,1.549
116975,-106.7382,-1.1898,-0.0104,-0.0988,-89.1207,0.001,-0.0974,6.3141,0.0,-0.1197,6.0557,0.0002,-1.4021
116991,-106.7382,-1.1898,-0.0104,-0.0988,-89.1207,0.001,-0.0974,6.3141,0.0,-0.1197,6.0557,0.0002,-1.4021
117007,-106.7382,-1.1898,-0.0104,-0.0988,-89.1207,0.001,-0.0974,6.3141,0.0,-0.1197,6.0557,0.0002,-1.4021
117023,-106.7382,-1.1898,-0.0104,-0.0988,-89.1207,0.001,-0.0974,6.3141,0.0,-0.1197,6.0557,0.0002,-1.4021
117039,-106.7382,-1.1898,-0.0104,-0.0988,-89.1207,0.001,-0.0974,6.3141,0.0,-0.1197,6.0557,0.0002,-1.4021
117055,-106.7477,-0.5749,-0.0104,-0.1067,-89.1126,0.0008,-0.1079,7.0151,0.0,-0.1137,7.5876,-0.0004,0.861
117071,-106.7477,-0.5749,-0.0104,-0.1067,-89.1126,0.0008,-0.1079,7.0151,0.0,-0.1137,7.5876,-0.0004,0.861
117087,-106.7477,-0.5749,-0.0104,-0.1067,-89.1126,0.0008,-0.1079,7.0151,0.0,-0.1137,7.5876,-0.0004,0.861
117103,-106.7477,-0.5749,-0.0104,-0.1067,-89.1126,0.0008,-0.1079,7.0151,0.0,-0.1137,7.5876,-0.0004,0.861
117119,-106.7477,-0.5749,-0.0104,-0.1067,-89.1126,0.0008,-0.1079,7.0151,0.0,-0.1137,7.5876,-0.0004,0.861
117135,-106.7477,-0.5749,-0.0104,-0.1067,-89.1126,0.0008,-0.1079,7.0151,0.0,-0.1137,7.5876,-0.0004,0.861
117151,-106.758,0.0945,-0.0103,-0.1154,-89.1151,0.0005,-0.1193,7.7113,0.0,-0.1258,7.6704,-0.0001,-0.4317
117167,-106.758,0.0945,-0.0103,-0.1154,-89.1151,0.0005,-0.1193,7.7113,0.0,-0.1258,7.6704,-0.0001,-0.4317
117183,-106.758,0.0945,-0.0103,-0.1154,-89.1151,0.0005,-0.1193,7.7113,0.0,-0.1258,7.6704,-0.0001,-0.4317
117199,-106.758,0.0945,-0.0103,-0.1154,-89.1151,0.0005,-0.1193,7.7113,0.0,-0.1258,7.6704,-0.0001,-0.4317
117215,-106.758,0.0945,-0.0103,-0.1154,-89.1151,0.0005,-0.1193,7.7113,0.0,-0.1258,7.6704,-0.0001,-0.4317
117231,-106.758,0.0945,-0.0103,-0.1154,-89.1151,0.0005,-0.1193,7.7113,0.0,-0.1258,7.6704,-0.0001,-0.4317
117247,-106.7694,0.8282,-0.0103,-0.1169,-89.1137,0.0004,-0.1288,8.3331,-0.0,-0.1039,6.8193,-0.0002,0.1448
117263,-106.7694,0.8282,-0.0103,-0.1169,-89.1137,0.0004,-0.1288,8.3331,-0.0,-0.1039,6.8193,-0.0002,0.1448
117279,-106.7694,0.8282,-0.0103,-0.1169,-89.1137,0.0004,-0.1288,8.3331,-0.0,-0.1039,6.8193,-0.0002,0.1448
117295,-106.7694,0.8282,-0.0103,-0.1169,-89.1137,0.0004,-0.1288,8.3331,-0.0,-0.1039,6.8193,-0.0002,0.1448
117311,-106.7694,0.8282,-0.0103,-0.1169,-89.1137,0.0004,-0.1288,8.3331,-0.0,-0.1039,6.8193,-0.0002,0.1448
117327,-106.7694,0.8282,-0.0103,-0.1169,-89.1137,0.0004,-0.1288,8.3331,-0.0,-0.1039,6.8193,-0.0002,0.1448
117343,-106.7819,1.6383,-0.0104,-0.1087,-89.1143,0.0002,-0.1368,8.8453,-0.0,-0.0847,5.439,0.0002,-0.0524
117359,-106.7819,1.6383,-0.0104,-0.1087,-89.1143,0.0002,-0.1368,8.8453,-0.0,-0.0847,5.439,0.0002,-0.0524
117375,-106.7819,1.6383,-0.0104,-0.1087,-89.1143,0.0002,-0.1368,8.8453,-0.0,-0.0847,5.439,0.0002,-0.0524
117391,-106.7819,1.6383,-0.0104,-0.1087,-89.1143,0.0002,-0.1368,8.8453,-0.0,-0.0847,5.439,0.0002,-0.0524
117407,-106.7819,1.6383,-0.0104,-0.1087,-89.1143,0.0002,-0.1368,8.8453,-0.0,-0.0847,5.439,0.0002,-0.0524
117423,-106.7951,2.4902,-0.0104,-0.1013,-89.1141,0.0001,-0.1448,9.3655,0.0,-0.0858,5.5654,0.0,0.0022
117439,-106.7951,2.4902,-0.0104,-0.1013,-89.1141,0.0001,-0.1448,9.3655,0.0,-0.0858,5.5654,0.0,0.0022
117455,-106.7951,2.4902,-0.0104,-0.1013,-89.1141,0.0001,-0.1448,9.3655,0.0,-0.0858,5.5654,0.0,0.0022
117471,-106.7951,2.4902,-0.0104,-0.1013,-89.1141,0.0001,-0.1448,9.3655,0.0,-0.0858,5.5654,0.0,0.0022
117487,-106.7951,2.4902,-0.0104,-0.1013,-89.1141,0.0001,-0.1448,9.3655,0.0,-0.0858,5.5654,0.0,0.0022
117503,-106.7951,2.4902,-0.0104,-0.1013,-89.1141,0.0001,-0.1448,9.3655,0.0,-0.0858,5.5654,0.0,0.0022
117520,-106.7951,2.4902,-0.0104,-0.1013,-89.1141,0.0001,-0.1448,9.3655,0.0,-0.0858,5.5654,0.0,0.0022
117535,-106.8097,3.439,-0.0105,-0.0944,-89.1142,0.0001,-0.1523,9.8471,-0.0,-0.0756,4.8869,-0.0001,-0.0002
117551,-106.8097,3.439,-0.0105,-0.0944,-89.1142,0.0001,-0.1523,9.8471,-0.0,-0.0756,4.8869,-0.0001,-0.0002
117567,-106.8097,3.439,-0.0105,-0.0944,-89.1142,0.0001,-0.1523,9.8471,-0.0,-0.0756,4.8869,-0.0001,-0.0002
117583,-106.8097,3.439,-0.0105,-0.0944,-89.1142,0.0001,-0.1523,9.8471,-0.0,-0.0756,4.8869,-0.0001,-0.0002
117599,-106.8097,3.439,-0.0105,-0.0944,-89.1142,0.0001,-0.1523,9.8471,-0.0,-0.0756,4.8869,-0.0001,-0.0002
117615,-106.8239,4.3551,-0.0105,-0.0901,-89.1141,0.0,-0.1595,10.318,0.0,-0.0802,5.1877,0.0001,0.0001
117631,-106.8239,4.3551,-0.0105,-0.0901,-89.1141,0.0,-0.1595,10.318,0.0,-0.0802,5.1877,0.0001,0.0001
117647,-106.8239,4.3551,-0.0105,-0.0901,-89.1141,0.0,-0.1595,10.318,0.0,-0.0802,5.1877,0.0001,0.0001
117663,-106.8239,4.3551,-0.0105,-0.0901,-89.1141,0.0,-0.1595,10.318,0.0,-0.0802,5.1877,0.0001,0.0001
117679,-106.8239,4.3551,-0.0105,-0.0901,-89.1141,0.0,-0.1595,10.318,0.0,-0.0802,5.1877,0.0001,0.0001
117695,-106.8239,4.3551,-0.0105,-0.0901,-89.1141,0.0,-0.1595,10.318,0.0,-0.0802,5.1877,0.0001,0.0001
117713,-106.8391,5.3365,-0.0105,-0.0872,-89.1141,0.0,-0.1665,10.7669,0.0,-0.0747,4.8327,0.0,0.0002
117727,-106.8391,5.3365,-0.0105,-0.0872,-89.1141,0.0,-0.1665,10.7669,0.0,-0.0747,4.8327,0.0,0.0002
117743,-106.8391,5.3365,-0.0105,-0.0872,-89.1141,0.0,-0.1665,10.7669,0.0,-0.0747,4.8327,0.0,0.0002
117759,-106.8391,5.3365,-0.0105,-0.0872,-89.1141,0.0,-0.1665,10.7669,0.0,-0.0747,4.8327,0.0,0.0002
117775,-106.8391,5.3365,-0.0105,-0.0872,-89.1141,0.0,-0.1665,10.7669,0.0,-0.0747,4.8327,0.0,0.0002
117791,-106.8391,5.3365,-0.0105,-0.0872,-89.1141,0.0,-0.1665,10.7669,0.0,-0.0747,4.8327,0.0,0.0002
117807,-106.8543,6.3227,-0.0106,-0.081,-89.1142,0.0,-0.172,11.1217,-0.0,-0.061,3.9472,-0.0001,-0.0004
117823,-106.8543,6.3227,-0.0106,-0.081,-89.1142,0.0,-0.172,11.1217,-0.0,-0.061,3.9472,-0.0001,-0.0004
117839,-106.8543,6.3227,-0.0106,-0.081,-89.1142,0.0,-0.172,11.1217,-0.0,-0.061,3.9472,-0.0001,-0.0004
117855,-106.8543,6.3227,-0.0106,-0.081,-89.1142,0.0,-0.172,11.1217,-0.0,-0.061,3.9472,-0.0001,-0.0004
117871,-106.8543,6.3227,-0.0106,-0.081,-89.1142,0.0,-0.172,11.1217,-0.0,-0.061,3.9472,-0.0001,-0.0004
117887,-106.8543,6.3227,-0.0106,-0.081,-89.1142,0.0,-0.172,11.1217,-0.0,-0.061,3.9472,-0.0001,-0.0004
117903,-106.8707,7.3825,-0.0106,-0.0743,-89.1142,-0.0,-0.1776,11.4858,-0.0,-0.0602,3.8912,0.0001,-0.0001
117919,-106.8707,7.3825,-0.0106,-0.0743,-89.1142,-0.0,-0.1776,11.4858,-0.0,-0.0602,3.8912,0.0001,-0.0001
117935,-106.8707,7.3825,-0.0106,-0.0743,-89.1142,-0.0,-0.1776,11.4858,-0.0,-0.0602,3.8912,0.0001,-0.0001
117951,-106.8707,7.3825,-0.0106,-0.0743,-89.1142,-0.0,-0.1776,11.4858,-0.0,-0.0602,3.8912,0.0001,-0.0001
117967,-106.8707,7.3825,-0.0106,-0.0743,-89.1142,-0.0,-0.1776,11.4858,-0.0,-0.0602,3.8912,0.0001,-0.0001
117985,-106.887,8.4331,-0.0106,-0.0694,-89.1142,0.0,-0.1827,11.8192,0.0,-0.0573,3.7042,0.0,0.0002
117999,-106.887,8.4331,-0.0106,-0.0694,-89.1142,0.0,-0.1827,11.8192,0.0,-0.0573,3.7042,0.0,0.0002
118015,-106.887,8.4331,-0.0106,-0.0694,-89.1142,0.0,-0.1827,11.8192,0.0,-0.0573,3.7042,0.0,0.0002
118031,-106.887,8.4331,-0.0106,-0.0694,-89.1142,0.0,-0.1827,11.8192,0.0,-0.0573,3.7042,0.0,0.0002
118047,-106.887,8.4331,-0.0106,-0.0694,-89.1142,0.0,-0.1827,11.8192,0.0,-0.0573,3.7042,0.0,0.0002
118063,-106.887,8.4331,-0.0106,-0.0694,-89.1142,0.0,-0.1827,11.8192,0.0,-0.0573,3.7042,0.0,0.0002
118081,-106.9037,9.5172,-0.0107,-0.0651,-89.1142,0.0,-0.1876,12.1317,-0.0,-0.0534,3.4567,-0.0002,0.0001
118095,-106.9037,9.5172,-0.0107,-0.0651,-89.1142,0.0,-0.1876,12.1317,-0.0,-0.0534,3.4567,-0.0002,0.0001
118111,-106.9037,9.5172,-0.0107,-0.0651,-89.1142,0.0,-0.1876,12.1317,-0.0,-0.0534,3.4567,-0.0002,0.0001
118127,-106.9037,9.5172,-0.0107,-0.0651,-89.1142,0.0,-0.1876,12.1317,-0.0,-0.0534,3.4567,-0.0002,0.0001
118143,-106.9037,9.5172,-0.0107,-0.0651,-89.1142,0.0,-0.1876,12.1317,-0.0,-0.0534,3.4567,-0.0002,0.0001
118159,-106.9037,9.5172,-0.0107,-0.0651,-89.1142,0.0,-0.1876,12.1317,-0.0,-0.0534,3.4567,-0.0002,0.0001
118175,-106.921,10.6367,-0.0107,-0.0615,-89.1142,0.0,-0.1922,12.4292,0.0,-0.0505,3.2675,0.0001,0.0
118191,-106.921,10.6367,-0.0107,-0.0615,-89.1142,0.0,-0.1922,12.4292,0.0,-0.0505,3.2675,0.0001,0.0
118207,-106.921,10.6367,-0.0107,-0.0615,-89.1142,0.0,-0.1922,12.4292,0.0,-0.0505,3.2675,0.0001,0.0
118223,-106.921,10.6367,-0.0107,-0.0615,-89.1142,0.0,-0.1922,12.4292,0.0,-0.0505,3.2675,0.0001,0.0
118239,-106.921,10.6367,-0.0107,-0.0615,-89.1142,0.0,-0.1922,12.4292,0.0,-0.0505,3.2675,0.0001,0.0
118256,-106.9385,11.767,-0.0107,-0.0576,-89.1142,0.0,-0.1963,12.6964,-0.0,-0.046,2.9737,-0.0,-0.0001
118271,-106.9385,11.767,-0.0107,-0.0576,-89.1142,0.0,-0.1963,12.6964,-0.0,-0.046,2.9737,-0.0,-0.0001
118287,-106.9385,11.767,-0.0107,-0.0576,-89.1142,0.0,-0.1963,12.6964,-0.0,-0.046,2.9737,-0.0,-0.0001
118303,-106.9385,11.767,-0.0107,-0.0576,-89.1142,0.0,-0.1963,12.6964,-0.0,-0.046,2.9737,-0.0,-0.0001
118319,-106.9385,11.767,-0.0107,-0.0576,-89.1142,0.0,-0.1963,12.6964,-0.0,-0.046,2.9737,-0.0,-0.0001
118353,-106.9568,12.9482,-0.0108,-0.0512,-89.1142,0.0,-0.1995,12.9,0.0,-0.0341,2.2085,0.0,-0.0001
118367,-106.9568,12.9482,-0.0108,-0.0512,-89.1142,0.0,-0.1995,12.9,0.0,-0.0341,2.2085,0.0,-0.0001
118383,-106.9568,12.9482,-0.0108,-0.0512,-89.1142,0.0,-0.1995,12.9,0.0,-0.0341,2.2085,0.0,-0.0001
118399,-106.9568,12.9482,-0.0108,-0.0512,-89.1142,0.0,-0.1995,12.9,0.0,-0.0341,2.2085,0.0,-0.0001
118415,-106.9568,12.9482,-0.0108,-0.0512,-89.1142,0.0,-0.1995,12.9,0.0,-0.0341,2.2085,0.0,-0.0001
118431,-106.9568,12.9482,-0.0108,-0.0512,-89.1142,0.0,-0.1995,12.9,0.0,-0.0341,2.2085,0.0,-0.0001
118447,-107.0016,14.1638,-0.0109,-0.0351,-90.335,0.1131,-0.9738,12.8827,0.001,-8.2296,-0.1831,0.0102,-28.3591
118463,-107.0016,14.1638,-0.0109,-0.0351,-90.335,0.1131,-0.9738,12.8827,0.001,-8.2296,-0.1831,0.0102,-28.3591
118479,-107.0016,14.1638,-0.0109,-0.0351,-90.335,0.1131,-0.9738,12.8827,0.001,-8.2296,-0.1831,0.0102,-28.3591
118495,-107.0016,14.1638,-0.0109,-0.0351,-90.335,0.1131,-0.9738,12.8827,0.001,-8.2296,-0.1831,0.0102,-28.3591
118511,-107.0016,14.1638,-0.0109,-0.0351,-90.335,0.1131,-0.9738,12.8827,0.001,-8.2296,-0.1831,0.0102,-28.3591
118528,-107.1007,15.3053,-0.011,-0.0033,-94.9935,0.2465,-1.8548,12.635,0.0012,-9.8312,-2.7641,0.0028,-72.6743
118543,-107.1007,15.3053,-0.011,-0.0033,-94.9935,0.2465,-1.8548,12.635,0.0012,-9.8312,-2.7641,0.0028,-72.6743
118559,-107.1007,15.3053,-0.011,-0.0033,-94.9935,0.2465,-1.8548,12.635,0.0012,-9.8312,-2.7641,0.0028,-72.6743
118575,-107.1007,15.3053,-0.011,-0.0033,-94.9935,0.2465,-1.8548,12.635,0.0012,-9.8312,-2.7641,0.0028,-72.6743
118591,-107.1007,15.3053,-0.011,-0.0033,-94.9935,0.2465,-1.8548,12.635,0.0012,-9.8312,-2.7641,0.0028,-72.6743
118607,-107.1007,15.3053,-0.011,-0.0033,-94.9935,0.2465,-1.8548,12.635,0.0012,-9.8312,-2.7641,0.0028,-72.6743
118624,-107.2306,16.4181,-0.0111,0.0248,-104.0526,0.2667,-2.352,12.3623,0.0002,-5.523,-3.0298,-0.0109,-124.4088
118639,-107.2306,16.4181,-0.0111,0.0248,-104.0526,0.2667,-2.352,12.3623,0.0002,-5.523,-3.0298,-0.0109,-124.4088
118655,-107.2306,16.4181,-0.0111,0.0248,-104.0526,0.2667,-2.352,12.3623,0.0002,-5.523,-3.0298,-0.0109,-124.4088
118671,-107.2306,16.4181,-0.0111,0.0248,-104.0526,0.2667,-2.352,12.3623,0.0002,-5.523,-3.0298,-0.0109,-124.4088
118687,-107.2306,16.4181,-0.0111,0.0248,-104.0526,0.2667,-2.352,12.3623,0.0002,-5.523,-3.0298,-0.0109,-124.4088
118703,-107.2306,16.4181,-0.0111,0.0248,-104.0526,0.2667,-2.352,12.3623,0.0002,-5.523,-3.0298,-0.0109,-124.4088
118719,-107.3464,17.4906,-0.0112,0.0236,-117.9625,0.1642,-2.2319,12.1991,-0.0009,1.3275,-1.8043,-0.0127,-177.8743
118735,-107.3464,17.4906,-0.0112,0.0236,-117.9625,0.1642,-2.2319,12.1991,-0.0009,1.3275,-1.8043,-0.0127,-177.8743
118751,-107.3464,17.4906,-0.0112,0.0236,-117.9625,0.1642,-2.2319,12.1991,-0.0009,1.3275,-1.8043,-0.0127,-177.8743
118767,-107.3464,17.4906,-0.0112,0.0236,-117.9625,0.1642,-2.2319,12.1991,-0.0009,1.3275,-1.8043,-0.0127,-177.8743
118783,-107.3464,17.4906,-0.0112,0.0236,-117.9625,0.1642,-2.2319,12.1991,-0.0009,1.3275,-1.8043,-0.0127,-177.8743
118799,-107.3464,17.4906,-0.0112,0.0236,-117.9625,0.1642,-2.2319,12.1991,-0.0009,1.3275,-1.8043,-0.0127,-177.8743
118817,-107.3805,18.6132,-0.0107,-0.0558,-137.5504,-0.0898,-0.6981,12.2029,-0.0003,15.4741,0.0384,0.0067,-209.0268
118831,-107.3805,18.6132,-0.0107,-0.0558,-137.5504,-0.0898,-0.6981,12.2029,-0.0003,15.4741,0.0384,0.0067,-209.0268
118847,-107.3805,18.6132,-0.0107,-0.0558,-137.5504,-0.0898,-0.6981,12.2029,-0.0003,15.4741,0.0384,0.0067,-209.0268
118863,-107.3805,18.6132,-0.0107,-0.0558,-137.5504,-0.0898,-0.6981,12.2029,-0.0003,15.4741,0.0384,0.0067,-209.0268
118879,-107.3805,18.6132,-0.0107,-0.0558,-137.5504,-0.0898,-0.6981,12.2029,-0.0003,15.4741,0.0384,0.0067,-209.0268
118895,-107.3805,18.6132,-0.0107,-0.0558,-137.5504,-0.0898,-0.6981,12.2029,-0.0003,15.4741,0.0384,0.0067,-209.0268
118911,-107.2617,19.5835,-0.0097,-0.1682,-157.2299,-0.3381,1.4063,11.7246,0.0021,23.1009,-5.2514,0.0253,-220.6141
118927,-107.2617,19.5835,-0.0097,-0.1682,-157.2299,-0.3381,1.4063,11.7246,0.0021,23.1009,-5.2514,0.0253,-220.6141
118959,-107.2617,19.5835,-0.0097,-0.1682,-157.2299,-0.3381,1.4063,11.7246,0.0021,23.1009,-5.2514,0.0253,-220.6141
118975,-107.2617,19.5835,-0.0097,-0.1682,-157.2299,-0.3381,1.4063,11.7246,0.0021,23.1009,-5.2514,0.0253,-220.6141
118993,-107.0138,20.4235,-0.009,-0.2404,-177.4381,-0.5982,2.9866,9.944,0.0026,17.3918,-19.5947,0.0061,-222.956
119007,-107.0138,20.4235,-0.009,-0.2404,-177.4381,-0.5982,2.9866,9.944,0.0026,17.3918,-19.5947,0.0061,-222.956
119023,-107.0138,20.4235,-0.009,-0.2404,-177.4381,-0.5982,2.9866,9.944,0.0026,17.3918,-19.5947,0.0061,-222.956
119039,-107.0138,20.4235,-0.009,-0.2404,-177.4381,-0.5982,2.9866,9.944,0.0026,17.3918,-19.5947,0.0061,-222.956
119055,-107.0138,20.4235,-0.009,-0.2404,-177.4381,-0.5982,2.9866,9.944,0.0026,17.3918,-19.5947,0.0061,-222.956
119071,-107.0138,20.4235,-0.009,-0.2404,-177.4381,-0.5982,2.9866,9.944,0.0026,17.3918,-19.5947,0.0061,-222.956
119087,-106.7849,21.0541,-0.0092,-0.2014,163.9915,-0.8102,2.3461,7.9006,-0.0033,-7.3254,-23.3698,-0.0676,-201.0399
119103,-106.7849,21.0541,-0.0092,-0.2014,163.9915,-0.8102,2.3461,7.9006,-0.0033,-7.3254,-23.3698,-0.0676,-201.0399
119119,-106.7849,21.0541,-0.0092,-0.2014,163.9915,-0.8102,2.3461,7.9006,-0.0033,-7.3254,-23.3698,-0.0676,-201.0399
119135,-106.7849,21.0541,-0.0092,-0.2014,163.9915,-0.8102,2.3461,7.9006,-0.0033,-7.3254,-23.3698,-0.0676,-201.0399
119151,-106.7849,21.0541,-0.0092,-0.2014,163.9915,-0.8102,2.3461,7.9006,-0.0033,-7.3254,-23.3698,-0.0676,-201.0399
119169,-106.7159,21.5454,-0.0098,-0.09,147.694,-0.9456,0.6077,6.6217,0.0026,-20.5136,-15.0913,0.0697,-180.5566
119183,-106.7159,21.5454,-0.0098,-0.09,147.694,-0.9456,0.6077,6.6217,0.0026,-20.5136,-15.0913,0.0697,-180.5566
119199,-106.7159,21.5454,-0.0098,-0.09,147.694,-0.9456,0.6077,6.6217,0.0026,-20.5136,-15.0913,0.0697,-180.5566
119215,-106.7159,21.5454,-0.0098,-0.09,147.694,-0.9456,0.6077,6.6217,0.0026,-20.5136,-15.0913,0.0697,-180.5566
119231,-106.7159,21.5454,-0.0098,-0.09,147.694,-0.9456,0.6077,6.6217,0.0026,-20.5136,-15.0913,0.0697,-180.5566
119248,-106.8386,22.0689,-0.0109,0.0702,134.0063,-0.8727,-1.5992,6.9707,-0.0005,-24.7294,3.9109,-0.0342,-131.1249
119263,-106.8386,22.0689,-0.0109,0.0702,134.0063,-0.8727,-1.5992,6.9707,-0.0005,-24.7294,3.9109,-0.0342,-131.1249
119279,-106.8386,22.0689,-0.0109,0.0702,134.0063,-0.8727,-1.5992,6.9707,-0.0005,-24.7294,3.9109,-0.0342,-131.1249
119295,-106.8386,22.0689,-0.0109,0.0702,134.0063,-0.8727,-1.5992,6.9707,-0.0005,-24.7294,3.9109,-0.0342,-131.1249
119311,-106.8386,22.0689,-0.0109,0.0702,134.0063,-0.8727,-1.5992,6.9707,-0.0005,-24.7294,3.9109,-0.0342,-131.1249
119327,-106.8386,22.0689,-0.0109,0.0702,134.0063,-0.8727,-1.5992,6.9707,-0.0005,-24.7294,3.9109,-0.0342,-131.1249
119343,-107.0883,22.6742,-0.0119,0.1813,124.4998,-0.6343,-2.5354,7.922,-0.0018,-10.8426,11.0166,-0.0159,-99.2281
119359,-107.0883,22.6742,-0.0119,0.1813,124.4998,-0.6343,-2.5354,7.922,-0.0018,-10.8426,11.0166,-0.0159,-99.2281
119375,-107.0883,22.6742,-0.0119,0.1813,124.4998,-0.6343,-2.5354,7.922,-0.0018,-10.8426,11.0166,-0.0159,-99.2281
119391,-107.0883,22.6742,-0.0119,0.1813,124.4998,-0.6343,-2.5354,7.922,-0.0018,-10.8426,11.0166,-0.0159,-99.2281
119407,-107.0883,22.6742,-0.0119,0.1813,124.4998,-0.6343,-2.5354,7.922,-0.0018,-10.8426,11.0166,-0.0159,-99.2281
119423,-107.3442,23.3795,-0.0122,0.1999,116.1135,-0.2668,-2.0769,8.786,-0.0032,5.2552,9.9032,-0.0158,-94.7133
119439,-107.3442,23.3795,-0.0122,0.1999,116.1135,-0.2668,-2.0769,8.786,-0.0032,5.2552,9.9032,-0.0158,-94.7133
119471,-107.3442,23.3795,-0.0122,0.1999,116.1135,-0.2668,-2.0769,8.786,-0.0032,5.2552,9.9032,-0.0158,-94.7133
119487,-107.3442,23.3795,-0.0122,0.1999,116.1135,-0.2668,-2.0769,8.786,-0.0032,5.2552,9.9032,-0.0158,-94.7133
119503,-107.3442,23.3795,-0.0122,0.1999,116.1135,-0.2668,-2.0769,8.786,-0.0032,5.2552,9.9032,-0.0158,-94.7133
119520,-107.578,24.1732,-0.0124,0.1802,109.2887,-0.1107,-2.3539,9.2469,-0.0021,-3.1016,5.1607,0.012,-54.3212
119535,-107.578,24.1732,-0.0124,0.1802,109.2887,-0.1107,-2.3539,9.2469,-0.0021,-3.1016,5.1607,0.012,-54.3212
119551,-107.578,24.1732,-0.0124,0.1802,109.2887,-0.1107,-2.3539,9.2469,-0.0021,-3.1016,5.1607,0.012,-54.3212
119567,-107.578,24.1732,-0.0124,0.1802,109.2887,-0.1107,-2.3539,9.2469,-0.0021,-3.1016,5.1607,0.012,-54.3212
119583,-107.578,24.1732,-0.0124,0.1802,109.2887,-0.1107,-2.3539,9.2469,-0.0021,-3.1016,5.1607,0.012,-54.3212
119599,-107.578,24.1732,-0.0124,0.1802,109.2887,-0.1107,-2.3539,9.2469,-0.0021,-3.1016,5.1607,0.012,-54.3212
119617,-107.8443,25.0377,-0.0121,0.1345,106.6577,-0.137,-2.7723,9.3813,0.0,-4.4753,1.437,0.0229,-15.2791
119631,-107.8443,25.0377,-0.0121,0.1345,106.6577,-0.137,-2.7723,9.3813,0.0,-4.4753,1.437,0.0229,-15.2791
119647,-107.8443,25.0377,-0.0121,0.1345,106.6577,-0.137,-2.7723,9.3813,0.0,-4.4753,1.437,0.0229,-15.2791
119663,-107.8443,25.0377,-0.0121,0.1345,106.6577,-0.137,-2.7723,9.3813,0.0,-4.4753,1.437,0.0229,-15.2791
119679,-107.8443,25.0377,-0.0121,0.1345,106.6577,-0.137,-2.7723,9.3813,0.0,-4.4753,1.437,0.0229,-15.2791
119695,-107.8443,25.0377,-0.0121,0.1345,106.6577,-0.137,-2.7723,9.3813,0.0,-4.4753,1.437,0.0229,-15.2791
119711,-108.0973,25.8803,-0.0118,0.0913,105.9918,-0.0888,-2.7748,9.4805,-0.0002,-0.0282,1.1093,-0.0025,-3.3399
119727,-108.0973,25.8803,-0.0118,0.0913,105.9918,-0.0888,-2.7748,9.4805,-0.0002,-0.0282,1.1093,-0.0025,-3.3399
119743,-108.0973,25.8803,-0.0118,0.0913,105.9918,-0.0888,-2.7748,9.4805,-0.0002,-0.0282,1.1093,-0.0025,-3.3399
119759,-108.0973,25.8803,-0.0118,0.0913,105.9918,-0.0888,-2.7748,9.4805,-0.0002,-0.0282,1.1093,-0.0025,-3.3399
119775,-108.0973,25.8803,-0.0118,0.0913,105.9918,-0.0888,-2.7748,9.4805,-0.0002,-0.0282,1.1093,-0.0025,-3.3399
119791,-108.3506,26.7512,-0.0116,0.061,105.7845,-0.0442,-2.7497,9.5807,-0.0003,0.275,1.0968,-0.0006,-0.5696
119807,-108.3506,26.7512,-0.0116,0.061,105.7845,-0.0442,-2.7497,9.5807,-0.0003,0.275,1.0968,-0.0006,-0.5696
119823,-108.3506,26.7512,-0.0116,0.061,105.7845,-0.0442,-2.7497,9.5807,-0.0003,0.275,1.0968,-0.0006,-0.5696
119839,-108.3506,26.7512,-0.0116,0.061,105.7845,-0.0442,-2.7497,9.5807,-0.0003,0.275,1.0968,-0.0006,-0.5696
119855,-108.3506,26.7512,-0.0116,0.061,105.7845,-0.0442,-2.7497,9.5807,-0.0003,0.275,1.0968,-0.0006,-0.5696
119871,-108.3506,26.7512,-0.0116,0.061,105.7845,-0.0442,-2.7497,9.5807,-0.0003,0.275,1.0968,-0.0006,-0.5696
119889,-108.6134,27.6724,-0.0114,0.0399,105.7235,-0.0185,-2.7356,9.646,-0.0001,0.1469,0.6822,0.0014,0.3829
119903,-108.6134,27.6724,-0.0114,0.0399,105.7235,-0.0185,-2.7356,9.646,-0.0001,0.1469,0.6822,0.0014,0.3829
119919,-108.6134,27.6724,-0.0114,0.0399,105.7235,-0.0185,-2.7356,9.646,-0.0001,0.1469,0.6822,0.0014,0.3829
119935,-108.6134,27.6724,-0.0114,0.0399,105.7235,-0.0185,-2.7356,9.646,-0.0001,0.1469,0.6822,0.0014,0.3829
119951,-108.6134,27.6724,-0.0114,0.0399,105.7235,-0.0185,-2.7356,9.646,-0.0001,0.1469,0.6822,0.0014,0.3829
119967,-108.6134,27.6724,-0.0114,0.0399,105.7235,-0.0185,-2.7356,9.646,-0.0001,0.1469,0.6822,0.0014,0.3829
119985,-108.8638,28.5581,-0.0114,0.0279,105.7062,-0.0075,-2.7383,9.7081,-0.0,-0.0301,0.6779,0.0012,0.5125
119999,-108.8638,28.5581,-0.0114,0.0279,105.7062,-0.0075,-2.7383,9.7081,-0.0,-0.0301,0.6779,0.0012,0.5125
120015,-108.8638,28.5581,-0.0114,0.0279,105.7062,-0.0075,-2.7383,9.7081,-0.0,-0.0301,0.6779,0.0012,0.5125
120031,-108.8638,28.5581,-0.0114,0.0279,105.7062,-0.0075,-2.7383,9.7081,-0.0,-0.0301,0.6779,0.0012,0.5125
120047,-108.8638,28.5581,-0.0114,0.0279,105.7062,-0.0075,-2.7383,9.7081,-0.0,-0.0301,0.6779,0.0012,0.5125
120063,-108.8638,28.5581,-0.0114,0.0279,105.7062,-0.0075,-2.7383,9.7081,-0.0,-0.0301,0.6779,0.0012,0.5125
120079,-109.1207,29.4702,-0.0113,0.0202,105.7013,-0.0028,-2.7458,9.7572,0.0,-0.0802,0.5241,0.0005,0.6263
120095,-109.1207,29.4702,-0.0113,0.0202,105.7013,-0.0028,-2.7458,9.7572,0.0,-0.0802,0.5241,0.0005,0.6263
120111,-109.1207,29.4702,-0.0113,0.0202,105.7013,-0.0028,-2.7458,9.7572,0.0,-0.0802,0.5241,0.0005,0.6263
120127,-109.1207,29.4702,-0.0113,0.0202,105.7013,-0.0028,-2.7458,9.7572,0.0,-0.0802,0.5241,0.0005,0.6263
120143,-109.1207,29.4702,-0.0113,0.0202,105.7013,-0.0028,-2.7458,9.7572,0.0,-0.0802,0.5241,0.0005,0.6263
120161,-109.3659,30.342,-0.0113,0.0149,105.6926,-0.0011,-2.7526,9.7894,0.0,-0.0752,0.361,0.0001,-0.7825
120175,-109.3659,30.342,-0.0113,0.0149,105.6926,-0.0011,-2.7526,9.7894,0.0,-0.0752,0.361,0.0001,-0.7825
120191,-109.3659,30.342,-0.0113,0.0149,105.6926,-0.0011,-2.7526,9.7894,0.0,-0.0752,0.361,0.0001,-0.7825
120207,-109.3659,30.342,-0.0113,0.0149,105.6926,-0.0011,-2.7526,9.7894,0.0,-0.0752,0.361,0.0001,-0.7825
120223,-109.3659,30.342,-0.0113,0.0149,105.6926,-0.0011,-2.7526,9.7894,0.0,-0.0752,0.361,0.0001,-0.7825
120239,-109.3659,30.342,-0.0113,0.0149,105.6926,-0.0011,-2.7526,9.7894,0.0,-0.0752,0.361,0.0001,-0.7825
120257,-109.615,31.2278,-0.0113,0.0128,105.6928,-0.0004,-2.767,9.8447,0.0,-0.16,0.6133,-0.0001,-0.5575
120271,-109.615,31.2278,-0.0113,0.0128,105.6928,-0.0004,-2.767,9.8447,0.0,-0.16,0.6133,-0.0001,-0.5575
120287,-109.615,31.2278,-0.0113,0.0128,105.6928,-0.0004,-2.767,9.8447,0.0,-0.16,0.6133,-0.0001,-0.5575
120303,-109.615,31.2278,-0.0113,0.0128,105.6928,-0.0004,-2.767,9.8447,0.0,-0.16,0.6133,-0.0001,-0.5575
120319,-109.615,31.2278,-0.0113,0.0128,105.6928,-0.0004,-2.767,9.8447,0.0,-0.16,0.6133,-0.0001,-0.5575
120335,-109.615,31.2278,-0.0113,0.0128,105.6928,-0.0004,-2.767,9.8447,0.0,-0.16,0.6133,-0.0001,-0.5575
120353,-109.8913,32.2113,-0.0112,0.0104,105.692,-0.0001,-2.7757,9.8769,0.0,-0.0872,0.3228,0.0002,-0.7732
120367,-109.8913,32.2113,-0.0112,0.0104,105.692,-0.0001,-2.7757,9.8769,0.0,-0.0872,0.3228,0.0002,-0.7732
120383,-109.8913,32.2113,-0.0112,0.0104,105.692,-0.0001,-2.7757,9.8769,0.0,-0.0872,0.3228,0.0002,-0.7732
120399,-109.8913,32.2113,-0.0112,0.0104,105.692,-0.0001,-2.7757,9.8769,0.0,-0.0872,0.3228,0.0002,-0.7732
120415,-109.8913,32.2113,-0.0112,0.0104,105.692,-0.0001,-2.7757,9.8769,0.0,-0.0872,0.3228,0.0002,-0.7732
120431,-109.8913,32.2113,-0.0112,0.0104,105.692,-0.0001,-2.7757,9.8769,0.0,-0.0872,0.3228,0.0002,-0.7732
120447,-110.148,33.1247,-0.0112,0.0097,105.6926,-0.0,-2.7897,9.9272,0.0,-0.1514,0.5462,-0.0002,-0.5897
120463,-110.148,33.1247,-0.0112,0.0097,105.6926,-0.0,-2.7897,9.9272,0.0,-0.1514,0.5462,-0.0002,-0.5897
120479,-110.148,33.1247,-0.0112,0.0097,105.6926,-0.0,-2.7897,9.9272,0.0,-0.1514,0.5462,-0.0002,-0.5897
120495,-110.148,33.1247,-0.0112,0.0097,105.6926,-0.0,-2.7897,9.9272,0.0,-0.1514,0.5462,-0.0002,-0.5897
120511,-110.148,33.1247,-0.0112,0.0097,105.6926,-0.0,-2.7897,9.9272,0.0,-0.1514,0.5462,-0.0002,-0.5897
120527,-110.148,33.1247,-0.0112,0.0097,105.6926,-0.0,-2.7897,9.9272,0.0,-0.1514,0.5462,-0.0002,-0.5897
120543,-110.403,34.0321,-0.0112,0.0097,105.6928,-0.0,-2.8027,9.974,0.0,-0.1432,0.5124,-0.0,-0.555
120559,-110.403,34.0321,-0.0112,0.0097,105.6928,-0.0,-2.8027,9.974,0.0,-0.1432,0.5124,-0.0,-0.555
120575,-110.403,34.0321,-0.0112,0.0097,105.6928,-0.0,-2.8027,9.974,0.0,-0.1432,0.5124,-0.0,-0.555
120591,-110.403,34.0321,-0.0112,0.0097,105.6928,-0.0,-2.8027,9.974,0.0,-0.1432,0.5124,-0.0,-0.555
120607,-110.403,34.0321,-0.0112,0.0097,105.6928,-0.0,-2.8027,9.974,0.0,-0.1432,0.5124,-0.0,-0.555
120623,-110.403,34.0321,-0.0112,0.0097,105.6928,-0.0,-2.8027,9.974,0.0,-0.1432,0.5124,-0.0,-0.555
120639,-110.667,34.9715,-0.0112,0.0091,105.6926,0.0,-2.8135,10.0125,-0.0,-0.1152,0.4097,-0.0001,-0.6171
