timestamp,x,y,z,pitch,yaw,roll,vx,vy,vz,ax,ay,az,yaw_rate
64924,-106.6867,-4.8475,-0.0802,0.0,-89.3578,0.0,-0.0,-0.0,0.027,0.0,-0.0,7.5867,0.0
64940,-106.6867,-4.8475,-0.0802,0.0,-89.3578,0.0,-0.0,-0.0,0.027,0.0,-0.0,7.5867,0.0
64956,-106.6867,-4.8475,-0.0802,0.0,-89.3578,0.0,-0.0,-0.0,0.027,0.0,-0.0,7.5867,0.0
64972,-106.6867,-4.8475,-0.0802,0.0,-89.3578,0.0,-0.0,-0.0,0.027,0.0,-0.0,7.5867,0.0
64988,-106.6867,-4.8475,-0.0802,0.0,-89.3578,0.0,-0.0,-0.0,0.027,0.0,-0.0,7.5867,0.0
65004,-106.6867,-4.8475,-0.0802,0.0,-89.3578,0.0,-0.0,-0.0,0.027,0.0,-0.0,7.5867,0.0
65020,-106.6867,-4.8475,-0.0802,0.0,-89.3578,0.0,-0.0,-0.0,0.027,0.0,-0.0,7.5867,0.0
65036,-106.6867,-4.8475,-0.0802,0.0,-89.3578,0.0,-0.0,-0.0,0.027,0.0,-0.0,7.5867,0.0
65052,-106.6867,-4.8475,-0.0802,0.0,-89.3578,0.0,-0.0,-0.0,0.027,0.0,-0.0,7.5867,0.0
65068,-106.6867,-4.8475,-0.0802,0.0,-89.3578,0.0,-0.0,-0.0,0.027,0.0,-0.0,7.5867,0.0
65084,-106.6867,-4.8475,-0.0802,0.0,-89.3578,0.0,-0.0,-0.0,0.027,0.0,-0.0,7.5867,0.0
65100,-106.6867,-4.8475,-0.0802,0.0,-89.3578,0.0,-0.0,-0.0,0.027,0.0,-0.0,7.5867,0.0
65116,-106.6867,-4.8475,-0.0802,0.0,-89.3578,0.0,-0.0,-0.0,0.027,0.0,-0.0,7.5867,0.0
65132,-106.6867,-4.8475,-0.0802,0.0,-89.3578,0.0,-0.0,-0.0,0.027,0.0,-0.0,7.5867,0.0
65148,-106.6867,-4.8461,-0.0616,-0.0013,-89.3578,0.0,-0.0004,0.0366,0.2368,-0.0018,0.1628,0.9335,-0.0
65164,-106.6867,-4.8461,-0.0616,-0.0013,-89.3578,0.0,-0.0004,0.0366,0.2368,-0.0018,0.1628,0.9335,-0.0
65180,-106.6867,-4.8461,-0.0616,-0.0013,-89.3578,0.0,-0.0004,0.0366,0.2368,-0.0018,0.1628,0.9335,-0.0
65196,-106.6867,-4.8461,-0.0616,-0.0013,-89.3578,0.0,-0.0004,0.0366,0.2368,-0.0018,0.1628,0.9335,-0.0
65212,-106.6867,-4.8461,-0.0616,-0.0013,-89.3578,0.0,-0.0004,0.0366,0.2368,-0.0018,0.1628,0.9335,-0.0
65228,-106.6867,-4.8461,-0.0616,-0.0013,-89.3578,0.0,-0.0004,0.0366,0.2368,-0.0018,0.1628,0.9335,-0.0
65244,-106.6867,-4.8461,-0.0616,-0.0013,-89.3578,0.0,-0.0004,0.0366,0.2368,-0.0018,0.1628,0.9335,-0.0
65262,-106.6868,-4.8411,-0.0402,-0.0049,-89.3578,0.0,-0.001,0.0883,0.1826,-0.0056,0.4964,-0.5203,-0.0044
65276,-106.6868,-4.8411,-0.0402,-0.0049,-89.3578,0.0,-0.001,0.0883,0.1826,-0.0056,0.4964,-0.5203,-0.0044
65292,-106.6868,-4.8411,-0.0402,-0.0049,-89.3578,0.0,-0.001,0.0883,0.1826,-0.0056,0.4964,-0.5203,-0.0044
65308,-106.6868,-4.8411,-0.0402,-0.0049,-89.3578,0.0,-0.001,0.0883,0.1826,-0.0056,0.4964,-0.5203,-0.0044
65324,-106.6868,-4.8411,-0.0402,-0.0049,-89.3578,0.0,-0.001,0.0883,0.1826,-0.0056,0.4964,-0.5203,-0.0044
65340,-106.6868,-4.8411,-0.0402,-0.0049,-89.3578,0.0,-0.001,0.0883,0.1826,-0.0056,0.4964,-0.5203,-0.0044
65356,-106.6869,-4.8138,-0.0271,-0.0236,-89.3705,-0.0001,-0.0056,0.5079,0.1131,-0.0511,4.6317,-0.7665,0.3573
65372,-106.6869,-4.8138,-0.0271,-0.0236,-89.3705,-0.0001,-0.0056,0.5079,0.1131,-0.0511,4.6317,-0.7665,0.3573
65388,-106.6869,-4.8138,-0.0271,-0.0236,-89.3705,-0.0001,-0.0056,0.5079,0.1131,-0.0511,4.6317,-0.7665,0.3573
65404,-106.6869,-4.8138,-0.0271,-0.0236,-89.3705,-0.0001,-0.0056,0.5079,0.1131,-0.0511,4.6317,-0.7665,0.3573
65420,-106.6869,-4.8138,-0.0271,-0.0236,-89.3705,-0.0001,-0.0056,0.5079,0.1131,-0.0511,4.6317,-0.7665,0.3573
65437,-106.6877,-4.7451,-0.0195,-0.0481,-89.3656,0.0,-0.0107,0.9613,0.0643,-0.0576,5.1292,-0.5524,-0.0028
65452,-106.6877,-4.7451,-0.0195,-0.0481,-89.3656,0.0,-0.0107,0.9613,0.0643,-0.0576,5.1292,-0.5524,-0.0028
65468,-106.6877,-4.7451,-0.0195,-0.0481,-89.3656,0.0,-0.0107,0.9613,0.0643,-0.0576,5.1292,-0.5524,-0.0028
65484,-106.6877,-4.7451,-0.0195,-0.0481,-89.3656,0.0,-0.0107,0.9613,0.0643,-0.0576,5.1292,-0.5524,-0.0028
65500,-106.6877,-4.7451,-0.0195,-0.0481,-89.3656,0.0,-0.0107,0.9613,0.0643,-0.0576,5.1292,-0.5524,-0.0028
65516,-106.6877,-4.7451,-0.0195,-0.0481,-89.3656,0.0,-0.0107,0.9613,0.0643,-0.0576,5.1292,-0.5524,-0.0028
65534,-106.6888,-4.6502,-0.0149,-0.0454,-89.373,0.0004,-0.0137,1.1164,0.0389,-0.0316,1.6626,-0.2726,-5.0737
65548,-106.6888,-4.6502,-0.0149,-0.0454,-89.373,0.0004,-0.0137,1.1164,0.0389,-0.0316,1.6626,-0.2726,-5.0737
65564,-106.6888,-4.6502,-0.0149,-0.0454,-89.373,0.0004,-0.0137,1.1164,0.0389,-0.0316,1.6626,-0.2726,-5.0737
65580,-106.6888,-4.6502,-0.0149,-0.0454,-89.373,0.0004,-0.0137,1.1164,0.0389,-0.0316,1.6626,-0.2726,-5.0737
65596,-106.6888,-4.6502,-0.0149,-0.0454,-89.373,0.0004,-0.0137,1.1164,0.0389,-0.0316,1.6626,-0.2726,-5.0737
65612,-106.6888,-4.6502,-0.0149,-0.0454,-89.373,0.0004,-0.0137,1.1164,0.0389,-0.0316,1.6626,-0.2726,-5.0737
65630,-106.69,-4.5334,-0.0126,-0.0413,-89.3381,-0.001,-0.007,1.2152,0.0156,0.0707,1.0454,-0.2458,-3.3793
65644,-106.69,-4.5334,-0.0126,-0.0413,-89.3381,-0.001,-0.007,1.2152,0.0156,0.0707,1.0454,-0.2458,-3.3793
65660,-106.69,-4.5334,-0.0126,-0.0413,-89.3381,-0.001,-0.007,1.2152,0.0156,0.0707,1.0454,-0.2458,-3.3793
65676,-106.69,-4.5334,-0.0126,-0.0413,-89.3381,-0.001,-0.007,1.2152,0.0156,0.0707,1.0454,-0.2458,-3.3793
65692,-106.69,-4.5334,-0.0126,-0.0413,-89.3381,-0.001,-0.007,1.2152,0.0156,0.0707,1.0454,-0.2458,-3.3793
65708,-106.6901,-4.4177,-0.0118,-0.031,-89.4185,-0.001,-0.0081,1.4511,0.007,-0.0123,2.6125,-0.0953,-5.2615
65724,-106.6901,-4.4177,-0.0118,-0.031,-89.4185,-0.001,-0.0081,1.4511,0.007,-0.0123,2.6125,-0.0953,-5.2615
65740,-106.6901,-4.4177,-0.0118,-0.031,-89.4185,-0.001,-0.0081,1.4511,0.007,-0.0123,2.6125,-0.0953,-5.2615
65756,-106.6901,-4.4177,-0.0118,-0.031,-89.4185,-0.001,-0.0081,1.4511,0.007,-0.0123,2.6125,-0.0953,-5.2615
65772,-106.6901,-4.4177,-0.0118,-0.031,-89.4185,-0.001,-0.0081,1.4511,0.007,-0.0123,2.6125,-0.0953,-5.2615
65788,-106.6901,-4.4177,-0.0118,-0.031,-89.4185,-0.001,-0.0081,1.4511,0.007,-0.0123,2.6125,-0.0953,-5.2615
65804,-106.6923,-4.2616,-0.0112,-0.0457,-89.3632,-0.0003,-0.0144,1.8269,0.0032,-0.0669,3.961,-0.0402,0.3891
65820,-106.6923,-4.2616,-0.0112,-0.0457,-89.3632,-0.0003,-0.0144,1.8269,0.0032,-0.0669,3.961,-0.0402,0.3891
65836,-106.6923,-4.2616,-0.0112,-0.0457,-89.3632,-0.0003,-0.0144,1.8269,0.0032,-0.0669,3.961,-0.0402,0.3891
65852,-106.6923,-4.2616,-0.0112,-0.0457,-89.3632,-0.0003,-0.0144,1.8269,0.0032,-0.0669,3.961,-0.0402,0.3891
65868,-106.6923,-4.2616,-0.0112,-0.0457,-89.3632,-0.0003,-0.0144,1.8269,0.0032,-0.0669,3.961,-0.0402,0.3891
65884,-106.6923,-4.2616,-0.0112,-0.0457,-89.3632,-0.0003,-0.0144,1.8269,0.0032,-0.0669,3.961,-0.0402,0.3891
65902,-106.6947,-4.0759,-0.0109,-0.0577,-89.35,0.0011,-0.0287,2.2611,0.0016,-0.1593,4.8423,-0.018,0.495
65916,-106.6947,-4.0759,-0.0109,-0.0577,-89.35,0.0011,-0.0287,2.2611,0.0016,-0.1593,4.8423,-0.018,0.495
65932,-106.6947,-4.0759,-0.0109,-0.0577,-89.35,0.0011,-0.0287,2.2611,0.0016,-0.1593,4.8423,-0.018,0.495
65948,-106.6947,-4.0759,-0.0109,-0.0577,-89.35,0.0011,-0.0287,2.2611,0.0016,-0.1593,4.8423,-0.018,0.495
65964,-106.6947,-4.0759,-0.0109,-0.0577,-89.35,0.0011,-0.0287,2.2611,0.0016,-0.1593,4.8423,-0.018,0.495
65981,-106.6947,-4.0759,-0.0109,-0.0577,-89.35,0.0011,-0.0287,2.2611,0.0016,-0.1593,4.8423,-0.018,0.495
65996,-106.6967,-3.8501,-0.0107,-0.0719,-89.4155,-0.0003,-0.028,2.8374,0.0008,0.0078,6.3585,-0.0089,-1.0501
66012,-106.6967,-3.8501,-0.0107,-0.0719,-89.4155,-0.0003,-0.028,2.8374,0.0008,0.0078,6.3585,-0.0089,-1.0501
66028,-106.6967,-3.8501,-0.0107,-0.0719,-89.4155,-0.0003,-0.028,2.8374,0.0008,0.0078,6.3585,-0.0089,-1.0501
66044,-106.6967,-3.8501,-0.0107,-0.0719,-89.4155,-0.0003,-0.028,2.8374,0.0008,0.0078,6.3585,-0.0089,-1.0501
66060,-106.6967,-3.8501,-0.0107,-0.0719,-89.4155,-0.0003,-0.028,2.8374,0.0008,0.0078,6.3585,-0.0089,-1.0501
66078,-106.7005,-3.5702,-0.0106,-0.0832,-89.3434,0.0009,-0.0399,3.2596,0.0004,-0.1321,4.6914,-0.0042,-0.276
66092,-106.7005,-3.5702,-0.0106,-0.0832,-89.3434,0.0009,-0.0399,3.2596,0.0004,-0.1321,4.6914,-0.0042,-0.276
66108,-106.7005,-3.5702,-0.0106,-0.0832,-89.3434,0.0009,-0.0399,3.2596,0.0004,-0.1321,4.6914,-0.0042,-0.276
66124,-106.7005,-3.5702,-0.0106,-0.0832,-89.3434,0.0009,-0.0399,3.2596,0.0004,-0.1321,4.6914,-0.0042,-0.276
66140,-106.7005,-3.5702,-0.0106,-0.0832,-89.3434,0.0009,-0.0399,3.2596,0.0004,-0.1321,4.6914,-0.0042,-0.276
66156,-106.7005,-3.5702,-0.0106,-0.0832,-89.3434,0.0009,-0.0399,3.2596,0.0004,-0.1321,4.6914,-0.0042,-0.276
66173,-106.7053,-3.2603,-0.0106,-0.0779,-89.2274,0.0017,-0.0488,3.5894,0.0002,-0.0996,3.6995,-0.002,1.9001
66188,-106.7053,-3.2603,-0.0106,-0.0779,-89.2274,0.0017,-0.0488,3.5894,0.0002,-0.0996,3.6995,-0.002,1.9001
66204,-106.7053,-3.2603,-0.0106,-0.0779,-89.2274,0.0017,-0.0488,3.5894,0.0002,-0.0996,3.6995,-0.002,1.9001
66220,-106.7053,-3.2603,-0.0106,-0.0779,-89.2274,0.0017,-0.0488,3.5894,0.0002,-0.0996,3.6995,-0.002,1.9001
66236,-106.7053,-3.2603,-0.0106,-0.0779,-89.2274,0.0017,-0.0488,3.5894,0.0002,-0.0996,3.6995,-0.002,1.9001
66252,-106.7109,-2.9025,-0.0106,-0.0831,-89.1543,0.002,-0.0597,4.223,0.0001,-0.1215,7.0784,-0.0013,1.8248
66268,-106.7109,-2.9025,-0.0106,-0.0831,-89.1543,0.002,-0.0597,4.223,0.0001,-0.1215,7.0784,-0.0013,1.8248
66284,-106.7109,-2.9025,-0.0106,-0.0831,-89.1543,0.002,-0.0597,4.223,0.0001,-0.1215,7.0784,-0.0013,1.8248
66300,-106.7109,-2.9025,-0.0106,-0.0831,-89.1543,0.002,-0.0597,4.223,0.0001,-0.1215,7.0784,-0.0013,1.8248
66316,-106.7109,-2.9025,-0.0106,-0.0831,-89.1543,0.002,-0.0597,4.223,0.0001,-0.1215,7.0784,-0.0013,1.8248
66332,-106.7109,-2.9025,-0.0106,-0.0831,-89.1543,0.002,-0.0597,4.223,0.0001,-0.1215,7.0784,-0.0013,1.8248
66350,-106.7163,-2.5006,-0.0105,-0.0857,-89.1963,0.0011,-0.0676,4.7423,0.0,-0.0878,5.7483,-0.0008,-2.035
66364,-106.7163,-2.5006,-0.0105,-0.0857,-89.1963,0.0011,-0.0676,4.7423,0.0,-0.0878,5.7483,-0.0008,-2.035
66380,-106.7163,-2.5006,-0.0105,-0.0857,-89.1963,0.0011,-0.0676,4.7423,0.0,-0.0878,5.7483,-0.0008,-2.035
66396,-106.7163,-2.5006,-0.0105,-0.0857,-89.1963,0.0011,-0.0676,4.7423,0.0,-0.0878,5.7483,-0.0008,-2.035
66412,-106.7163,-2.5006,-0.0105,-0.0857,-89.1963,0.0011,-0.0676,4.7423,0.0,-0.0878,5.7483,-0.0008,-2.035
66428,-106.7163,-2.5006,-0.0105,-0.0857,-89.1963,0.0011,-0.0676,4.7423,0.0,-0.0878,5.7483,-0.0008,-2.035
66444,-106.7227,-2.0436,-0.0105,-0.0944,-89.1946,0.0004,-0.0739,5.3547,0.0,-0.0695,6.7463,-0.0002,1.6
66460,-106.7227,-2.0436,-0.0105,-0.0944,-89.1946,0.0004,-0.0739,5.3547,0.0,-0.0695,6.7463,-0.0002,1.6
66476,-106.7227,-2.0436,-0.0105,-0.0944,-89.1946,0.0004,-0.0739,5.3547,0.0,-0.0695,6.7463,-0.0002,1.6
66492,-106.7227,-2.0436,-0.0105,-0.0944,-89.1946,0.0004,-0.0739,5.3547,0.0,-0.0695,6.7463,-0.0002,1.6
66508,-106.7227,-2.0436,-0.0105,-0.0944,-89.1946,0.0004,-0.0739,5.3547,0.0,-0.0695,6.7463,-0.0002,1.6
66524,-106.7227,-2.0436,-0.0105,-0.0944,-89.1946,0.0004,-0.0739,5.3547,0.0,-0.0695,6.7463,-0.0002,1.6
66540,-106.7299,-1.5201,-0.0104,-0.1035,-89.2113,0.0002,-0.0841,6.0136,0.0,-0.1109,7.1463,-0.0001,-1.4392
66556,-106.7299,-1.5201,-0.0104,-0.1035,-89.2113,0.0002,-0.0841,6.0136,0.0,-0.1109,7.1463,-0.0001,-1.4392
66572,-106.7299,-1.5201,-0.0104,-0.1035,-89.2113,0.0002,-0.0841,6.0136,0.0,-0.1109,7.1463,-0.0001,-1.4392
66588,-106.7299,-1.5201,-0.0104,-0.1035,-89.2113,0.0002,-0.0841,6.0136,0.0,-0.1109,7.1463,-0.0001,-1.4392
66604,-106.7299,-1.5201,-0.0104,-0.1035,-89.2113,0.0002,-0.0841,6.0136,0.0,-0.1109,7.1463,-0.0001,-1.4392
66622,-106.738,-0.9351,-0.0103,-0.1128,-89.2028,0.0001,-0.0929,6.7266,0.0,-0.0957,7.7683,-0.0,1.0081
66636,-106.738,-0.9351,-0.0103,-0.1128,-89.2028,0.0001,-0.0929,6.7266,0.0,-0.0957,7.7683,-0.0,1.0081
66652,-106.738,-0.9351,-0.0103,-0.1128,-89.2028,0.0001,-0.0929,6.7266,0.0,-0.0957,7.7683,-0.0,1.0081
66668,-106.738,-0.9351,-0.0103,-0.1128,-89.2028,0.0001,-0.0929,6.7266,0.0,-0.0957,7.7683,-0.0,1.0081
66684,-106.738,-0.9351,-0.0103,-0.1128,-89.2028,0.0001,-0.0929,6.7266,0.0,-0.0957,7.7683,-0.0,1.0081
66700,-106.738,-0.9351,-0.0103,-0.1128,-89.2028,0.0001,-0.0929,6.7266,0.0,-0.0957,7.7683,-0.0,1.0081
66718,-106.7472,-0.2711,-0.0103,-0.116,-89.2084,0.0,-0.1027,7.3866,-0.0,-0.1037,7.0223,-0.0004,-0.876
66732,-106.7472,-0.2711,-0.0103,-0.116,-89.2084,0.0,-0.1027,7.3866,-0.0,-0.1037,7.0223,-0.0004,-0.876
66748,-106.7472,-0.2711,-0.0103,-0.116,-89.2084,0.0,-0.1027,7.3866,-0.0,-0.1037,7.0223,-0.0004,-0.876
66764,-106.7472,-0.2711,-0.0103,-0.116,-89.2084,0.0,-0.1027,7.3866,-0.0,-0.1037,7.0223,-0.0004,-0.876
66780,-106.7472,-0.2711,-0.0103,-0.116,-89.2084,0.0,-0.1027,7.3866,-0.0,-0.1037,7.0223,-0.0004,-0.876
66796,-106.7472,-0.2711,-0.0103,-0.116,-89.2084,0.0,-0.1027,7.3866,-0.0,-0.1037,7.0223,-0.0004,-0.876
66814,-106.7575,0.4722,-0.0103,-0.1126,-89.2048,0.0,-0.1105,7.9942,0.0,-0.0809,6.2927,0.0002,0.7906
66828,-106.7575,0.4722,-0.0103,-0.1126,-89.2048,0.0,-0.1105,7.9942,0.0,-0.0809,6.2927,0.0002,0.7906
66844,-106.7575,0.4722,-0.0103,-0.1126,-89.2048,0.0,-0.1105,7.9942,0.0,-0.0809,6.2927,0.0002,0.7906
66860,-106.7575,0.4722,-0.0103,-0.1126,-89.2048,0.0,-0.1105,7.9942,0.0,-0.0809,6.2927,0.0002,0.7906
66876,-106.7575,0.4722,-0.0103,-0.1126,-89.2048,0.0,-0.1105,7.9942,0.0,-0.0809,6.2927,0.0002,0.7906
66892,-106.7575,0.4722,-0.0103,-0.1126,-89.2048,0.0,-0.1105,7.9942,0.0,-0.0809,6.2927,0.0002,0.7906
66909,-106.7678,1.214,-0.0104,-0.1054,-89.2021,0.0,-0.1171,8.4493,-0.0,-0.074,5.0618,-0.0001,0.3122
66924,-106.7678,1.214,-0.0104,-0.1054,-89.2021,0.0,-0.1171,8.4493,-0.0,-0.074,5.0618,-0.0001,0.3122
66940,-106.7678,1.214,-0.0104,-0.1054,-89.2021,0.0,-0.1171,8.4493,-0.0,-0.074,5.0618,-0.0001,0.3122
66956,-106.7678,1.214,-0.0104,-0.1054,-89.2021,0.0,-0.1171,8.4493,-0.0,-0.074,5.0618,-0.0001,0.3122
66972,-106.7678,1.214,-0.0104,-0.1054,-89.2021,0.0,-0.1171,8.4493,-0.0,-0.074,5.0618,-0.0001,0.3122
66988,-106.7678,1.214,-0.0104,-0.1054,-89.2021,0.0,-0.1171,8.4493,-0.0,-0.074,5.0618,-0.0001,0.3122
67004,-106.7791,2.0343,-0.0104,-0.1054,-89.207,0.0,-0.1259,9.0969,0.0,-0.0946,6.9607,0.0002,-0.0027
67020,-106.7791,2.0343,-0.0104,-0.1054,-89.207,0.0,-0.1259,9.0969,0.0,-0.0946,6.9607,0.0002,-0.0027
67036,-106.7791,2.0343,-0.0104,-0.1054,-89.207,0.0,-0.1259,9.0969,0.0,-0.0946,6.9607,0.0002,-0.0027
67052,-106.7791,2.0343,-0.0104,-0.1054,-89.207,0.0,-0.1259,9.0969,0.0,-0.0946,6.9607,0.0002,-0.0027
67068,-106.7791,2.0343,-0.0104,-0.1054,-89.207,0.0,-0.1259,9.0969,0.0,-0.0946,6.9607,0.0002,-0.0027
67084,-106.7911,2.8976,-0.0104,-0.1052,-89.2071,0.0,-0.1337,9.6581,0.0,-0.0845,6.1249,-0.0001,-0.001
67100,-106.7911,2.8976,-0.0104,-0.1052,-89.2071,0.0,-0.1337,9.6581,0.0,-0.0845,6.1249,-0.0001,-0.001
67116,-106.7911,2.8976,-0.0104,-0.1052,-89.2071,0.0,-0.1337,9.6581,0.0,-0.0845,6.1249,-0.0001,-0.001
67132,-106.7911,2.8976,-0.0104,-0.1052,-89.2071,0.0,-0.1337,9.6581,0.0,-0.0845,6.1249,-0.0001,-0.001
67148,-106.7911,2.8976,-0.0104,-0.1052,-89.2071,0.0,-0.1337,9.6581,0.0,-0.0845,6.1249,-0.0001,-0.001
67164,-106.7911,2.8976,-0.0104,-0.1052,-89.2071,0.0,-0.1337,9.6581,0.0,-0.0845,6.1249,-0.0001,-0.001
67182,-106.8037,3.8082,-0.0104,-0.0992,-89.2072,0.0,-0.1403,10.1347,0.0,-0.0718,5.1989,-0.0,-0.0006
67196,-106.8037,3.8082,-0.0104,-0.0992,-89.2072,0.0,-0.1403,10.1347,0.0,-0.0718,5.1989,-0.0,-0.0006
67212,-106.8037,3.8082,-0.0104,-0.0992,-89.2072,0.0,-0.1403,10.1347,0.0,-0.0718,5.1989,-0.0,-0.0006
67228,-106.8037,3.8082,-0.0104,-0.0992,-89.2072,0.0,-0.1403,10.1347,0.0,-0.0718,5.1989,-0.0,-0.0006
67244,-106.8037,3.8082,-0.0104,-0.0992,-89.2072,0.0,-0.1403,10.1347,0.0,-0.0718,5.1989,-0.0,-0.0006
67260,-106.8037,3.8082,-0.0104,-0.0992,-89.2072,0.0,-0.1403,10.1347,0.0,-0.0718,5.1989,-0.0,-0.0006
67276,-106.8167,4.7457,-0.0105,-0.0917,-89.2072,0.0,-0.1462,10.5648,0.0,-0.0658,4.7608,-0.0,-0.0005
67292,-106.8167,4.7457,-0.0105,-0.0917,-89.2072,0.0,-0.1462,10.5648,0.0,-0.0658,4.7608,-0.0,-0.0005
67308,-106.8167,4.7457,-0.0105,-0.0917,-89.2072,0.0,-0.1462,10.5648,0.0,-0.0658,4.7608,-0.0,-0.0005
67324,-106.8167,4.7457,-0.0105,-0.0917,-89.2072,0.0,-0.1462,10.5648,0.0,-0.0658,4.7608,-0.0,-0.0005
67340,-106.8167,4.7457,-0.0105,-0.0917,-89.2072,0.0,-0.1462,10.5648,0.0,-0.0658,4.7608,-0.0,-0.0005
67356,-106.8167,4.7457,-0.0105,-0.0917,-89.2072,0.0,-0.1462,10.5648,0.0,-0.0658,4.7608,-0.0,-0.0005
67374,-106.8312,5.7989,-0.0105,-0.0831,-89.2072,0.0,-0.1517,10.965,-0.0,-0.0567,4.1026,-0.0,-0.001
67388,-106.8312,5.7989,-0.0105,-0.0831,-89.2072,0.0,-0.1517,10.965,-0.0,-0.0567,4.1026,-0.0,-0.001
67404,-106.8312,5.7989,-0.0105,-0.0831,-89.2072,0.0,-0.1517,10.965,-0.0,-0.0567,4.1026,-0.0,-0.001
67420,-106.8312,5.7989,-0.0105,-0.0831,-89.2072,0.0,-0.1517,10.965,-0.0,-0.0567,4.1026,-0.0,-0.001
67436,-106.8312,5.7989,-0.0105,-0.0831,-89.2072,0.0,-0.1517,10.965,-0.0,-0.0567,4.1026,-0.0,-0.001
67452,-106.845,6.7927,-0.0106,-0.0751,-89.2072,0.0,-0.1564,11.3036,0.0,-0.0526,3.8007,0.0001,0.0003
67468,-106.845,6.7927,-0.0106,-0.0751,-89.2072,0.0,-0.1564,11.3036,0.0,-0.0526,3.8007,0.0001,0.0003
67484,-106.845,6.7927,-0.0106,-0.0751,-89.2072,0.0,-0.1564,11.3036,0.0,-0.0526,3.8007,0.0001,0.0003
67500,-106.845,6.7927,-0.0106,-0.0751,-89.2072,0.0,-0.1564,11.3036,0.0,-0.0526,3.8007,0.0001,0.0003
67516,-106.845,6.7927,-0.0106,-0.0751,-89.2072,0.0,-0.1564,11.3036,0.0,-0.0526,3.8007,0.0001,0.0003
67532,-106.845,6.7927,-0.0106,-0.0751,-89.2072,0.0,-0.1564,11.3036,0.0,-0.0526,3.8007,0.0001,0.0003
67549,-106.859,7.8074,-0.0106,-0.0691,-89.2072,0.0,-0.1607,11.6125,0.0,-0.0483,3.4924,-0.0001,-0.0
67564,-106.859,7.8074,-0.0106,-0.0691,-89.2072,0.0,-0.1607,11.6125,0.0,-0.0483,3.4924,-0.0001,-0.0
67580,-106.859,7.8074,-0.0106,-0.0691,-89.2072,0.0,-0.1607,11.6125,0.0,-0.0483,3.4924,-0.0001,-0.0
67596,-106.859,7.8074,-0.0106,-0.0691,-89.2072,0.0,-0.1607,11.6125,0.0,-0.0483,3.4924,-0.0001,-0.0
67612,-106.859,7.8074,-0.0106,-0.0691,-89.2072,0.0,-0.1607,11.6125,0.0,-0.0483,3.4924,-0.0001,-0.0
67628,-106.859,7.8074,-0.0106,-0.0691,-89.2072,0.0,-0.1607,11.6125,0.0,-0.0483,3.4924,-0.0001,-0.0
67644,-106.8741,8.895,-0.0107,-0.0662,-89.2072,0.0,-0.1655,11.9607,-0.0,-0.0523,3.7799,-0.0,-0.0
67660,-106.8741,8.895,-0.0107,-0.0662,-89.2072,0.0,-0.1655,11.9607,-0.0,-0.0523,3.7799,-0.0,-0.0
67676,-106.8741,8.895,-0.0107,-0.0662,-89.2072,0.0,-0.1655,11.9607,-0.0,-0.0523,3.7799,-0.0,-0.0
67692,-106.8741,8.895,-0.0107,-0.0662,-89.2072,0.0,-0.1655,11.9607,-0.0,-0.0523,3.7799,-0.0,-0.0
67708,-106.8741,8.895,-0.0107,-0.0662,-89.2072,0.0,-0.1655,11.9607,-0.0,-0.0523,3.7799,-0.0,-0.0
67724,-106.8892,9.9898,-0.0107,-0.0635,-89.2072,0.0,-0.1699,12.2743,-0.0,-0.0481,3.4766,-0.0,-0.0
67740,-106.8892,9.9898,-0.0107,-0.0635,-89.2072,0.0,-0.1699,12.2743,-0.0,-0.0481,3.4766,-0.0,-0.0
67756,-106.8892,9.9898,-0.0107,-0.0635,-89.2072,0.0,-0.1699,12.2743,-0.0,-0.0481,3.4766,-0.0,-0.0
67772,-106.8892,9.9898,-0.0107,-0.0635,-89.2072,0.0,-0.1699,12.2743,-0.0,-0.0481,3.4766,-0.0,-0.0
67788,-106.8892,9.9898,-0.0107,-0.0635,-89.2072,0.0,-0.1699,12.2743,-0.0,-0.0481,3.4766,-0.0,-0.0
67804,-106.8892,9.9898,-0.0107,-0.0635,-89.2072,0.0,-0.1699,12.2743,-0.0,-0.0481,3.4766,-0.0,-0.0
67822,-106.9047,11.1097,-0.0107,-0.06,-89.2072,0.0,-0.1738,12.5595,0.0,-0.0438,3.1669,0.0001,-0.0
67836,-106.9047,11.1097,-0.0107,-0.06,-89.2072,0.0,-0.1738,12.5595,0.0,-0.0438,3.1669,0.0001,-0.0
67852,-106.9047,11.1097,-0.0107,-0.06,-89.2072,0.0,-0.1738,12.5595,0.0,-0.0438,3.1669,0.0001,-0.0
67868,-106.9047,11.1097,-0.0107,-0.06,-89.2072,0.0,-0.1738,12.5595,0.0,-0.0438,3.1669,0.0001,-0.0
67884,-106.9047,11.1097,-0.0107,-0.06,-89.2072,0.0,-0.1738,12.5595,0.0,-0.0438,3.1669,0.0001,-0.0
67900,-106.9047,11.1097,-0.0107,-0.06,-89.2072,0.0,-0.1738,12.5595,0.0,-0.0438,3.1669,0.0001,-0.0
67916,-106.9206,12.2551,-0.0107,-0.0553,-89.2072,0.0,-0.1771,12.7996,0.0,-0.0368,2.6614,0.0,-0.0
67948,-106.9206,12.2551,-0.0107,-0.0553,-89.2072,0.0,-0.1771,12.7996,0.0,-0.0368,2.6614,0.0,-0.0
67964,-106.9206,12.2551,-0.0107,-0.0553,-89.2072,0.0,-0.1771,12.7996,0.0,-0.0368,2.6614,0.0,-0.0
67980,-106.9206,12.2551,-0.0107,-0.0553,-89.2072,0.0,-0.1771,12.7996,0.0,-0.0368,2.6614,0.0,-0.0
67996,-106.9642,13.4743,-0.0108,-0.0396,-90.4595,0.1151,-0.9629,12.8096,0.0009,-8.2727,0.1056,0.0099,-28.7929
68012,-106.9642,13.4743,-0.0108,-0.0396,-90.4595,0.1151,-0.9629,12.8096,0.0009,-8.2727,0.1056,0.0099,-28.7929
68028,-106.9642,13.4743,-0.0108,-0.0396,-90.4595,0.1151,-0.9629,12.8096,0.0009,-8.2727,0.1056,0.0099,-28.7929
68044,-106.9642,13.4743,-0.0108,-0.0396,-90.4595,0.1151,-0.9629,12.8096,0.0009,-8.2727,0.1056,0.0099,-28.7929
68060,-106.9642,13.4743,-0.0108,-0.0396,-90.4595,0.1151,-0.9629,12.8096,0.0009,-8.2727,0.1056,0.0099,-28.7929
68076,-106.9642,13.4743,-0.0108,-0.0396,-90.4595,0.1151,-0.9629,12.8096,0.0009,-8.2727,0.1056,0.0099,-28.7929
68094,-107.0654,14.6464,-0.011,-0.0063,-95.3575,0.2491,-1.8618,12.5681,0.0012,-9.7165,-2.6114,0.0026,-74.6193
68108,-107.0654,14.6464,-0.011,-0.0063,-95.3575,0.2491,-1.8618,12.5681,0.0012,-9.7165,-2.6114,0.0026,-74.6193
68124,-107.0654,14.6464,-0.011,-0.0063,-95.3575,0.2491,-1.8618,12.5681,0.0012,-9.7165,-2.6114,0.0026,-74.6193
68140,-107.0654,14.6464,-0.011,-0.0063,-95.3575,0.2491,-1.8618,12.5681,0.0012,-9.7165,-2.6114,0.0026,-74.6193
68156,-107.0654,14.6464,-0.011,-0.0063,-95.3575,0.2491,-1.8618,12.5681,0.0012,-9.7165,-2.6114,0.0026,-74.6193
68172,-107.0654,14.6464,-0.011,-0.0063,-95.3575,0.2491,-1.8618,12.5681,0.0012,-9.7165,-2.6114,0.0026,-74.6193
68190,-107.1931,15.7443,-0.0111,0.0227,-104.548,0.2662,-2.3443,12.3045,0.0002,-5.4009,-2.9497,-0.011,-126.2764
68204,-107.1931,15.7443,-0.0111,0.0227,-104.548,0.2662,-2.3443,12.3045,0.0002,-5.4009,-2.9497,-0.011,-126.2764
68220,-107.1931,15.7443,-0.0111,0.0227,-104.548,0.2662,-2.3443,12.3045,0.0002,-5.4009,-2.9497,-0.011,-126.2764
68236,-107.1931,15.7443,-0.0111,0.0227,-104.548,0.2662,-2.3443,12.3045,0.0002,-5.4009,-2.9497,-0.011,-126.2764
68252,-107.1931,15.7443,-0.0111,0.0227,-104.548,0.2662,-2.3443,12.3045,0.0002,-5.4009,-2.9497,-0.011,-126.2764
68268,-107.3047,16.7932,-0.0111,0.0207,-118.3737,0.1622,-2.2058,12.1543,-0.0007,1.557,-1.6897,-0.0097,-178.6422
68284,-107.3047,16.7932,-0.0111,0.0207,-118.3737,0.1622,-2.2058,12.1543,-0.0007,1.557,-1.6897,-0.0097,-178.6422
68300,-107.3047,16.7932,-0.0111,0.0207,-118.3737,0.1622,-2.2058,12.1543,-0.0007,1.557,-1.6897,-0.0097,-178.6422
68316,-107.3047,16.7932,-0.0111,0.0207,-118.3737,0.1622,-2.2058,12.1543,-0.0007,1.557,-1.6897,-0.0097,-178.6422
68332,-107.3047,16.7932,-0.0111,0.0207,-118.3737,0.1622,-2.2058,12.1543,-0.0007,1.557,-1.6897,-0.0097,-178.6422
68348,-107.3047,16.7932,-0.0111,0.0207,-118.3737,0.1622,-2.2058,12.1543,-0.0007,1.557,-1.6897,-0.0097,-178.6422
68366,-107.3371,17.8634,-0.0107,-0.054,-137.0718,-0.08,-0.7332,12.1655,-0.0004,15.5317,0.1182,0.0026,-208.1451
68380,-107.3371,17.8634,-0.0107,-0.054,-137.0718,-0.08,-0.7332,12.1655,-0.0004,15.5317,0.1182,0.0026,-208.1451
68396,-107.3371,17.8634,-0.0107,-0.054,-137.0718,-0.08,-0.7332,12.1655,-0.0004,15.5317,0.1182,0.0026,-208.1451
68412,-107.3371,17.8634,-0.0107,-0.054,-137.0718,-0.08,-0.7332,12.1655,-0.0004,15.5317,0.1182,0.0026,-208.1451
68428,-107.3371,17.8634,-0.0107,-0.054,-137.0718,-0.08,-0.7332,12.1655,-0.0004,15.5317,0.1182,0.0026,-208.1451
68444,-107.3371,17.8634,-0.0107,-0.054,-137.0718,-0.08,-0.7332,12.1655,-0.0004,15.5317,0.1182,0.0026,-208.1451
68460,-107.2074,18.8942,-0.0097,-0.1742,-158.0405,-0.3471,1.5077,11.6531,0.0021,23.0486,-5.2702,0.0256,-220.5059
68476,-107.2074,18.8942,-0.0097,-0.1742,-158.0405,-0.3471,1.5077,11.6531,0.0021,23.0486,-5.2702,0.0256,-220.5059
68492,-107.2074,18.8942,-0.0097,-0.1742,-158.0405,-0.3471,1.5077,11.6531,0.0021,23.0486,-5.2702,0.0256,-220.5059
68508,-107.2074,18.8942,-0.0097,-0.1742,-158.0405,-0.3471,1.5077,11.6531,0.0021,23.0486,-5.2702,0.0256,-220.5059
68524,-107.2074,18.8942,-0.0097,-0.1742,-158.0405,-0.3471,1.5077,11.6531,0.0021,23.0486,-5.2702,0.0256,-220.5059
68557,-106.9331,19.7539,-0.0088,-0.2647,-178.6296,-0.5334,3.5755,10.4209,0.0018,22.6208,-13.4792,-0.003,-229.4439
68572,-106.9331,19.7539,-0.0088,-0.2647,-178.6296,-0.5334,3.5755,10.4209,0.0018,22.6208,-13.4792,-0.003,-229.4439
68588,-106.9331,19.7539,-0.0088,-0.2647,-178.6296,-0.5334,3.5755,10.4209,0.0018,22.6208,-13.4792,-0.003,-229.4439
68604,-106.9331,19.7539,-0.0088,-0.2647,-178.6296,-0.5334,3.5755,10.4209,0.0018,22.6208,-13.4792,-0.003,-229.4439
68620,-106.9331,19.7539,-0.0088,-0.2647,-178.6296,-0.5334,3.5755,10.4209,0.0018,22.6208,-13.4792,-0.003,-229.4439
68636,-106.9331,19.7539,-0.0088,-0.2647,-178.6296,-0.5334,3.5755,10.4209,0.0018,22.6208,-13.4792,-0.003,-229.4439
68653,-106.58,20.4361,-0.0084,-0.3006,160.597,-0.721,4.4812,8.2447,0.0019,10.0792,-24.2185,0.0013,-231.5408
68668,-106.58,20.4361,-0.0084,-0.3006,160.597,-0.721,4.4812,8.2447,0.0019,10.0792,-24.2185,0.0013,-231.5408
68684,-106.58,20.4361,-0.0084,-0.3006,160.597,-0.721,4.4812,8.2447,0.0019,10.0792,-24.2185,0.0013,-231.5408
68700,-106.58,20.4361,-0.0084,-0.3006,160.597,-0.721,4.4812,8.2447,0.0019,10.0792,-24.2185,0.0013,-231.5408
68716,-106.58,20.4361,-0.0084,-0.3006,160.597,-0.721,4.4812,8.2447,0.0019,10.0792,-24.2185,0.0013,-231.5408
68733,-106.3077,20.9634,-0.009,-0.2193,141.739,-0.8569,3.0137,6.8778,0.0043,-16.6392,-15.4984,0.0274,-195.5427
68748,-106.3077,20.9634,-0.009,-0.2193,141.739,-0.8569,3.0137,6.8778,0.0043,-16.6392,-15.4984,0.0274,-195.5427
68764,-106.3077,20.9634,-0.009,-0.2193,141.739,-0.8569,3.0137,6.8778,0.0043,-16.6392,-15.4984,0.0274,-195.5427
68780,-106.3077,20.9634,-0.009,-0.2193,141.739,-0.8569,3.0137,6.8778,0.0043,-16.6392,-15.4984,0.0274,-195.5427
68796,-106.3077,20.9634,-0.009,-0.2193,141.739,-0.8569,3.0137,6.8778,0.0043,-16.6392,-15.4984,0.0274,-195.5427
68812,-106.3077,20.9634,-0.009,-0.2193,141.739,-0.8569,3.0137,6.8778,0.0043,-16.6392,-15.4984,0.0274,-195.5427
68828,-106.2318,21.4573,-0.0099,-0.0631,126.7737,-0.9089,0.9171,6.8413,0.0008,-24.7656,-0.4319,-0.0413,-156.3969
68844,-106.2318,21.4573,-0.0099,-0.0631,126.7737,-0.9089,0.9171,6.8413,0.0008,-24.7656,-0.4319,-0.0413,-156.3969
68860,-106.2318,21.4573,-0.0099,-0.0631,126.7737,-0.9089,0.9171,6.8413,0.0008,-24.7656,-0.4319,-0.0413,-156.3969
68876,-106.2318,21.4573,-0.0099,-0.0631,126.7737,-0.9089,0.9171,6.8413,0.0008,-24.7656,-0.4319,-0.0413,-156.3969
68892,-106.2318,21.4573,-0.0099,-0.0631,126.7737,-0.9089,0.9171,6.8413,0.0008,-24.7656,-0.4319,-0.0413,-156.3969
68908,-106.3149,22.1016,-0.0112,0.0979,115.1308,-0.7797,-0.6736,7.845,-0.0011,-17.0775,10.7755,-0.0209,-103.5567
68924,-106.3149,22.1016,-0.0112,0.0979,115.1308,-0.7797,-0.6736,7.845,-0.0011,-17.0775,10.7755,-0.0209,-103.5567
68940,-106.3149,22.1016,-0.0112,0.0979,115.1308,-0.7797,-0.6736,7.845,-0.0011,-17.0775,10.7755,-0.0209,-103.5567
68956,-106.3149,22.1016,-0.0112,0.0979,115.1308,-0.7797,-0.6736,7.845,-0.0011,-17.0775,10.7755,-0.0209,-103.5567
68972,-106.3149,22.1016,-0.0112,0.0979,115.1308,-0.7797,-0.6736,7.845,-0.0011,-17.0775,10.7755,-0.0209,-103.5567
68989,-106.3149,22.1016,-0.0112,0.0979,115.1308,-0.7797,-0.6736,7.845,-0.0011,-17.0775,10.7755,-0.0209,-103.5567
69004,-106.4208,22.7756,-0.0118,0.1567,107.1073,-0.4573,-0.437,8.635,-0.0027,2.8355,9.4693,-0.0195,-93.5169
69020,-106.4208,22.7756,-0.0118,0.1567,107.1073,-0.4573,-0.437,8.635,-0.0027,2.8355,9.4693,-0.0195,-93.5169
69036,-106.4208,22.7756,-0.0118,0.1567,107.1073,-0.4573,-0.437,8.635,-0.0027,2.8355,9.4693,-0.0195,-93.5169
69068,-106.4208,22.7756,-0.0118,0.1567,107.1073,-0.4573,-0.437,8.635,-0.0027,2.8355,9.4693,-0.0195,-93.5169
69084,-106.5096,23.5415,-0.0121,0.1624,100.5857,-0.2634,-0.7493,9.1387,-0.0022,-3.6005,5.8065,0.0056,-54.0945
69100,-106.5096,23.5415,-0.0121,0.1624,100.5857,-0.2634,-0.7493,9.1387,-0.0022,-3.6005,5.8065,0.0056,-54.0945
69116,-106.5096,23.5415,-0.0121,0.1624,100.5857,-0.2634,-0.7493,9.1387,-0.0022,-3.6005,5.8065,0.0056,-54.0945
69132,-106.5096,23.5415,-0.0121,0.1624,100.5857,-0.2634,-0.7493,9.1387,-0.0022,-3.6005,5.8065,0.0056,-54.0945
69148,-106.5096,23.5415,-0.0121,0.1624,100.5857,-0.2634,-0.7493,9.1387,-0.0022,-3.6005,5.8065,0.0056,-54.0945
69164,-106.6217,24.3476,-0.0119,0.1284,98.0456,-0.2497,-1.212,9.2937,-0.0005,-5.2778,1.7682,0.0202,-14.7443
69180,-106.6217,24.3476,-0.0119,0.1284,98.0456,-0.2497,-1.212,9.2937,-0.0005,-5.2778,1.7682,0.0202,-14.7443
69196,-106.6217,24.3476,-0.0119,0.1284,98.0456,-0.2497,-1.212,9.2937,-0.0005,-5.2778,1.7682,0.0202,-14.7443
69212,-106.6217,24.3476,-0.0119,0.1284,98.0456,-0.2497,-1.212,9.2937,-0.0005,-5.2778,1.7682,0.0202,-14.7443
69228,-106.6217,24.3476,-0.0119,0.1284,98.0456,-0.2497,-1.212,9.2937,-0.0005,-5.2778,1.7682,0.0202,-14.7443
69244,-106.6217,24.3476,-0.0119,0.1284,98.0456,-0.2497,-1.212,9.2937,-0.0005,-5.2778,1.7682,0.0202,-14.7443
69262,-106.7388,25.1919,-0.0117,0.0902,97.2956,-0.1697,-1.2468,9.4261,-0.0006,-0.3853,1.4673,-0.0013,-3.6676
69276,-106.7388,25.1919,-0.0117,0.0902,97.2956,-0.1697,-1.2468,9.4261,-0.0006,-0.3853,1.4673,-0.0013,-3.6676
69292,-106.7388,25.1919,-0.0117,0.0902,97.2956,-0.1697,-1.2468,9.4261,-0.0006,-0.3853,1.4673,-0.0013,-3.6676
69308,-106.7388,25.1919,-0.0117,0.0902,97.2956,-0.1697,-1.2468,9.4261,-0.0006,-0.3853,1.4673,-0.0013,-3.6676
69324,-106.7388,25.1919,-0.0117,0.0902,97.2956,-0.1697,-1.2468,9.4261,-0.0006,-0.3853,1.4673,-0.0013,-3.6676
69340,-106.7388,25.1919,-0.0117,0.0902,97.2956,-0.1697,-1.2468,9.4261,-0.0006,-0.3853,1.4673,-0.0013,-3.6676
69356,-106.851,26.0474,-0.0115,0.0616,97.086,-0.0968,-1.2192,9.5216,-0.0006,0.3057,1.0586,0.0001,-0.562
69372,-106.851,26.0474,-0.0115,0.0616,97.086,-0.0968,-1.2192,9.5216,-0.0006,0.3057,1.0586,0.0001,-0.562
69388,-106.851,26.0474,-0.0115,0.0616,97.086,-0.0968,-1.2192,9.5216,-0.0006,0.3057,1.0586,0.0001,-0.562
69404,-106.851,26.0474,-0.0115,0.0616,97.086,-0.0968,-1.2192,9.5216,-0.0006,0.3057,1.0586,0.0001,-0.562
69420,-106.851,26.0474,-0.0115,0.0616,97.086,-0.0968,-1.2192,9.5216,-0.0006,0.3057,1.0586,0.0001,-0.562
69437,-106.851,26.0474,-0.0115,0.0616,97.086,-0.0968,-1.2192,9.5216,-0.0006,0.3057,1.0586,0.0001,-0.562
69452,-106.963,26.9333,-0.0114,0.0415,97.0255,-0.0515,-1.2008,9.5916,-0.0004,0.1988,0.7552,0.0023,0.3583
69468,-106.963,26.9333,-0.0114,0.0415,97.0255,-0.0515,-1.2008,9.5916,-0.0004,0.1988,0.7552,0.0023,0.3583
69484,-106.963,26.9333,-0.0114,0.0415,97.0255,-0.0515,-1.2008,9.5916,-0.0004,0.1988,0.7552,0.0023,0.3583
69500,-106.963,26.9333,-0.0114,0.0415,97.0255,-0.0515,-1.2008,9.5916,-0.0004,0.1988,0.7552,0.0023,0.3583
69516,-106.963,26.9333,-0.0114,0.0415,97.0255,-0.0515,-1.2008,9.5916,-0.0004,0.1988,0.7552,0.0023,0.3583
69534,-107.0724,27.8131,-0.0114,0.0292,97.0082,-0.0276,-1.1954,9.6556,-0.0001,0.0589,0.7002,0.0023,0.5675
69548,-107.0724,27.8131,-0.0114,0.0292,97.0082,-0.0276,-1.1954,9.6556,-0.0001,0.0589,0.7002,0.0023,0.5675
69564,-107.0724,27.8131,-0.0114,0.0292,97.0082,-0.0276,-1.1954,9.6556,-0.0001,0.0589,0.7002,0.0023,0.5675
69580,-107.0724,27.8131,-0.0114,0.0292,97.0082,-0.0276,-1.1954,9.6556,-0.0001,0.0589,0.7002,0.0023,0.5675
69596,-107.0724,27.8131,-0.0114,0.0292,97.0082,-0.0276,-1.1954,9.6556,-0.0001,0.0589,0.7002,0.0023,0.5675
69612,-107.0724,27.8131,-0.0114,0.0292,97.0082,-0.0276,-1.1954,9.6556,-0.0001,0.0589,0.7002,0.0023,0.5675
69630,-107.179,28.6751,-0.0111,0.0229,96.9743,-0.0215,-1.1918,9.7199,-0.0141,0.0407,0.721,-0.1562,0.3146
69644,-107.179,28.6751,-0.0111,0.0229,96.9743,-0.0215,-1.1918,9.7199,-0.0141,0.0407,0.721,-0.1562,0.3146
69660,-107.179,28.6751,-0.0111,0.0229,96.9743,-0.0215,-1.1918,9.7199,-0.0141,0.0407,0.721,-0.1562,0.3146
69676,-107.179,28.6751,-0.0111,0.0229,96.9743,-0.0215,-1.1918,9.7199,-0.0141,0.0407,0.721,-0.1562,0.3146
69692,-107.179,28.6751,-0.0111,0.0229,96.9743,-0.0215,-1.1918,9.7199,-0.0141,0.0407,0.721,-0.1562,0.3146
69708,-107.179,28.6751,-0.0111,0.0229,96.9743,-0.0215,-1.1918,9.7199,-0.0141,0.0407,0.721,-0.1562,0.3146
69724,-107.2874,29.5592,-0.0115,0.0068,96.9581,-0.034,-1.1942,9.7717,-0.0012,-0.027,0.5697,0.1417,-0.1131
69740,-107.2874,29.5592,-0.0115,0.0068,96.9581,-0.034,-1.1942,9.7717,-0.0012,-0.027,0.5697,0.1417,-0.1131
69756,-107.2874,29.5592,-0.0115,0.0068,96.9581,-0.034,-1.1942,9.7717,-0.0012,-0.027,0.5697,0.1417,-0.1131
69772,-107.2874,29.5592,-0.0115,0.0068,96.9581,-0.034,-1.1942,9.7717,-0.0012,-0.027,0.5697,0.1417,-0.1131
69788,-107.2874,29.5592,-0.0115,0.0068,96.9581,-0.034,-1.1942,9.7717,-0.0012,-0.027,0.5697,0.1417,-0.1131
69806,-107.4001,30.4828,-0.0115,0.0064,96.9519,-0.0211,-1.199,9.8189,0.0009,-0.0509,0.5001,0.0228,-0.0361
69820,-107.4001,30.4828,-0.0115,0.0064,96.9519,-0.0211,-1.199,9.8189,0.0009,-0.0509,0.5001,0.0228,-0.0361
69836,-107.4001,30.4828,-0.0115,0.0064,96.9519,-0.0211,-1.199,9.8189,0.0009,-0.0509,0.5001,0.0228,-0.0361
69852,-107.4001,30.4828,-0.0115,0.0064,96.9519,-0.0211,-1.199,9.8189,0.0009,-0.0509,0.5001,0.0228,-0.0361
69868,-107.4001,30.4828,-0.0115,0.0064,96.9519,-0.0211,-1.199,9.8189,0.0009,-0.0509,0.5001,0.0228,-0.0361
69884,-107.4001,30.4828,-0.0115,0.0064,96.9519,-0.0211,-1.199,9.8189,0.0009,-0.0509,0.5001,0.0228,-0.0361
69902,-107.5078,31.3649,-0.0111,-0.003,96.9573,-0.0068,-1.1997,9.8341,-0.0045,-0.0072,0.1698,-0.0605,-0.0443
69916,-107.5078,31.3649,-0.0111,-0.003,96.9573,-0.0068,-1.1997,9.8341,-0.0045,-0.0072,0.1698,-0.0605,-0.0443
69932,-107.5078,31.3649,-0.0111,-0.003,96.9573,-0.0068,-1.1997,9.8341,-0.0045,-0.0072,0.1698,-0.0605,-0.0443
69948,-107.5078,31.3649,-0.0111,-0.003,96.9573,-0.0068,-1.1997,9.8341,-0.0045,-0.0072,0.1698,-0.0605,-0.0443
69964,-107.5078,31.3649,-0.0111,-0.003,96.9573,-0.0068,-1.1997,9.8341,-0.0045,-0.0072,0.1698,-0.0605,-0.0443
69980,-107.5078,31.3649,-0.0111,-0.003,96.9573,-0.0068,-1.1997,9.8341,-0.0045,-0.0072,0.1698,-0.0605,-0.0443
69996,-107.6145,32.2396,-0.0113,0.0103,96.9557,-0.011,-1.2079,9.9028,-0.0003,-0.0932,0.7751,0.0469,-0.0091
70012,-107.6145,32.2396,-0.0113,0.0103,96.9557,-0.011,-1.2079,9.9028,-0.0003,-0.0932,0.7751,0.0469,-0.0091
70028,-107.6145,32.2396,-0.0113,0.0103,96.9557,-0.011,-1.2079,9.9028,-0.0003,-0.0932,0.7751,0.0469,-0.0091
70044,-107.6145,32.2396,-0.0113,0.0103,96.9557,-0.011,-1.2079,9.9028,-0.0003,-0.0932,0.7751,0.0469,-0.0091
70060,-107.6145,32.2396,-0.0113,0.0103,96.9557,-0.011,-1.2079,9.9028,-0.0003,-0.0932,0.7751,0.0469,-0.0091
70078,-107.725,33.145,-0.0113,0.0116,96.9552,-0.0072,-1.215,9.9581,0.0004,-0.0773,0.6065,0.0077,-0.0024
70092,-107.725,33.145,-0.0113,0.0116,96.9552,-0.0072,-1.215,9.9581,0.0004,-0.0773,0.6065,0.0077,-0.0024
70108,-107.725,33.145,-0.0113,0.0116,96.9552,-0.0072,-1.215,9.9581,0.0004,-0.0773,0.6065,0.0077,-0.0024
70124,-107.725,33.145,-0.0113,0.0116,96.9552,-0.0072,-1.215,9.9581,0.0004,-0.0773,0.6065,0.0077,-0.0024
70140,-107.725,33.145,-0.0113,0.0116,96.9552,-0.0072,-1.215,9.9581,0.0004,-0.0773,0.6065,0.0077,-0.0024
70156,-107.725,33.145,-0.0113,0.0116,96.9552,-0.0072,-1.215,9.9581,0.0004,-0.0773,0.6065,0.0077,-0.0024
70173,-107.841,34.0962,-0.0113,0.011,96.9551,-0.0042,-1.2209,10.0067,0.0003,-0.0623,0.5092,-0.0003,-0.0007
70188,-107.841,34.0962,-0.0113,0.011,96.9551,-0.0042,-1.2209,10.0067,0.0003,-0.0623,0.5092,-0.0003,-0.0007
70204,-107.841,34.0962,-0.0113,0.011,96.9551,-0.0042,-1.2209,10.0067,0.0003,-0.0623,0.5092,-0.0003,-0.0007
70220,-107.841,34.0962,-0.0113,0.011,96.9551,-0.0042,-1.2209,10.0067,0.0003,-0.0623,0.5092,-0.0003,-0.0007
70236,-107.841,34.0962,-0.0113,0.011,96.9551,-0.0042,-1.2209,10.0067,0.0003,-0.0623,0.5092,-0.0003,-0.0007
