timestamp,x,y,z,pitch,yaw,roll,vx,vy,vz,ax,ay,az,yaw_rate
53476,-106.6867,-4.8475,-0.0806,0.0,-89.3578,0.0,0.0,0.0,-0.0058,0.0,-0.0,8.3417,-0.0
53492,-106.6867,-4.8475,-0.0806,0.0,-89.3578,0.0,0.0,0.0,-0.0058,0.0,-0.0,8.3417,-0.0
53508,-106.6867,-4.8475,-0.0806,0.0,-89.3578,0.0,0.0,0.0,-0.0058,0.0,-0.0,8.3417,-0.0
53524,-106.6867,-4.8475,-0.0806,0.0,-89.3578,0.0,0.0,0.0,-0.0058,0.0,-0.0,8.3417,-0.0
53540,-106.6867,-4.8475,-0.0806,0.0,-89.3578,0.0,0.0,0.0,-0.0058,0.0,-0.0,8.3417,-0.0
53556,-106.6867,-4.8475,-0.0806,0.0,-89.3578,0.0,0.0,0.0,-0.0058,0.0,-0.0,8.3417,-0.0
53572,-106.6867,-4.8475,-0.0806,0.0,-89.3578,0.0,0.0,0.0,-0.0058,0.0,-0.0,8.3417,-0.0
53588,-106.6867,-4.8475,-0.0806,0.0,-89.3578,0.0,0.0,0.0,-0.0058,0.0,-0.0,8.3417,-0.0
53604,-106.6867,-4.8475,-0.0806,0.0,-89.3578,0.0,0.0,0.0,-0.0058,0.0,-0.0,8.3417,-0.0
53620,-106.6867,-4.8475,-0.0806,0.0,-89.3578,0.0,0.0,0.0,-0.0058,0.0,-0.0,8.3417,-0.0
53636,-106.6867,-4.8471,-0.0631,-0.0007,-89.3578,-0.0,-0.0003,0.0254,0.2368,-0.0016,0.1452,1.3883,-0.0
53652,-106.6867,-4.8471,-0.0631,-0.0007,-89.3578,-0.0,-0.0003,0.0254,0.2368,-0.0016,0.1452,1.3883,-0.0
53668,-106.6867,-4.8471,-0.0631,-0.0007,-89.3578,-0.0,-0.0003,0.0254,0.2368,-0.0016,0.1452,1.3883,-0.0
53684,-106.6867,-4.8471,-0.0631,-0.0007,-89.3578,-0.0,-0.0003,0.0254,0.2368,-0.0016,0.1452,1.3883,-0.0
53700,-106.6867,-4.8471,-0.0631,-0.0007,-89.3578,-0.0,-0.0003,0.0254,0.2368,-0.0016,0.1452,1.3883,-0.0
53716,-106.6867,-4.8471,-0.0631,-0.0007,-89.3578,-0.0,-0.0003,0.0254,0.2368,-0.0016,0.1452,1.3883,-0.0
53732,-106.6867,-4.8471,-0.0631,-0.0007,-89.3578,-0.0,-0.0003,0.0254,0.2368,-0.0016,0.1452,1.3883,-0.0
53748,-106.6867,-4.8471,-0.0631,-0.0007,-89.3578,-0.0,-0.0003,0.0254,0.2368,-0.0016,0.1452,1.3883,-0.0
53764,-106.6867,-4.8471,-0.0631,-0.0007,-89.3578,-0.0,-0.0003,0.0254,0.2368,-0.0016,0.1452,1.3883,-0.0
53782,-106.6868,-4.8425,-0.0413,-0.0045,-89.3575,0.0,-0.0014,0.1244,0.1877,-0.0079,0.6909,-0.3421,0.0061
53796,-106.6868,-4.8425,-0.0413,-0.0045,-89.3575,0.0,-0.0014,0.1244,0.1877,-0.0079,0.6909,-0.3421,0.0061
53812,-106.6868,-4.8425,-0.0413,-0.0045,-89.3575,0.0,-0.0014,0.1244,0.1877,-0.0079,0.6909,-0.3421,0.0061
53828,-106.6868,-4.8425,-0.0413,-0.0045,-89.3575,0.0,-0.0014,0.1244,0.1877,-0.0079,0.6909,-0.3421,0.0061
53844,-106.6868,-4.8425,-0.0413,-0.0045,-89.3575,0.0,-0.0014,0.1244,0.1877,-0.0079,0.6909,-0.3421,0.0061
53860,-106.6868,-4.8425,-0.0413,-0.0045,-89.3575,0.0,-0.0014,0.1244,0.1877,-0.0079,0.6909,-0.3421,0.0061
53878,-106.6871,-4.8097,-0.028,-0.0274,-89.3552,0.0,-0.0065,0.5599,0.1186,-0.0576,4.8998,-0.7773,0.0787
53892,-106.6871,-4.8097,-0.028,-0.0274,-89.3552,0.0,-0.0065,0.5599,0.1186,-0.0576,4.8998,-0.7773,0.0787
53908,-106.6871,-4.8097,-0.028,-0.0274,-89.3552,0.0,-0.0065,0.5599,0.1186,-0.0576,4.8998,-0.7773,0.0787
53924,-106.6871,-4.8097,-0.028,-0.0274,-89.3552,0.0,-0.0065,0.5599,0.1186,-0.0576,4.8998,-0.7773,0.0787
53940,-106.6871,-4.8097,-0.028,-0.0274,-89.3552,0.0,-0.0065,0.5599,0.1186,-0.0576,4.8998,-0.7773,0.0787
53956,-106.6871,-4.8097,-0.028,-0.0274,-89.3552,0.0,-0.0065,0.5599,0.1186,-0.0576,4.8998,-0.7773,0.0787
53972,-106.6881,-4.7302,-0.0194,-0.0497,-89.3542,0.0,-0.0114,1.0129,0.0641,-0.0504,4.6608,-0.5614,0.0012
53988,-106.6881,-4.7302,-0.0194,-0.0497,-89.3542,0.0,-0.0114,1.0129,0.0641,-0.0504,4.6608,-0.5614,0.0012
54004,-106.6881,-4.7302,-0.0194,-0.0497,-89.3542,0.0,-0.0114,1.0129,0.0641,-0.0504,4.6608,-0.5614,0.0012
54020,-106.6881,-4.7302,-0.0194,-0.0497,-89.3542,0.0,-0.0114,1.0129,0.0641,-0.0504,4.6608,-0.5614,0.0012
54036,-106.6881,-4.7302,-0.0194,-0.0497,-89.3542,0.0,-0.0114,1.0129,0.0641,-0.0504,4.6608,-0.5614,0.0012
54052,-106.6881,-4.7302,-0.0194,-0.0497,-89.3542,0.0,-0.0114,1.0129,0.0641,-0.0504,4.6608,-0.5614,0.0012
54070,-106.6892,-4.6314,-0.0148,-0.0396,-89.3473,0.0,-0.0123,1.0747,0.0262,-0.0087,0.6267,-0.3834,0.1022
54084,-106.6892,-4.6314,-0.0148,-0.0396,-89.3473,0.0,-0.0123,1.0747,0.0262,-0.0087,0.6267,-0.3834,0.1022
54100,-106.6892,-4.6314,-0.0148,-0.0396,-89.3473,0.0,-0.0123,1.0747,0.0262,-0.0087,0.6267,-0.3834,0.1022
54116,-106.6892,-4.6314,-0.0148,-0.0396,-89.3473,0.0,-0.0123,1.0747,0.0262,-0.0087,0.6267,-0.3834,0.1022
54132,-106.6892,-4.6314,-0.0148,-0.0396,-89.3473,0.0,-0.0123,1.0747,0.0262,-0.0087,0.6267,-0.3834,0.1022
54148,-106.6892,-4.6314,-0.0148,-0.0396,-89.3473,0.0,-0.0123,1.0747,0.0262,-0.0087,0.6267,-0.3834,0.1022
54165,-106.6899,-4.5194,-0.0126,-0.0335,-89.3244,-0.0012,-0.0066,1.1821,0.0148,0.0586,1.1075,-0.1178,-2.1391
54180,-106.6899,-4.5194,-0.0126,-0.0335,-89.3244,-0.0012,-0.0066,1.1821,0.0148,0.0586,1.1075,-0.1178,-2.1391
54196,-106.6899,-4.5194,-0.0126,-0.0335,-89.3244,-0.0012,-0.0066,1.1821,0.0148,0.0586,1.1075,-0.1178,-2.1391
54212,-106.6899,-4.5194,-0.0126,-0.0335,-89.3244,-0.0012,-0.0066,1.1821,0.0148,0.0586,1.1075,-0.1178,-2.1391
54228,-106.6899,-4.5194,-0.0126,-0.0335,-89.3244,-0.0012,-0.0066,1.1821,0.0148,0.0586,1.1075,-0.1178,-2.1391
54244,-106.6899,-4.5194,-0.0126,-0.0335,-89.3244,-0.0012,-0.0066,1.1821,0.0148,0.0586,1.1075,-0.1178,-2.1391
54262,-106.6902,-4.4054,-0.0117,-0.0205,-89.3622,-0.0006,-0.0071,1.1794,0.0062,-0.0049,-0.028,-0.0888,-2.3605
54276,-106.6902,-4.4054,-0.0117,-0.0205,-89.3622,-0.0006,-0.0071,1.1794,0.0062,-0.0049,-0.028,-0.0888,-2.3605
54292,-106.6902,-4.4054,-0.0117,-0.0205,-89.3622,-0.0006,-0.0071,1.1794,0.0062,-0.0049,-0.028,-0.0888,-2.3605
54308,-106.6902,-4.4054,-0.0117,-0.0205,-89.3622,-0.0006,-0.0071,1.1794,0.0062,-0.0049,-0.028,-0.0888,-2.3605
54324,-106.6902,-4.4054,-0.0117,-0.0205,-89.3622,-0.0006,-0.0071,1.1794,0.0062,-0.0049,-0.028,-0.0888,-2.3605
54340,-106.6902,-4.4054,-0.0117,-0.0205,-89.3622,-0.0006,-0.0071,1.1794,0.0062,-0.0049,-0.028,-0.0888,-2.3605
54357,-106.6904,-4.2699,-0.0112,-0.0401,-89.4349,-0.001,-0.009,1.7821,0.0028,-0.0206,6.4642,-0.0359,-2.7458
54372,-106.6904,-4.2699,-0.0112,-0.0401,-89.4349,-0.001,-0.009,1.7821,0.0028,-0.0206,6.4642,-0.0359,-2.7458
54388,-106.6904,-4.2699,-0.0112,-0.0401,-89.4349,-0.001,-0.009,1.7821,0.0028,-0.0206,6.4642,-0.0359,-2.7458
54404,-106.6904,-4.2699,-0.0112,-0.0401,-89.4349,-0.001,-0.009,1.7821,0.0028,-0.0206,6.4642,-0.0359,-2.7458
54420,-106.6904,-4.2699,-0.0112,-0.0401,-89.4349,-0.001,-0.009,1.7821,0.0028,-0.0206,6.4642,-0.0359,-2.7458
54436,-106.6904,-4.2699,-0.0112,-0.0401,-89.4349,-0.001,-0.009,1.7821,0.0028,-0.0206,6.4642,-0.0359,-2.7458
54454,-106.6914,-4.0821,-0.0109,-0.0563,-89.4799,0.0001,-0.019,2.2181,0.0013,-0.1042,4.5683,-0.016,0.0618
54468,-106.6914,-4.0821,-0.0109,-0.0563,-89.4799,0.0001,-0.019,2.2181,0.0013,-0.1042,4.5683,-0.016,0.0618
54484,-106.6914,-4.0821,-0.0109,-0.0563,-89.4799,0.0001,-0.019,2.2181,0.0013,-0.1042,4.5683,-0.016,0.0618
54500,-106.6914,-4.0821,-0.0109,-0.0563,-89.4799,0.0001,-0.019,2.2181,0.0013,-0.1042,4.5683,-0.016,0.0618
54516,-106.6914,-4.0821,-0.0109,-0.0563,-89.4799,0.0001,-0.019,2.2181,0.0013,-0.1042,4.5683,-0.016,0.0618
54532,-106.6914,-4.0821,-0.0109,-0.0563,-89.4799,0.0001,-0.019,2.2181,0.0013,-0.1042,4.5683,-0.016,0.0618
54549,-106.6931,-3.8419,-0.0107,-0.0763,-89.529,-0.0002,-0.0234,2.8928,0.0006,-0.046,6.9177,-0.0073,-2.4651
54564,-106.6931,-3.8419,-0.0107,-0.0763,-89.529,-0.0002,-0.0234,2.8928,0.0006,-0.046,6.9177,-0.0073,-2.4651
54580,-106.6931,-3.8419,-0.0107,-0.0763,-89.529,-0.0002,-0.0234,2.8928,0.0006,-0.046,6.9177,-0.0073,-2.4651
54596,-106.6931,-3.8419,-0.0107,-0.0763,-89.529,-0.0002,-0.0234,2.8928,0.0006,-0.046,6.9177,-0.0073,-2.4651
54612,-106.6931,-3.8419,-0.0107,-0.0763,-89.529,-0.0002,-0.0234,2.8928,0.0006,-0.046,6.9177,-0.0073,-2.4651
54628,-106.6931,-3.8419,-0.0107,-0.0763,-89.529,-0.0002,-0.0234,2.8928,0.0006,-0.046,6.9177,-0.0073,-2.4651
54646,-106.6947,-3.5176,-0.0104,-0.1021,-89.611,-0.0011,-0.0257,3.6448,0.0003,-0.0233,7.7884,-0.003,-2.6535
54660,-106.6947,-3.5176,-0.0104,-0.1021,-89.611,-0.0011,-0.0257,3.6448,0.0003,-0.0233,7.7884,-0.003,-2.6535
54676,-106.6947,-3.5176,-0.0104,-0.1021,-89.611,-0.0011,-0.0257,3.6448,0.0003,-0.0233,7.7884,-0.003,-2.6535
54692,-106.6947,-3.5176,-0.0104,-0.1021,-89.611,-0.0011,-0.0257,3.6448,0.0003,-0.0233,7.7884,-0.003,-2.6535
54708,-106.6947,-3.5176,-0.0104,-0.1021,-89.611,-0.0011,-0.0257,3.6448,0.0003,-0.0233,7.7884,-0.003,-2.6535
54724,-106.6947,-3.5176,-0.0104,-0.1021,-89.611,-0.0011,-0.0257,3.6448,0.0003,-0.0233,7.7884,-0.003,-2.6535
54740,-106.6985,-3.1787,-0.0105,-0.097,-89.4555,0.0008,-0.0347,4.0973,0.0002,-0.1013,5.0851,-0.0018,2.5477
54756,-106.6985,-3.1787,-0.0105,-0.097,-89.4555,0.0008,-0.0347,4.0973,0.0002,-0.1013,5.0851,-0.0018,2.5477
54772,-106.6985,-3.1787,-0.0105,-0.097,-89.4555,0.0008,-0.0347,4.0973,0.0002,-0.1013,5.0851,-0.0018,2.5477
54788,-106.6985,-3.1787,-0.0105,-0.097,-89.4555,0.0008,-0.0347,4.0973,0.0002,-0.1013,5.0851,-0.0018,2.5477
54804,-106.6985,-3.1787,-0.0105,-0.097,-89.4555,0.0008,-0.0347,4.0973,0.0002,-0.1013,5.0851,-0.0018,2.5477
54820,-106.7016,-2.7933,-0.0105,-0.0899,-89.4902,0.0009,-0.0405,4.5211,0.0001,-0.0636,4.6847,-0.0008,-2.2678
54836,-106.7016,-2.7933,-0.0105,-0.0899,-89.4902,0.0009,-0.0405,4.5211,0.0001,-0.0636,4.6847,-0.0008,-2.2678
54852,-106.7016,-2.7933,-0.0105,-0.0899,-89.4902,0.0009,-0.0405,4.5211,0.0001,-0.0636,4.6847,-0.0008,-2.2678
54868,-106.7016,-2.7933,-0.0105,-0.0899,-89.4902,0.0009,-0.0405,4.5211,0.0001,-0.0636,4.6847,-0.0008,-2.2678
54884,-106.7016,-2.7933,-0.0105,-0.0899,-89.4902,0.0009,-0.0405,4.5211,0.0001,-0.0636,4.6847,-0.0008,-2.2678
54900,-106.7016,-2.7933,-0.0105,-0.0899,-89.4902,0.0009,-0.0405,4.5211,0.0001,-0.0636,4.6847,-0.0008,-2.2678
54916,-106.7049,-2.3327,-0.0105,-0.0907,-89.5543,-0.0005,-0.0384,5.0891,0.0,0.0216,5.8948,-0.0008,1.1683
54932,-106.7049,-2.3327,-0.0105,-0.0907,-89.5543,-0.0005,-0.0384,5.0891,0.0,0.0216,5.8948,-0.0008,1.1683
54948,-106.7049,-2.3327,-0.0105,-0.0907,-89.5543,-0.0005,-0.0384,5.0891,0.0,0.0216,5.8948,-0.0008,1.1683
54964,-106.7049,-2.3327,-0.0105,-0.0907,-89.5543,-0.0005,-0.0384,5.0891,0.0,0.0216,5.8948,-0.0008,1.1683
54980,-106.7049,-2.3327,-0.0105,-0.0907,-89.5543,-0.0005,-0.0384,5.0891,0.0,0.0216,5.8948,-0.0008,1.1683
54996,-106.7049,-2.3327,-0.0105,-0.0907,-89.5543,-0.0005,-0.0384,5.0891,0.0,0.0216,5.8948,-0.0008,1.1683
55013,-106.7078,-1.8402,-0.0104,-0.0981,-89.6345,-0.0016,-0.0389,5.7189,0.0,-0.0057,6.8869,0.0001,-1.9187
55028,-106.7078,-1.8402,-0.0104,-0.0981,-89.6345,-0.0016,-0.0389,5.7189,0.0,-0.0057,6.8869,0.0001,-1.9187
55044,-106.7078,-1.8402,-0.0104,-0.0981,-89.6345,-0.0016,-0.0389,5.7189,0.0,-0.0057,6.8869,0.0001,-1.9187
55060,-106.7078,-1.8402,-0.0104,-0.0981,-89.6345,-0.0016,-0.0389,5.7189,0.0,-0.0057,6.8869,0.0001,-1.9187
55076,-106.7078,-1.8402,-0.0104,-0.0981,-89.6345,-0.0016,-0.0389,5.7189,0.0,-0.0057,6.8869,0.0001,-1.9187
55092,-106.7078,-1.8402,-0.0104,-0.0981,-89.6345,-0.0016,-0.0389,5.7189,0.0,-0.0057,6.8869,0.0001,-1.9187
55108,-106.7115,-1.2535,-0.0104,-0.1041,-89.636,-0.0015,-0.0397,6.3654,-0.0,-0.0084,6.6549,-0.0003,1.4754
55124,-106.7115,-1.2535,-0.0104,-0.1041,-89.636,-0.0015,-0.0397,6.3654,-0.0,-0.0084,6.6549,-0.0003,1.4754
55140,-106.7115,-1.2535,-0.0104,-0.1041,-89.636,-0.0015,-0.0397,6.3654,-0.0,-0.0084,6.6549,-0.0003,1.4754
55156,-106.7115,-1.2535,-0.0104,-0.1041,-89.636,-0.0015,-0.0397,6.3654,-0.0,-0.0084,6.6549,-0.0003,1.4754
55172,-106.7115,-1.2535,-0.0104,-0.1041,-89.636,-0.0015,-0.0397,6.3654,-0.0,-0.0084,6.6549,-0.0003,1.4754
55188,-106.7115,-1.2535,-0.0104,-0.1041,-89.636,-0.0015,-0.0397,6.3654,-0.0,-0.0084,6.6549,-0.0003,1.4754
55206,-106.7156,-0.5919,-0.0104,-0.1071,-89.6498,-0.0011,-0.0442,7.0326,0.0,-0.0453,6.7495,0.0001,-1.2921
55220,-106.7156,-0.5919,-0.0104,-0.1071,-89.6498,-0.0011,-0.0442,7.0326,0.0,-0.0453,6.7495,0.0001,-1.2921
55236,-106.7156,-0.5919,-0.0104,-0.1071,-89.6498,-0.0011,-0.0442,7.0326,0.0,-0.0453,6.7495,0.0001,-1.2921
55252,-106.7156,-0.5919,-0.0104,-0.1071,-89.6498,-0.0011,-0.0442,7.0326,0.0,-0.0453,6.7495,0.0001,-1.2921
55268,-106.7156,-0.5919,-0.0104,-0.1071,-89.6498,-0.0011,-0.0442,7.0326,0.0,-0.0453,6.7495,0.0001,-1.2921
55284,-106.7156,-0.5919,-0.0104,-0.1071,-89.6498,-0.0011,-0.0442,7.0326,0.0,-0.0453,6.7495,0.0001,-1.2921
55301,-106.7199,0.0995,-0.0103,-0.1159,-89.6479,-0.0007,-0.0479,7.7915,0.0,-0.0397,8.1385,0.0,0.2378
55316,-106.7199,0.0995,-0.0103,-0.1159,-89.6479,-0.0007,-0.0479,7.7915,0.0,-0.0397,8.1385,0.0,0.2378
55332,-106.7199,0.0995,-0.0103,-0.1159,-89.6479,-0.0007,-0.0479,7.7915,0.0,-0.0397,8.1385,0.0,0.2378
55348,-106.7199,0.0995,-0.0103,-0.1159,-89.6479,-0.0007,-0.0479,7.7915,0.0,-0.0397,8.1385,0.0,0.2378
55364,-106.7199,0.0995,-0.0103,-0.1159,-89.6479,-0.0007,-0.0479,7.7915,0.0,-0.0397,8.1385,0.0,0.2378
55380,-106.7199,0.0995,-0.0103,-0.1159,-89.6479,-0.0007,-0.0479,7.7915,0.0,-0.0397,8.1385,0.0,0.2378
55398,-106.7246,0.8716,-0.0103,-0.1172,-89.6496,-0.0005,-0.0516,8.4087,-0.0,-0.0393,6.5028,-0.0002,-0.1843
55412,-106.7246,0.8716,-0.0103,-0.1172,-89.6496,-0.0005,-0.0516,8.4087,-0.0,-0.0393,6.5028,-0.0002,-0.1843
55428,-106.7246,0.8716,-0.0103,-0.1172,-89.6496,-0.0005,-0.0516,8.4087,-0.0,-0.0393,6.5028,-0.0002,-0.1843
55444,-106.7246,0.8716,-0.0103,-0.1172,-89.6496,-0.0005,-0.0516,8.4087,-0.0,-0.0393,6.5028,-0.0002,-0.1843
55460,-106.7246,0.8716,-0.0103,-0.1172,-89.6496,-0.0005,-0.0516,8.4087,-0.0,-0.0393,6.5028,-0.0002,-0.1843
55476,-106.7246,0.8716,-0.0103,-0.1172,-89.6496,-0.0005,-0.0516,8.4087,-0.0,-0.0393,6.5028,-0.0002,-0.1843
55492,-106.7294,1.646,-0.0104,-0.1048,-89.6508,-0.0003,-0.0539,8.8053,0.0,-0.0251,4.4186,0.0003,-0.1041
55508,-106.7294,1.646,-0.0104,-0.1048,-89.6508,-0.0003,-0.0539,8.8053,0.0,-0.0251,4.4186,0.0003,-0.1041
55524,-106.7294,1.646,-0.0104,-0.1048,-89.6508,-0.0003,-0.0539,8.8053,0.0,-0.0251,4.4186,0.0003,-0.1041
55540,-106.7294,1.646,-0.0104,-0.1048,-89.6508,-0.0003,-0.0539,8.8053,0.0,-0.0251,4.4186,0.0003,-0.1041
55556,-106.7294,1.646,-0.0104,-0.1048,-89.6508,-0.0003,-0.0539,8.8053,0.0,-0.0251,4.4186,0.0003,-0.1041
55572,-106.7345,2.4897,-0.0104,-0.102,-89.6494,-0.0002,-0.0576,9.4149,0.0,-0.0405,6.6094,-0.0,0.0012
55588,-106.7345,2.4897,-0.0104,-0.102,-89.6494,-0.0002,-0.0576,9.4149,0.0,-0.0405,6.6094,-0.0,0.0012
55604,-106.7345,2.4897,-0.0104,-0.102,-89.6494,-0.0002,-0.0576,9.4149,0.0,-0.0405,6.6094,-0.0,0.0012
55620,-106.7345,2.4897,-0.0104,-0.102,-89.6494,-0.0002,-0.0576,9.4149,0.0,-0.0405,6.6094,-0.0,0.0012
55636,-106.7345,2.4897,-0.0104,-0.102,-89.6494,-0.0002,-0.0576,9.4149,0.0,-0.0405,6.6094,-0.0,0.0012
55652,-106.7345,2.4897,-0.0104,-0.102,-89.6494,-0.0002,-0.0576,9.4149,0.0,-0.0405,6.6094,-0.0,0.0012
55670,-106.7402,3.4126,-0.0104,-0.1003,-89.6494,-0.0002,-0.0609,9.9486,-0.0,-0.0345,5.6259,-0.0002,0.0004
55684,-106.7402,3.4126,-0.0104,-0.1003,-89.6494,-0.0002,-0.0609,9.9486,-0.0,-0.0345,5.6259,-0.0002,0.0004
55700,-106.7402,3.4126,-0.0104,-0.1003,-89.6494,-0.0002,-0.0609,9.9486,-0.0,-0.0345,5.6259,-0.0002,0.0004
55716,-106.7402,3.4126,-0.0104,-0.1003,-89.6494,-0.0002,-0.0609,9.9486,-0.0,-0.0345,5.6259,-0.0002,0.0004
55732,-106.7402,3.4126,-0.0104,-0.1003,-89.6494,-0.0002,-0.0609,9.9486,-0.0,-0.0345,5.6259,-0.0002,0.0004
55748,-106.7402,3.4126,-0.0104,-0.1003,-89.6494,-0.0002,-0.0609,9.9486,-0.0,-0.0345,5.6259,-0.0002,0.0004
55766,-106.746,4.3701,-0.0105,-0.0933,-89.6494,-0.0001,-0.0637,10.4023,0.0,-0.0296,4.8378,0.0002,0.0001
55780,-106.746,4.3701,-0.0105,-0.0933,-89.6494,-0.0001,-0.0637,10.4023,0.0,-0.0296,4.8378,0.0002,0.0001
55796,-106.746,4.3701,-0.0105,-0.0933,-89.6494,-0.0001,-0.0637,10.4023,0.0,-0.0296,4.8378,0.0002,0.0001
55812,-106.746,4.3701,-0.0105,-0.0933,-89.6494,-0.0001,-0.0637,10.4023,0.0,-0.0296,4.8378,0.0002,0.0001
55828,-106.746,4.3701,-0.0105,-0.0933,-89.6494,-0.0001,-0.0637,10.4023,0.0,-0.0296,4.8378,0.0002,0.0001
55844,-106.746,4.3701,-0.0105,-0.0933,-89.6494,-0.0001,-0.0637,10.4023,0.0,-0.0296,4.8378,0.0002,0.0001
55861,-106.7523,5.4029,-0.0105,-0.0848,-89.6494,-0.0,-0.0662,10.8154,0.0,-0.0261,4.2561,-0.0,-0.0001
55876,-106.7523,5.4029,-0.0105,-0.0848,-89.6494,-0.0,-0.0662,10.8154,0.0,-0.0261,4.2561,-0.0,-0.0001
55892,-106.7523,5.4029,-0.0105,-0.0848,-89.6494,-0.0,-0.0662,10.8154,0.0,-0.0261,4.2561,-0.0,-0.0001
55908,-106.7523,5.4029,-0.0105,-0.0848,-89.6494,-0.0,-0.0662,10.8154,0.0,-0.0261,4.2561,-0.0,-0.0001
55924,-106.7523,5.4029,-0.0105,-0.0848,-89.6494,-0.0,-0.0662,10.8154,0.0,-0.0261,4.2561,-0.0,-0.0001
55940,-106.7523,5.4029,-0.0105,-0.0848,-89.6494,-0.0,-0.0662,10.8154,0.0,-0.0261,4.2561,-0.0,-0.0001
55958,-106.7588,6.4575,-0.0106,-0.0779,-89.6494,-0.0,-0.0686,11.208,0.0,-0.0252,4.1091,-0.0,-0.0001
55972,-106.7588,6.4575,-0.0106,-0.0779,-89.6494,-0.0,-0.0686,11.208,0.0,-0.0252,4.1091,-0.0,-0.0001
55988,-106.7588,6.4575,-0.0106,-0.0779,-89.6494,-0.0,-0.0686,11.208,0.0,-0.0252,4.1091,-0.0,-0.0001
56004,-106.7588,6.4575,-0.0106,-0.0779,-89.6494,-0.0,-0.0686,11.208,0.0,-0.0252,4.1091,-0.0,-0.0001
56020,-106.7588,6.4575,-0.0106,-0.0779,-89.6494,-0.0,-0.0686,11.208,0.0,-0.0252,4.1091,-0.0,-0.0001
56036,-106.7588,6.4575,-0.0106,-0.0779,-89.6494,-0.0,-0.0686,11.208,0.0,-0.0252,4.1091,-0.0,-0.0001
56052,-106.765,7.4664,-0.0106,-0.0729,-89.6494,-0.0,-0.0707,11.5569,0.0,-0.0242,3.9433,0.0,0.0002
56068,-106.765,7.4664,-0.0106,-0.0729,-89.6494,-0.0,-0.0707,11.5569,0.0,-0.0242,3.9433,0.0,0.0002
56084,-106.765,7.4664,-0.0106,-0.0729,-89.6494,-0.0,-0.0707,11.5569,0.0,-0.0242,3.9433,0.0,0.0002
56100,-106.765,7.4664,-0.0106,-0.0729,-89.6494,-0.0,-0.0707,11.5569,0.0,-0.0242,3.9433,0.0,0.0002
56116,-106.765,7.4664,-0.0106,-0.0729,-89.6494,-0.0,-0.0707,11.5569,0.0,-0.0242,3.9433,0.0,0.0002
56132,-106.765,7.4664,-0.0106,-0.0729,-89.6494,-0.0,-0.0707,11.5569,0.0,-0.0242,3.9433,0.0,0.0002
56150,-106.772,8.6105,-0.0107,-0.0678,-89.6494,-0.0,-0.0729,11.9056,0.0,-0.0219,3.5804,0.0,0.0
56164,-106.772,8.6105,-0.0107,-0.0678,-89.6494,-0.0,-0.0729,11.9056,0.0,-0.0219,3.5804,0.0,0.0
56180,-106.772,8.6105,-0.0107,-0.0678,-89.6494,-0.0,-0.0729,11.9056,0.0,-0.0219,3.5804,0.0,0.0
56196,-106.772,8.6105,-0.0107,-0.0678,-89.6494,-0.0,-0.0729,11.9056,0.0,-0.0219,3.5804,0.0,0.0
56212,-106.772,8.6105,-0.0107,-0.0678,-89.6494,-0.0,-0.0729,11.9056,0.0,-0.0219,3.5804,0.0,0.0
56228,-106.772,8.6105,-0.0107,-0.0678,-89.6494,-0.0,-0.0729,11.9056,0.0,-0.0219,3.5804,0.0,0.0
56244,-106.7787,9.7023,-0.0107,-0.0643,-89.6494,-0.0,-0.0748,12.2189,0.0,-0.0212,3.465,-0.0001,-0.0
56260,-106.7787,9.7023,-0.0107,-0.0643,-89.6494,-0.0,-0.0748,12.2189,0.0,-0.0212,3.465,-0.0001,-0.0
56276,-106.7787,9.7023,-0.0107,-0.0643,-89.6494,-0.0,-0.0748,12.2189,0.0,-0.0212,3.465,-0.0001,-0.0
56292,-106.7787,9.7023,-0.0107,-0.0643,-89.6494,-0.0,-0.0748,12.2189,0.0,-0.0212,3.465,-0.0001,-0.0
56308,-106.7787,9.7023,-0.0107,-0.0643,-89.6494,-0.0,-0.0748,12.2189,0.0,-0.0212,3.465,-0.0001,-0.0
56326,-106.7857,10.8474,-0.0107,-0.0608,-89.6494,-0.0,-0.0766,12.5167,-0.0,-0.0197,3.2204,-0.0001,-0.0
56340,-106.7857,10.8474,-0.0107,-0.0608,-89.6494,-0.0,-0.0766,12.5167,-0.0,-0.0197,3.2204,-0.0001,-0.0
56356,-106.7857,10.8474,-0.0107,-0.0608,-89.6494,-0.0,-0.0766,12.5167,-0.0,-0.0197,3.2204,-0.0001,-0.0
56372,-106.7857,10.8474,-0.0107,-0.0608,-89.6494,-0.0,-0.0766,12.5167,-0.0,-0.0197,3.2204,-0.0001,-0.0
56388,-106.7857,10.8474,-0.0107,-0.0608,-89.6494,-0.0,-0.0766,12.5167,-0.0,-0.0197,3.2204,-0.0001,-0.0
56404,-106.7857,10.8474,-0.0107,-0.0608,-89.6494,-0.0,-0.0766,12.5167,-0.0,-0.0197,3.2204,-0.0001,-0.0
56422,-106.793,12.0436,-0.0107,-0.0561,-89.6494,0.0,-0.0782,12.7781,0.0,-0.0169,2.768,0.0002,-0.0
56436,-106.793,12.0436,-0.0107,-0.0561,-89.6494,0.0,-0.0782,12.7781,0.0,-0.0169,2.768,0.0002,-0.0
56452,-106.793,12.0436,-0.0107,-0.0561,-89.6494,0.0,-0.0782,12.7781,0.0,-0.0169,2.768,0.0002,-0.0
56484,-106.793,12.0436,-0.0107,-0.0561,-89.6494,0.0,-0.0782,12.7781,0.0,-0.0169,2.768,0.0002,-0.0
56500,-106.793,12.0436,-0.0107,-0.0561,-89.6494,0.0,-0.0782,12.7781,0.0,-0.0169,2.768,0.0002,-0.0
56518,-106.8229,13.1796,-0.0108,-0.0424,-90.7176,0.1038,-0.7935,12.8106,0.0009,-8.0733,0.3673,0.0099,-25.9812
56532,-106.8229,13.1796,-0.0108,-0.0424,-90.7176,0.1038,-0.7935,12.8106,0.0009,-8.0733,0.3673,0.0099,-25.9812
56548,-106.8229,13.1796,-0.0108,-0.0424,-90.7176,0.1038,-0.7935,12.8106,0.0009,-8.0733,0.3673,0.0099,-25.9812
56564,-106.8229,13.1796,-0.0108,-0.0424,-90.7176,0.1038,-0.7935,12.8106,0.0009,-8.0733,0.3673,0.0099,-25.9812
56580,-106.8229,13.1796,-0.0108,-0.0424,-90.7176,0.1038,-0.7935,12.8106,0.0009,-8.0733,0.3673,0.0099,-25.9812
56596,-106.8229,13.1796,-0.0108,-0.0424,-90.7176,0.1038,-0.7935,12.8106,0.0009,-8.0733,0.3673,0.0099,-25.9812
56614,-106.9171,14.4077,-0.0109,-0.0077,-95.6632,0.2483,-1.752,12.5723,0.0012,-9.8911,-2.459,0.0033,-73.6688
56628,-106.9171,14.4077,-0.0109,-0.0077,-95.6632,0.2483,-1.752,12.5723,0.0012,-9.8911,-2.459,0.0033,-73.6688
56644,-106.9171,14.4077,-0.0109,-0.0077,-95.6632,0.2483,-1.752,12.5723,0.0012,-9.8911,-2.459,0.0033,-73.6688
56660,-106.9171,14.4077,-0.0109,-0.0077,-95.6632,0.2483,-1.752,12.5723,0.0012,-9.8911,-2.459,0.0033,-73.6688
56676,-106.9171,14.4077,-0.0109,-0.0077,-95.6632,0.2483,-1.752,12.5723,0.0012,-9.8911,-2.459,0.0033,-73.6688
56692,-107.0379,15.5255,-0.0111,0.0215,-104.9259,0.2658,-2.242,12.3134,0.0002,-5.3902,-2.8477,-0.011,-125.8613
56708,-107.0379,15.5255,-0.0111,0.0215,-104.9259,0.2658,-2.242,12.3134,0.0002,-5.3902,-2.8477,-0.011,-125.8613
56724,-107.0379,15.5255,-0.0111,0.0215,-104.9259,0.2658,-2.242,12.3134,0.0002,-5.3902,-2.8477,-0.011,-125.8613
56740,-107.0379,15.5255,-0.0111,0.0215,-104.9259,0.2658,-2.242,12.3134,0.0002,-5.3902,-2.8477,-0.011,-125.8613
56756,-107.0379,15.5255,-0.0111,0.0215,-104.9259,0.2658,-2.242,12.3134,0.0002,-5.3902,-2.8477,-0.011,-125.8613
56772,-107.0379,15.5255,-0.0111,0.0215,-104.9259,0.2658,-2.242,12.3134,0.0002,-5.3902,-2.8477,-0.011,-125.8613
56790,-107.1451,16.6259,-0.0111,0.0191,-119.4994,0.1546,-2.0752,12.1615,-0.001,1.787,-1.6271,-0.0125,-180.3675
56804,-107.1451,16.6259,-0.0111,0.0191,-119.4994,0.1546,-2.0752,12.1615,-0.001,1.787,-1.6271,-0.0125,-180.3675
56820,-107.1451,16.6259,-0.0111,0.0191,-119.4994,0.1546,-2.0752,12.1615,-0.001,1.787,-1.6271,-0.0125,-180.3675
56836,-107.1451,16.6259,-0.0111,0.0191,-119.4994,0.1546,-2.0752,12.1615,-0.001,1.787,-1.6271,-0.0125,-180.3675
56852,-107.1451,16.6259,-0.0111,0.0191,-119.4994,0.1546,-2.0752,12.1615,-0.001,1.787,-1.6271,-0.0125,-180.3675
56868,-107.1451,16.6259,-0.0111,0.0191,-119.4994,0.1546,-2.0752,12.1615,-0.001,1.787,-1.6271,-0.0125,-180.3675
56885,-107.1623,17.7123,-0.0107,-0.061,-138.6556,-0.0971,-0.5196,12.1518,-0.0001,16.1145,-0.101,0.0091,-209.06
56900,-107.1623,17.7123,-0.0107,-0.061,-138.6556,-0.0971,-0.5196,12.1518,-0.0001,16.1145,-0.101,0.0091,-209.06
56916,-107.1623,17.7123,-0.0107,-0.061,-138.6556,-0.0971,-0.5196,12.1518,-0.0001,16.1145,-0.101,0.0091,-209.06
56932,-107.1623,17.7123,-0.0107,-0.061,-138.6556,-0.0971,-0.5196,12.1518,-0.0001,16.1145,-0.101,0.0091,-209.06
56948,-107.1623,17.7123,-0.0107,-0.061,-138.6556,-0.0971,-0.5196,12.1518,-0.0001,16.1145,-0.101,0.0091,-209.06
56964,-107.1623,17.7123,-0.0107,-0.061,-138.6556,-0.0971,-0.5196,12.1518,-0.0001,16.1145,-0.101,0.0091,-209.06
56981,-107.0313,18.6674,-0.0097,-0.1718,-158.157,-0.3423,1.5681,11.6441,0.0021,23.104,-5.6183,0.0238,-220.2666
56996,-107.0313,18.6674,-0.0097,-0.1718,-158.157,-0.3423,1.5681,11.6441,0.0021,23.104,-5.6183,0.0238,-220.2666
57012,-107.0313,18.6674,-0.0097,-0.1718,-158.157,-0.3423,1.5681,11.6441,0.0021,23.104,-5.6183,0.0238,-220.2666
57028,-107.0313,18.6674,-0.0097,-0.1718,-158.157,-0.3423,1.5681,11.6441,0.0021,23.104,-5.6183,0.0238,-220.2666
57044,-107.0313,18.6674,-0.0097,-0.1718,-158.157,-0.3423,1.5681,11.6441,0.0021,23.104,-5.6183,0.0238,-220.2666
57060,-107.0313,18.6674,-0.0097,-0.1718,-158.157,-0.3423,1.5681,11.6441,0.0021,23.104,-5.6183,0.0238,-220.2666
57092,-106.7489,19.5331,-0.0088,-0.2644,-178.9105,-0.5327,3.6479,10.3946,0.0018,22.5511,-13.5485,-0.0028,-229.2374
57108,-106.7489,19.5331,-0.0088,-0.2644,-178.9105,-0.5327,3.6479,10.3946,0.0018,22.5511,-13.5485,-0.0028,-229.2374
57124,-106.7489,19.5331,-0.0088,-0.2644,-178.9105,-0.5327,3.6479,10.3946,0.0018,22.5511,-13.5485,-0.0028,-229.2374
57140,-106.7489,19.5331,-0.0088,-0.2644,-178.9105,-0.5327,3.6479,10.3946,0.0018,22.5511,-13.5485,-0.0028,-229.2374
57157,-106.3841,20.2248,-0.0084,-0.3002,159.8994,-0.7241,4.5214,8.1605,0.0019,9.5322,-24.3805,0.0012,-231.6443
57172,-106.3841,20.2248,-0.0084,-0.3002,159.8994,-0.7241,4.5214,8.1605,0.0019,9.5322,-24.3805,0.0012,-231.6443
57188,-106.3841,20.2248,-0.0084,-0.3002,159.8994,-0.7241,4.5214,8.1605,0.0019,9.5322,-24.3805,0.0012,-231.6443
57204,-106.3841,20.2248,-0.0084,-0.3002,159.8994,-0.7241,4.5214,8.1605,0.0019,9.5322,-24.3805,0.0012,-231.6443
57220,-106.3841,20.2248,-0.0084,-0.3002,159.8994,-0.7241,4.5214,8.1605,0.0019,9.5322,-24.3805,0.0012,-231.6443
57236,-106.3841,20.2248,-0.0084,-0.3002,159.8994,-0.7241,4.5214,8.1605,0.0019,9.5322,-24.3805,0.0012,-231.6443
57252,-106.1188,20.743,-0.009,-0.2131,141.396,-0.8562,2.9813,6.8845,0.0042,-17.7431,-14.7,0.0261,-195.0949
57268,-106.1188,20.743,-0.009,-0.2131,141.396,-0.8562,2.9813,6.8845,0.0042,-17.7431,-14.7,0.0261,-195.0949
57284,-106.1188,20.743,-0.009,-0.2131,141.396,-0.8562,2.9813,6.8845,0.0042,-17.7431,-14.7,0.0261,-195.0949
57300,-106.1188,20.743,-0.009,-0.2131,141.396,-0.8562,2.9813,6.8845,0.0042,-17.7431,-14.7,0.0261,-195.0949
57316,-106.1188,20.743,-0.009,-0.2131,141.396,-0.8562,2.9813,6.8845,0.0042,-17.7431,-14.7,0.0261,-195.0949
57332,-106.1188,20.743,-0.009,-0.2131,141.396,-0.8562,2.9813,6.8845,0.0042,-17.7431,-14.7,0.0261,-195.0949
57348,-106.0475,21.2702,-0.0101,-0.0461,125.7363,-0.9043,0.7696,6.9117,0.0007,-24.6884,0.3038,-0.0392,-152.7456
57364,-106.0475,21.2702,-0.0101,-0.0461,125.7363,-0.9043,0.7696,6.9117,0.0007,-24.6884,0.3038,-0.0392,-152.7456
57380,-106.0475,21.2702,-0.0101,-0.0461,125.7363,-0.9043,0.7696,6.9117,0.0007,-24.6884,0.3038,-0.0392,-152.7456
57396,-106.0475,21.2702,-0.0101,-0.0461,125.7363,-0.9043,0.7696,6.9117,0.0007,-24.6884,0.3038,-0.0392,-152.7456
57412,-106.0475,21.2702,-0.0101,-0.0461,125.7363,-0.9043,0.7696,6.9117,0.0007,-24.6884,0.3038,-0.0392,-152.7456
57430,-106.1316,21.8877,-0.0112,0.1024,114.8989,-0.7737,-0.6765,7.8771,-0.0012,-16.3784,10.9341,-0.0205,-103.2271
57444,-106.1316,21.8877,-0.0112,0.1024,114.8989,-0.7737,-0.6765,7.8771,-0.0012,-16.3784,10.9341,-0.0205,-103.2271
57460,-106.1316,21.8877,-0.0112,0.1024,114.8989,-0.7737,-0.6765,7.8771,-0.0012,-16.3784,10.9341,-0.0205,-103.2271
57476,-106.1316,21.8877,-0.0112,0.1024,114.8989,-0.7737,-0.6765,7.8771,-0.0012,-16.3784,10.9341,-0.0205,-103.2271
57492,-106.1316,21.8877,-0.0112,0.1024,114.8989,-0.7737,-0.6765,7.8771,-0.0012,-16.3784,10.9341,-0.0205,-103.2271
57508,-106.2389,22.5859,-0.0118,0.1586,106.6469,-0.4378,-0.394,8.6757,-0.0028,3.286,9.2883,-0.019,-93.1727
57524,-106.2389,22.5859,-0.0118,0.1586,106.6469,-0.4378,-0.394,8.6757,-0.0028,3.286,9.2883,-0.019,-93.1727
57540,-106.2389,22.5859,-0.0118,0.1586,106.6469,-0.4378,-0.394,8.6757,-0.0028,3.286,9.2883,-0.019,-93.1727
57556,-106.2389,22.5859,-0.0118,0.1586,106.6469,-0.4378,-0.394,8.6757,-0.0028,3.286,9.2883,-0.019,-93.1727
57572,-106.2389,22.5859,-0.0118,0.1586,106.6469,-0.4378,-0.394,8.6757,-0.0028,3.286,9.2883,-0.019,-93.1727
57605,-106.2867,23.3877,-0.0121,0.1549,98.1924,-0.0724,0.5905,9.1654,-0.0033,10.8368,5.3903,-0.0057,-92.918
57620,-106.2867,23.3877,-0.0121,0.1549,98.1924,-0.0724,0.5905,9.1654,-0.0033,10.8368,5.3903,-0.0057,-92.918
57636,-106.2867,23.3877,-0.0121,0.1549,98.1924,-0.0724,0.5905,9.1654,-0.0033,10.8368,5.3903,-0.0057,-92.918
57652,-106.2867,23.3877,-0.0121,0.1549,98.1924,-0.0724,0.5905,9.1654,-0.0033,10.8368,5.3903,-0.0057,-92.918
57668,-106.2867,23.3877,-0.0121,0.1549,98.1924,-0.0724,0.5905,9.1654,-0.0033,10.8368,5.3903,-0.0057,-92.918
57684,-106.2867,23.3877,-0.0121,0.1549,98.1924,-0.0724,0.5905,9.1654,-0.0033,10.8368,5.3903,-0.0057,-92.918
57702,-106.2714,24.2677,-0.0122,0.1373,91.2043,0.0261,0.513,9.6429,-0.0009,-0.8274,5.0985,0.0261,-49.5075
57716,-106.2714,24.2677,-0.0122,0.1373,91.2043,0.0261,0.513,9.6429,-0.0009,-0.8274,5.0985,0.0261,-49.5075
57732,-106.2714,24.2677,-0.0122,0.1373,91.2043,0.0261,0.513,9.6429,-0.0009,-0.8274,5.0985,0.0261,-49.5075
57748,-106.2714,24.2677,-0.0122,0.1373,91.2043,0.0261,0.513,9.6429,-0.0009,-0.8274,5.0985,0.0261,-49.5075
57764,-106.2714,24.2677,-0.0122,0.1373,91.2043,0.0261,0.513,9.6429,-0.0009,-0.8274,5.0985,0.0261,-49.5075
57780,-106.2714,24.2677,-0.0122,0.1373,91.2043,0.0261,0.513,9.6429,-0.0009,-0.8274,5.0985,0.0261,-49.5075
57797,-106.2626,25.1768,-0.012,0.1036,88.7559,-0.0461,0.2242,9.8519,0.0004,-3.1043,2.2465,0.0134,-12.3614
57812,-106.2626,25.1768,-0.012,0.1036,88.7559,-0.0461,0.2242,9.8519,0.0004,-3.1043,2.2465,0.0134,-12.3614
57828,-106.2626,25.1768,-0.012,0.1036,88.7559,-0.0461,0.2242,9.8519,0.0004,-3.1043,2.2465,0.0134,-12.3614
57844,-106.2626,25.1768,-0.012,0.1036,88.7559,-0.0461,0.2242,9.8519,0.0004,-3.1043,2.2465,0.0134,-12.3614
57860,-106.2626,25.1768,-0.012,0.1036,88.7559,-0.0461,0.2242,9.8519,0.0004,-3.1043,2.2465,0.0134,-12.3614
57878,-106.2448,26.0759,-0.0117,0.0721,88.1283,-0.0285,0.2713,9.9629,0.0001,0.5187,1.2241,-0.0029,-2.9138
57892,-106.2448,26.0759,-0.0117,0.0721,88.1283,-0.0285,0.2713,9.9629,0.0001,0.5187,1.2241,-0.0029,-2.9138
57908,-106.2448,26.0759,-0.0117,0.0721,88.1283,-0.0285,0.2713,9.9629,0.0001,0.5187,1.2241,-0.0029,-2.9138
57924,-106.2448,26.0759,-0.0117,0.0721,88.1283,-0.0285,0.2713,9.9629,0.0001,0.5187,1.2241,-0.0029,-2.9138
57940,-106.2448,26.0759,-0.0117,0.0721,88.1283,-0.0285,0.2713,9.9629,0.0001,0.5187,1.2241,-0.0029,-2.9138
57956,-106.2448,26.0759,-0.0117,0.0721,88.1283,-0.0285,0.2713,9.9629,0.0001,0.5187,1.2241,-0.0029,-2.9138
57974,-106.2173,27.0239,-0.0115,0.0474,87.9501,-0.0066,0.3238,10.025,-0.0,0.5543,0.6548,-0.0017,-0.2963
57988,-106.2173,27.0239,-0.0115,0.0474,87.9501,-0.0066,0.3238,10.025,-0.0,0.5543,0.6548,-0.0017,-0.2963
58004,-106.2173,27.0239,-0.0115,0.0474,87.9501,-0.0066,0.3238,10.025,-0.0,0.5543,0.6548,-0.0017,-0.2963
58020,-106.2173,27.0239,-0.0115,0.0474,87.9501,-0.0066,0.3238,10.025,-0.0,0.5543,0.6548,-0.0017,-0.2963
58036,-106.2173,27.0239,-0.0115,0.0474,87.9501,-0.0066,0.3238,10.025,-0.0,0.5543,0.6548,-0.0017,-0.2963
58052,-106.2173,27.0239,-0.0115,0.0474,87.9501,-0.0066,0.3238,10.025,-0.0,0.5543,0.6548,-0.0017,-0.2963
58070,-106.1857,27.9633,-0.0114,0.0319,87.8997,0.0027,0.3535,10.081,0.0001,0.3178,0.5998,0.001,0.3702
58084,-106.1857,27.9633,-0.0114,0.0319,87.8997,0.0027,0.3535,10.081,0.0001,0.3178,0.5998,0.001,0.3702
58100,-106.1857,27.9633,-0.0114,0.0319,87.8997,0.0027,0.3535,10.081,0.0001,0.3178,0.5998,0.001,0.3702
58116,-106.1857,27.9633,-0.0114,0.0319,87.8997,0.0027,0.3535,10.081,0.0001,0.3178,0.5998,0.001,0.3702
58132,-106.1857,27.9633,-0.0114,0.0319,87.8997,0.0027,0.3535,10.081,0.0001,0.3178,0.5998,0.001,0.3702
58148,-106.1857,27.9633,-0.0114,0.0319,87.8997,0.0027,0.3535,10.081,0.0001,0.3178,0.5998,0.001,0.3702
58166,-106.1512,28.9316,-0.0105,0.0506,87.8604,-0.048,0.3672,10.1679,-0.0159,0.1434,0.9078,-0.1662,-0.6132
58180,-106.1512,28.9316,-0.0105,0.0506,87.8604,-0.048,0.3672,10.1679,-0.0159,0.1434,0.9078,-0.1662,-0.6132
58196,-106.1512,28.9316,-0.0105,0.0506,87.8604,-0.048,0.3672,10.1679,-0.0159,0.1434,0.9078,-0.1662,-0.6132
58212,-106.1512,28.9316,-0.0105,0.0506,87.8604,-0.048,0.3672,10.1679,-0.0159,0.1434,0.9078,-0.1662,-0.6132
58228,-106.1512,28.9316,-0.0105,0.0506,87.8604,-0.048,0.3672,10.1679,-0.0159,0.1434,0.9078,-0.1662,-0.6132
58244,-106.1512,28.9316,-0.0105,0.0506,87.8604,-0.048,0.3672,10.1679,-0.0159,0.1434,0.9078,-0.1662,-0.6132
58262,-106.1169,29.8665,-0.0111,0.0238,87.8493,-0.006,0.3765,10.2159,-0.0046,0.1012,0.523,0.1222,-0.0607
58276,-106.1169,29.8665,-0.0111,0.0238,87.8493,-0.006,0.3765,10.2159,-0.0046,0.1012,0.523,0.1222,-0.0607
58292,-106.1169,29.8665,-0.0111,0.0238,87.8493,-0.006,0.3765,10.2159,-0.0046,0.1012,0.523,0.1222,-0.0607
58308,-106.1169,29.8665,-0.0111,0.0238,87.8493,-0.006,0.3765,10.2159,-0.0046,0.1012,0.523,0.1222,-0.0607
58324,-106.1169,29.8665,-0.0111,0.0238,87.8493,-0.006,0.3765,10.2159,-0.0046,0.1012,0.523,0.1222,-0.0607
58340,-106.1169,29.8665,-0.0111,0.0238,87.8493,-0.006,0.3765,10.2159,-0.0046,0.1012,0.523,0.1222,-0.0607
58356,-106.0825,30.7999,-0.0106,-0.017,87.8481,-0.0442,0.3846,10.259,0.0201,0.089,0.4722,0.2712,0.0996
58372,-106.0825,30.7999,-0.0106,-0.017,87.8481,-0.0442,0.3846,10.259,0.0201,0.089,0.4722,0.2712,0.0996
58388,-106.0825,30.7999,-0.0106,-0.017,87.8481,-0.0442,0.3846,10.259,0.0201,0.089,0.4722,0.2712,0.0996
58404,-106.0825,30.7999,-0.0106,-0.017,87.8481,-0.0442,0.3846,10.259,0.0201,0.089,0.4722,0.2712,0.0996
58420,-106.0825,30.7999,-0.0106,-0.017,87.8481,-0.0442,0.3846,10.259,0.0201,0.089,0.4722,0.2712,0.0996
58436,-106.0825,30.7999,-0.0106,-0.017,87.8481,-0.0442,0.3846,10.259,0.0201,0.089,0.4722,0.2712,0.0996
58452,-106.0442,31.8141,-0.0107,-0.0098,87.8348,-0.0178,0.386,10.3005,-0.0053,0.0137,0.4198,-0.2578,-0.0849
58468,-106.0442,31.8141,-0.0107,-0.0098,87.8348,-0.0178,0.386,10.3005,-0.0053,0.0137,0.4198,-0.2578,-0.0849
58484,-106.0442,31.8141,-0.0107,-0.0098,87.8348,-0.0178,0.386,10.3005,-0.0053,0.0137,0.4198,-0.2578,-0.0849
58500,-106.0442,31.8141,-0.0107,-0.0098,87.8348,-0.0178,0.386,10.3005,-0.0053,0.0137,0.4198,-0.2578,-0.0849
58516,-106.0442,31.8141,-0.0107,-0.0098,87.8348,-0.0178,0.386,10.3005,-0.0053,0.0137,0.4198,-0.2578,-0.0849
58532,-106.0093,32.7405,-0.011,0.0021,87.8314,-0.0064,0.3878,10.2987,-0.0018,0.0203,-0.0195,0.0395,-0.0236
58548,-106.0093,32.7405,-0.011,0.0021,87.8314,-0.0064,0.3878,10.2987,-0.0018,0.0203,-0.0195,0.0395,-0.0236
58564,-106.0093,32.7405,-0.011,0.0021,87.8314,-0.0064,0.3878,10.2987,-0.0018,0.0203,-0.0195,0.0395,-0.0236
58580,-106.0093,32.7405,-0.011,0.0021,87.8314,-0.0064,0.3878,10.2987,-0.0018,0.0203,-0.0195,0.0395,-0.0236
58596,-106.0093,32.7405,-0.011,0.0021,87.8314,-0.0064,0.3878,10.2987,-0.0018,0.0203,-0.0195,0.0395,-0.0236
58612,-106.0093,32.7405,-0.011,0.0021,87.8314,-0.0064,0.3878,10.2987,-0.0018,0.0203,-0.0195,0.0395,-0.0236
58630,-105.973,33.704,-0.0111,0.0056,87.8301,-0.0033,0.3913,10.3532,-0.0006,0.0372,0.5843,0.0131,-0.0084
58644,-105.973,33.704,-0.0111,0.0056,87.8301,-0.0033,0.3913,10.3532,-0.0006,0.0372,0.5843,0.0131,-0.0084
58660,-105.973,33.704,-0.0111,0.0056,87.8301,-0.0033,0.3913,10.3532,-0.0006,0.0372,0.5843,0.0131,-0.0084
58676,-105.973,33.704,-0.0111,0.0056,87.8301,-0.0033,0.3913,10.3532,-0.0006,0.0372,0.5843,0.0131,-0.0084
58692,-105.973,33.704,-0.0111,0.0056,87.8301,-0.0033,0.3913,10.3532,-0.0006,0.0372,0.5843,0.0131,-0.0084
58708,-105.973,33.704,-0.0111,0.0056,87.8301,-0.0033,0.3913,10.3532,-0.0006,0.0372,0.5843,0.0131,-0.0084
58726,-105.936,34.6814,-0.0112,0.007,87.8297,-0.0017,0.3936,10.3969,-0.0002,0.0244,0.4652,0.0039,-0.0029
58740,-105.936,34.6814,-0.0112,0.007,87.8297,-0.0017,0.3936,10.3969,-0.0002,0.0244,0.4652,0.0039,-0.0029
58756,-105.936,34.6814,-0.0112,0.007,87.8297,-0.0017,0.3936,10.3969,-0.0002,0.0244,0.4652,0.0039,-0.0029
58772,-105.936,34.6814,-0.0112,0.007,87.8297,-0.0017,0.3936,10.3969,-0.0002,0.0244,0.4652,0.0039,-0.0029
