timestamp,x,y,z,pitch,yaw,roll,vx,vy,vz,ax,ay,az,yaw_rate
271786,-106.6867,-4.8475,-0.0207,0.0,-89.3578,0.0,-0.0,-0.0,0.0673,-0.0,-0.0,-0.124,0.0
271959,-106.6867,-4.8475,-0.0207,0.0,-89.3578,0.0,-0.0,-0.0,0.0673,-0.0,-0.0,-0.124,0.0
271973,-106.6867,-4.8475,-0.0207,0.0,-89.3578,0.0,-0.0,-0.0,0.0673,-0.0,-0.0,-0.124,0.0
271989,-106.6867,-4.8475,-0.0207,0.0,-89.3578,0.0,-0.0,-0.0,0.0673,-0.0,-0.0,-0.124,0.0
272005,-106.6867,-4.8475,-0.0207,0.0,-89.3578,0.0,-0.0,-0.0,0.0673,-0.0,-0.0,-0.124,0.0
272021,-106.6867,-4.8475,-0.0207,0.0,-89.3578,0.0,-0.0,-0.0,0.0673,-0.0,-0.0,-0.124,0.0
272037,-106.6867,-4.8475,-0.0207,0.0,-89.3578,0.0,-0.0,-0.0,0.0673,-0.0,-0.0,-0.124,0.0
272053,-106.6867,-4.8475,-0.0207,0.0,-89.3578,0.0,-0.0,-0.0,0.0673,-0.0,-0.0,-0.124,0.0
272069,-106.6867,-4.8475,-0.0207,0.0,-89.3578,0.0,-0.0,-0.0,0.0673,-0.0,-0.0,-0.124,0.0
272088,-106.6867,-4.8475,-0.0159,0.0,-89.3578,0.0,0.0,0.0,0.035,0.0,0.0,-0.0808,-0.0
272101,-106.6867,-4.8475,-0.0159,0.0,-89.3578,0.0,0.0,0.0,0.035,0.0,0.0,-0.0808,-0.0
272127,-106.6867,-4.8456,-0.0134,-0.0016,-89.3578,0.0,-0.0005,0.0413,0.0171,-0.0041,0.3639,-0.1577,-0.0001
272142,-106.6867,-4.8456,-0.0134,-0.0016,-89.3578,0.0,-0.0005,0.0413,0.0171,-0.0041,0.3639,-0.1577,-0.0001
272158,-106.6867,-4.8456,-0.0134,-0.0016,-89.3578,0.0,-0.0005,0.0413,0.0171,-0.0041,0.3639,-0.1577,-0.0001
272174,-106.6867,-4.8456,-0.0134,-0.0016,-89.3578,0.0,-0.0005,0.0413,0.0171,-0.0041,0.3639,-0.1577,-0.0001
272190,-106.6867,-4.8456,-0.0134,-0.0016,-89.3578,0.0,-0.0005,0.0413,0.0171,-0.0041,0.3639,-0.1577,-0.0001
272206,-106.6867,-4.8456,-0.0134,-0.0016,-89.3578,0.0,-0.0005,0.0413,0.0171,-0.0041,0.3639,-0.1577,-0.0001
272222,-106.6867,-4.8456,-0.0134,-0.0016,-89.3578,0.0,-0.0005,0.0413,0.0171,-0.0041,0.3639,-0.1577,-0.0001
272238,-106.6867,-4.8456,-0.0134,-0.0016,-89.3578,0.0,-0.0005,0.0413,0.0171,-0.0041,0.3639,-0.1577,-0.0001
272254,-106.6868,-4.8398,-0.0122,-0.0066,-89.3577,0.0,-0.0024,0.2115,0.008,-0.0159,1.4137,-0.0753,-0.0006
272270,-106.6868,-4.8398,-0.0122,-0.0066,-89.3577,0.0,-0.0024,0.2115,0.008,-0.0159,1.4137,-0.0753,-0.0006
272286,-106.6868,-4.8398,-0.0122,-0.0066,-89.3577,0.0,-0.0024,0.2115,0.008,-0.0159,1.4137,-0.0753,-0.0006
272302,-106.6868,-4.8398,-0.0122,-0.0066,-89.3577,0.0,-0.0024,0.2115,0.008,-0.0159,1.4137,-0.0753,-0.0006
272318,-106.6868,-4.8398,-0.0122,-0.0066,-89.3577,0.0,-0.0024,0.2115,0.008,-0.0159,1.4137,-0.0753,-0.0006
272334,-106.6868,-4.8398,-0.0122,-0.0066,-89.3577,0.0,-0.0024,0.2115,0.008,-0.0159,1.4137,-0.0753,-0.0006
272350,-106.6868,-4.8398,-0.0122,-0.0066,-89.3577,0.0,-0.0024,0.2115,0.008,-0.0159,1.4137,-0.0753,-0.0006
272366,-106.6873,-4.7963,-0.0115,-0.0315,-89.3512,-0.0,-0.0065,0.5967,0.0037,-0.0364,3.3952,-0.0384,-0.1494
272382,-106.6873,-4.7963,-0.0115,-0.0315,-89.3512,-0.0,-0.0065,0.5967,0.0037,-0.0364,3.3952,-0.0384,-0.1494
272398,-106.6873,-4.7963,-0.0115,-0.0315,-89.3512,-0.0,-0.0065,0.5967,0.0037,-0.0364,3.3952,-0.0384,-0.1494
272414,-106.6873,-4.7963,-0.0115,-0.0315,-89.3512,-0.0,-0.0065,0.5967,0.0037,-0.0364,3.3952,-0.0384,-0.1494
272430,-106.6873,-4.7963,-0.0115,-0.0315,-89.3512,-0.0,-0.0065,0.5967,0.0037,-0.0364,3.3952,-0.0384,-0.1494
272446,-106.6873,-4.7963,-0.0115,-0.0315,-89.3512,-0.0,-0.0065,0.5967,0.0037,-0.0364,3.3952,-0.0384,-0.1494
272462,-106.6873,-4.7963,-0.0115,-0.0315,-89.3512,-0.0,-0.0065,0.5967,0.0037,-0.0364,3.3952,-0.0384,-0.1494
272484,-106.6882,-4.7145,-0.0112,-0.0466,-89.3542,-0.0,-0.0112,0.9967,0.0016,-0.039,3.3108,-0.0168,-0.01
272494,-106.6882,-4.7145,-0.0112,-0.0466,-89.3542,-0.0,-0.0112,0.9967,0.0016,-0.039,3.3108,-0.0168,-0.01
272510,-106.6882,-4.7145,-0.0112,-0.0466,-89.3542,-0.0,-0.0112,0.9967,0.0016,-0.039,3.3108,-0.0168,-0.01
272526,-106.6882,-4.7145,-0.0112,-0.0466,-89.3542,-0.0,-0.0112,0.9967,0.0016,-0.039,3.3108,-0.0168,-0.01
272542,-106.6882,-4.7145,-0.0112,-0.0466,-89.3542,-0.0,-0.0112,0.9967,0.0016,-0.039,3.3108,-0.0168,-0.01
272558,-106.6882,-4.7145,-0.0112,-0.0466,-89.3542,-0.0,-0.0112,0.9967,0.0016,-0.039,3.3108,-0.0168,-0.01
272574,-106.6882,-4.7145,-0.0112,-0.0466,-89.3542,-0.0,-0.0112,0.9967,0.0016,-0.039,3.3108,-0.0168,-0.01
272596,-106.6887,-4.6092,-0.0108,-0.0406,-89.4236,-0.001,-0.0048,1.0549,0.0034,0.0547,0.5005,0.0155,2.3744
272606,-106.6887,-4.6092,-0.0108,-0.0406,-89.4236,-0.001,-0.0048,1.0549,0.0034,0.0547,0.5005,0.0155,2.3744
272622,-106.6887,-4.6092,-0.0108,-0.0406,-89.4236,-0.001,-0.0048,1.0549,0.0034,0.0547,0.5005,0.0155,2.3744
272638,-106.6887,-4.6092,-0.0108,-0.0406,-89.4236,-0.001,-0.0048,1.0549,0.0034,0.0547,0.5005,0.0155,2.3744
272654,-106.6887,-4.6092,-0.0108,-0.0406,-89.4236,-0.001,-0.0048,1.0549,0.0034,0.0547,0.5005,0.0155,2.3744
272670,-106.6887,-4.6092,-0.0108,-0.0406,-89.4236,-0.001,-0.0048,1.0549,0.0034,0.0547,0.5005,0.0155,2.3744
272686,-106.6887,-4.6092,-0.0108,-0.0406,-89.4236,-0.001,-0.0048,1.0549,0.0034,0.0547,0.5005,0.0155,2.3744
272714,-106.6918,-4.4907,-0.0108,-0.0352,-89.2941,0.0023,-0.0283,1.3767,0.0,-0.2073,2.8486,-0.0302,6.159
272719,-106.6918,-4.4907,-0.0108,-0.0352,-89.2941,0.0023,-0.0283,1.3767,0.0,-0.2073,2.8486,-0.0302,6.159
272735,-106.6918,-4.4907,-0.0108,-0.0352,-89.2941,0.0023,-0.0283,1.3767,0.0,-0.2073,2.8486,-0.0302,6.159
272751,-106.6918,-4.4907,-0.0108,-0.0352,-89.2941,0.0023,-0.0283,1.3767,0.0,-0.2073,2.8486,-0.0302,6.159
272767,-106.6918,-4.4907,-0.0108,-0.0352,-89.2941,0.0023,-0.0283,1.3767,0.0,-0.2073,2.8486,-0.0302,6.159
272783,-106.6918,-4.4907,-0.0108,-0.0352,-89.2941,0.0023,-0.0283,1.3767,0.0,-0.2073,2.8486,-0.0302,6.159
272799,-106.6918,-4.4907,-0.0108,-0.0352,-89.2941,0.0023,-0.0283,1.3767,0.0,-0.2073,2.8486,-0.0302,6.159
272815,-106.6918,-4.4907,-0.0108,-0.0352,-89.2941,0.0023,-0.0283,1.3767,0.0,-0.2073,2.8486,-0.0302,6.159
272831,-106.6944,-4.3505,-0.0108,-0.0322,-89.2015,0.0022,-0.0333,1.4638,-0.0004,-0.0442,0.7586,-0.0037,4.3068
272847,-106.6944,-4.3505,-0.0108,-0.0322,-89.2015,0.0022,-0.0333,1.4638,-0.0004,-0.0442,0.7586,-0.0037,4.3068
272863,-106.6944,-4.3505,-0.0108,-0.0322,-89.2015,0.0022,-0.0333,1.4638,-0.0004,-0.0442,0.7586,-0.0037,4.3068
272879,-106.6944,-4.3505,-0.0108,-0.0322,-89.2015,0.0022,-0.0333,1.4638,-0.0004,-0.0442,0.7586,-0.0037,4.3068
272895,-106.6944,-4.3505,-0.0108,-0.0322,-89.2015,0.0022,-0.0333,1.4638,-0.0004,-0.0442,0.7586,-0.0037,4.3068
272911,-106.6944,-4.3505,-0.0108,-0.0322,-89.2015,0.0022,-0.0333,1.4638,-0.0004,-0.0442,0.7586,-0.0037,4.3068
272927,-106.6944,-4.3505,-0.0108,-0.0322,-89.2015,0.0022,-0.0333,1.4638,-0.0004,-0.0442,0.7586,-0.0037,4.3068
272943,-106.6976,-4.1782,-0.0107,-0.0485,-89.1542,0.0012,-0.0345,2.0466,-0.0003,-0.0101,5.203,0.0009,-4.4139
272959,-106.6976,-4.1782,-0.0107,-0.0485,-89.1542,0.0012,-0.0345,2.0466,-0.0003,-0.0101,5.203,0.0009,-4.4139
272975,-106.6976,-4.1782,-0.0107,-0.0485,-89.1542,0.0012,-0.0345,2.0466,-0.0003,-0.0101,5.203,0.0009,-4.4139
272991,-106.6976,-4.1782,-0.0107,-0.0485,-89.1542,0.0012,-0.0345,2.0466,-0.0003,-0.0101,5.203,0.0009,-4.4139
273007,-106.6976,-4.1782,-0.0107,-0.0485,-89.1542,0.0012,-0.0345,2.0466,-0.0003,-0.0101,5.203,0.0009,-4.4139
273023,-106.6976,-4.1782,-0.0107,-0.0485,-89.1542,0.0012,-0.0345,2.0466,-0.0003,-0.0101,5.203,0.0009,-4.4139
273047,-106.7016,-3.9558,-0.0107,-0.058,-89.1308,0.0004,-0.0379,2.4251,-0.0002,-0.0322,3.5186,0.0012,-1.253
273055,-106.7016,-3.9558,-0.0107,-0.058,-89.1308,0.0004,-0.0379,2.4251,-0.0002,-0.0322,3.5186,0.0012,-1.253
273071,-106.7016,-3.9558,-0.0107,-0.058,-89.1308,0.0004,-0.0379,2.4251,-0.0002,-0.0322,3.5186,0.0012,-1.253
273087,-106.7016,-3.9558,-0.0107,-0.058,-89.1308,0.0004,-0.0379,2.4251,-0.0002,-0.0322,3.5186,0.0012,-1.253
273103,-106.7016,-3.9558,-0.0107,-0.058,-89.1308,0.0004,-0.0379,2.4251,-0.0002,-0.0322,3.5186,0.0012,-1.253
273119,-106.7016,-3.9558,-0.0107,-0.058,-89.1308,0.0004,-0.0379,2.4251,-0.0002,-0.0322,3.5186,0.0012,-1.253
273135,-106.7016,-3.9558,-0.0107,-0.058,-89.1308,0.0004,-0.0379,2.4251,-0.0002,-0.0322,3.5186,0.0012,-1.253
273154,-106.7063,-3.6844,-0.0106,-0.0734,-89.0786,0.0005,-0.0492,3.006,-0.0001,-0.104,5.3586,0.0007,3.7635
273167,-106.7063,-3.6844,-0.0106,-0.0734,-89.0786,0.0005,-0.0492,3.006,-0.0001,-0.104,5.3586,0.0007,3.7635
273183,-106.7063,-3.6844,-0.0106,-0.0734,-89.0786,0.0005,-0.0492,3.006,-0.0001,-0.104,5.3586,0.0007,3.7635
273199,-106.7063,-3.6844,-0.0106,-0.0734,-89.0786,0.0005,-0.0492,3.006,-0.0001,-0.104,5.3586,0.0007,3.7635
273215,-106.7063,-3.6844,-0.0106,-0.0734,-89.0786,0.0005,-0.0492,3.006,-0.0001,-0.104,5.3586,0.0007,3.7635
273231,-106.7063,-3.6844,-0.0106,-0.0734,-89.0786,0.0005,-0.0492,3.006,-0.0001,-0.104,5.3586,0.0007,3.7635
273247,-106.7063,-3.6844,-0.0106,-0.0734,-89.0786,0.0005,-0.0492,3.006,-0.0001,-0.104,5.3586,0.0007,3.7635
273263,-106.712,-3.3385,-0.0105,-0.0947,-89.0631,-0.0002,-0.0592,3.8194,-0.0,-0.0978,7.9557,0.0005,0.6353
273279,-106.712,-3.3385,-0.0105,-0.0947,-89.0631,-0.0002,-0.0592,3.8194,-0.0,-0.0978,7.9557,0.0005,0.6353
273295,-106.712,-3.3385,-0.0105,-0.0947,-89.0631,-0.0002,-0.0592,3.8194,-0.0,-0.0978,7.9557,0.0005,0.6353
273311,-106.712,-3.3385,-0.0105,-0.0947,-89.0631,-0.0002,-0.0592,3.8194,-0.0,-0.0978,7.9557,0.0005,0.6353
273327,-106.712,-3.3385,-0.0105,-0.0947,-89.0631,-0.0002,-0.0592,3.8194,-0.0,-0.0978,7.9557,0.0005,0.6353
273343,-106.712,-3.3385,-0.0105,-0.0947,-89.0631,-0.0002,-0.0592,3.8194,-0.0,-0.0978,7.9557,0.0005,0.6353
273363,-106.7175,-2.9428,-0.0105,-0.0887,-89.1416,-0.0009,-0.0623,4.2461,-0.0,-0.0295,4.0885,0.0004,0.3469
273375,-106.7175,-2.9428,-0.0105,-0.0887,-89.1416,-0.0009,-0.0623,4.2461,-0.0,-0.0295,4.0885,0.0004,0.3469
273391,-106.7175,-2.9428,-0.0105,-0.0887,-89.1416,-0.0009,-0.0623,4.2461,-0.0,-0.0295,4.0885,0.0004,0.3469
273407,-106.7175,-2.9428,-0.0105,-0.0887,-89.1416,-0.0009,-0.0623,4.2461,-0.0,-0.0295,4.0885,0.0004,0.3469
273423,-106.7175,-2.9428,-0.0105,-0.0887,-89.1416,-0.0009,-0.0623,4.2461,-0.0,-0.0295,4.0885,0.0004,0.3469
273439,-106.7175,-2.9428,-0.0105,-0.0887,-89.1416,-0.0009,-0.0623,4.2461,-0.0,-0.0295,4.0885,0.0004,0.3469
273455,-106.7175,-2.9428,-0.0105,-0.0887,-89.1416,-0.0009,-0.0623,4.2461,-0.0,-0.0295,4.0885,0.0004,0.3469
273471,-106.7229,-2.4971,-0.0105,-0.0851,-89.2572,-0.0021,-0.0634,4.7264,-0.0,-0.0103,4.3302,-0.0,-2.714
273487,-106.7229,-2.4971,-0.0105,-0.0851,-89.2572,-0.0021,-0.0634,4.7264,-0.0,-0.0103,4.3302,-0.0,-2.714
273503,-106.7229,-2.4971,-0.0105,-0.0851,-89.2572,-0.0021,-0.0634,4.7264,-0.0,-0.0103,4.3302,-0.0,-2.714
273519,-106.7229,-2.4971,-0.0105,-0.0851,-89.2572,-0.0021,-0.0634,4.7264,-0.0,-0.0103,4.3302,-0.0,-2.714
273535,-106.7229,-2.4971,-0.0105,-0.0851,-89.2572,-0.0021,-0.0634,4.7264,-0.0,-0.0103,4.3302,-0.0,-2.714
273551,-106.7229,-2.4971,-0.0105,-0.0851,-89.2572,-0.0021,-0.0634,4.7264,-0.0,-0.0103,4.3302,-0.0,-2.714
273567,-106.7229,-2.4971,-0.0105,-0.0851,-89.2572,-0.0021,-0.0634,4.7264,-0.0,-0.0103,4.3302,-0.0,-2.714
273583,-106.7229,-2.4971,-0.0105,-0.0851,-89.2572,-0.0021,-0.0634,4.7264,-0.0,-0.0103,4.3302,-0.0,-2.714
273599,-106.7282,-2.0,-0.0105,-0.0854,-89.357,-0.0032,-0.0591,5.2749,0.0,0.0391,5.0079,0.0002,0.8578
273615,-106.7282,-2.0,-0.0105,-0.0854,-89.357,-0.0032,-0.0591,5.2749,0.0,0.0391,5.0079,0.0002,0.8578
273631,-106.7282,-2.0,-0.0105,-0.0854,-89.357,-0.0032,-0.0591,5.2749,0.0,0.0391,5.0079,0.0002,0.8578
273647,-106.7282,-2.0,-0.0105,-0.0854,-89.357,-0.0032,-0.0591,5.2749,0.0,0.0391,5.0079,0.0002,0.8578
273663,-106.7282,-2.0,-0.0105,-0.0854,-89.357,-0.0032,-0.0591,5.2749,0.0,0.0391,5.0079,0.0002,0.8578
273679,-106.7282,-2.0,-0.0105,-0.0854,-89.357,-0.0032,-0.0591,5.2749,0.0,0.0391,5.0079,0.0002,0.8578
273695,-106.7338,-1.4439,-0.0105,-0.0913,-89.4115,-0.003,-0.0629,5.8912,0.0,-0.035,5.7879,-0.0,-1.9498
273711,-106.7338,-1.4439,-0.0105,-0.0913,-89.4115,-0.003,-0.0629,5.8912,0.0,-0.035,5.7879,-0.0,-1.9498
273727,-106.7338,-1.4439,-0.0105,-0.0913,-89.4115,-0.003,-0.0629,5.8912,0.0,-0.035,5.7879,-0.0,-1.9498
273743,-106.7338,-1.4439,-0.0105,-0.0913,-89.4115,-0.003,-0.0629,5.8912,0.0,-0.035,5.7879,-0.0,-1.9498
273759,-106.7338,-1.4439,-0.0105,-0.0913,-89.4115,-0.003,-0.0629,5.8912,0.0,-0.035,5.7879,-0.0,-1.9498
273775,-106.7338,-1.4439,-0.0105,-0.0913,-89.4115,-0.003,-0.0629,5.8912,0.0,-0.035,5.7879,-0.0,-1.9498
273791,-106.7338,-1.4439,-0.0105,-0.0913,-89.4115,-0.003,-0.0629,5.8912,0.0,-0.035,5.7879,-0.0,-1.9498
273807,-106.7403,-0.8208,-0.0104,-0.1008,-89.4104,-0.0022,-0.0669,6.5965,-0.0,-0.0358,6.3184,-0.0002,1.4662
273823,-106.7403,-0.8208,-0.0104,-0.1008,-89.4104,-0.0022,-0.0669,6.5965,-0.0,-0.0358,6.3184,-0.0002,1.4662
273839,-106.7403,-0.8208,-0.0104,-0.1008,-89.4104,-0.0022,-0.0669,6.5965,-0.0,-0.0358,6.3184,-0.0002,1.4662
273855,-106.7403,-0.8208,-0.0104,-0.1008,-89.4104,-0.0022,-0.0669,6.5965,-0.0,-0.0358,6.3184,-0.0002,1.4662
273871,-106.7403,-0.8208,-0.0104,-0.1008,-89.4104,-0.0022,-0.0669,6.5965,-0.0,-0.0358,6.3184,-0.0002,1.4662
273887,-106.7403,-0.8208,-0.0104,-0.1008,-89.4104,-0.0022,-0.0669,6.5965,-0.0,-0.0358,6.3184,-0.0002,1.4662
273903,-106.7403,-0.8208,-0.0104,-0.1008,-89.4104,-0.0022,-0.0669,6.5965,-0.0,-0.0358,6.3184,-0.0002,1.4662
273919,-106.7473,-0.1216,-0.0103,-0.1122,-89.4217,-0.0014,-0.0754,7.3766,-0.0,-0.0739,6.7538,0.0001,-1.0854
273935,-106.7473,-0.1216,-0.0103,-0.1122,-89.4217,-0.0014,-0.0754,7.3766,-0.0,-0.0739,6.7538,0.0001,-1.0854
273951,-106.7473,-0.1216,-0.0103,-0.1122,-89.4217,-0.0014,-0.0754,7.3766,-0.0,-0.0739,6.7538,0.0001,-1.0854
273967,-106.7473,-0.1216,-0.0103,-0.1122,-89.4217,-0.0014,-0.0754,7.3766,-0.0,-0.0739,6.7538,0.0001,-1.0854
273983,-106.7473,-0.1216,-0.0103,-0.1122,-89.4217,-0.0014,-0.0754,7.3766,-0.0,-0.0739,6.7538,0.0001,-1.0854
273999,-106.7473,-0.1216,-0.0103,-0.1122,-89.4217,-0.0014,-0.0754,7.3766,-0.0,-0.0739,6.7538,0.0001,-1.0854
274018,-106.7552,0.6529,-0.0103,-0.1165,-89.4164,-0.0009,-0.0817,8.0855,-0.0,-0.0612,6.8486,0.0001,0.8524
274031,-106.7552,0.6529,-0.0103,-0.1165,-89.4164,-0.0009,-0.0817,8.0855,-0.0,-0.0612,6.8486,0.0001,0.8524
274047,-106.7552,0.6529,-0.0103,-0.1165,-89.4164,-0.0009,-0.0817,8.0855,-0.0,-0.0612,6.8486,0.0001,0.8524
274063,-106.7552,0.6529,-0.0103,-0.1165,-89.4164,-0.0009,-0.0817,8.0855,-0.0,-0.0612,6.8486,0.0001,0.8524
274079,-106.7552,0.6529,-0.0103,-0.1165,-89.4164,-0.0009,-0.0817,8.0855,-0.0,-0.0612,6.8486,0.0001,0.8524
274095,-106.7552,0.6529,-0.0103,-0.1165,-89.4164,-0.0009,-0.0817,8.0855,-0.0,-0.0612,6.8486,0.0001,0.8524
274111,-106.7552,0.6529,-0.0103,-0.1165,-89.4164,-0.0009,-0.0817,8.0855,-0.0,-0.0612,6.8486,0.0001,0.8524
274127,-106.7638,1.494,-0.0103,-0.1129,-89.4203,-0.0005,-0.0886,8.7139,-0.0,-0.0667,6.1539,-0.0001,-0.5852
274143,-106.7638,1.494,-0.0103,-0.1129,-89.4203,-0.0005,-0.0886,8.7139,-0.0,-0.0667,6.1539,-0.0001,-0.5852
274159,-106.7638,1.494,-0.0103,-0.1129,-89.4203,-0.0005,-0.0886,8.7139,-0.0,-0.0667,6.1539,-0.0001,-0.5852
274175,-106.7638,1.494,-0.0103,-0.1129,-89.4203,-0.0005,-0.0886,8.7139,-0.0,-0.0667,6.1539,-0.0001,-0.5852
274191,-106.7638,1.494,-0.0103,-0.1129,-89.4203,-0.0005,-0.0886,8.7139,-0.0,-0.0667,6.1539,-0.0001,-0.5852
274207,-106.7638,1.494,-0.0103,-0.1129,-89.4203,-0.0005,-0.0886,8.7139,-0.0,-0.0667,6.1539,-0.0001,-0.5852
274223,-106.7725,2.3594,-0.0103,-0.11,-89.419,-0.0003,-0.0946,9.3307,0.0,-0.0632,6.4387,0.0002,0.0054
274239,-106.7725,2.3594,-0.0103,-0.11,-89.419,-0.0003,-0.0946,9.3307,0.0,-0.0632,6.4387,0.0002,0.0054
274255,-106.7725,2.3594,-0.0103,-0.11,-89.419,-0.0003,-0.0946,9.3307,0.0,-0.0632,6.4387,0.0002,0.0054
274271,-106.7725,2.3594,-0.0103,-0.11,-89.419,-0.0003,-0.0946,9.3307,0.0,-0.0632,6.4387,0.0002,0.0054
274287,-106.7725,2.3594,-0.0103,-0.11,-89.419,-0.0003,-0.0946,9.3307,0.0,-0.0632,6.4387,0.0002,0.0054
274303,-106.7725,2.3594,-0.0103,-0.11,-89.419,-0.0003,-0.0946,9.3307,0.0,-0.0632,6.4387,0.0002,0.0054
274327,-106.7823,3.3211,-0.0104,-0.1027,-89.419,-0.0002,-0.0998,9.8465,0.0,-0.0482,4.7608,0.0001,-0.0004
274335,-106.7823,3.3211,-0.0104,-0.1027,-89.419,-0.0002,-0.0998,9.8465,0.0,-0.0482,4.7608,0.0001,-0.0004
274351,-106.7823,3.3211,-0.0104,-0.1027,-89.419,-0.0002,-0.0998,9.8465,0.0,-0.0482,4.7608,0.0001,-0.0004
274367,-106.7823,3.3211,-0.0104,-0.1027,-89.419,-0.0002,-0.0998,9.8465,0.0,-0.0482,4.7608,0.0001,-0.0004
274383,-106.7823,3.3211,-0.0104,-0.1027,-89.419,-0.0002,-0.0998,9.8465,0.0,-0.0482,4.7608,0.0001,-0.0004
274399,-106.7823,3.3211,-0.0104,-0.1027,-89.419,-0.0002,-0.0998,9.8465,0.0,-0.0482,4.7608,0.0001,-0.0004
274415,-106.7823,3.3211,-0.0104,-0.1027,-89.419,-0.0002,-0.0998,9.8465,0.0,-0.0482,4.7608,0.0001,-0.0004
274439,-106.7925,4.3286,-0.0105,-0.0909,-89.419,-0.0001,-0.1044,10.2919,0.0,-0.0398,3.9251,-0.0,0.0
274447,-106.7925,4.3286,-0.0105,-0.0909,-89.419,-0.0001,-0.1044,10.2919,0.0,-0.0398,3.9251,-0.0,0.0
274463,-106.7925,4.3286,-0.0105,-0.0909,-89.419,-0.0001,-0.1044,10.2919,0.0,-0.0398,3.9251,-0.0,0.0
274479,-106.7925,4.3286,-0.0105,-0.0909,-89.419,-0.0001,-0.1044,10.2919,0.0,-0.0398,3.9251,-0.0,0.0
274495,-106.7925,4.3286,-0.0105,-0.0909,-89.419,-0.0001,-0.1044,10.2919,0.0,-0.0398,3.9251,-0.0,0.0
274511,-106.7925,4.3286,-0.0105,-0.0909,-89.419,-0.0001,-0.1044,10.2919,0.0,-0.0398,3.9251,-0.0,0.0
274527,-106.7925,4.3286,-0.0105,-0.0909,-89.419,-0.0001,-0.1044,10.2919,0.0,-0.0398,3.9251,-0.0,0.0
274546,-106.8032,5.3818,-0.0105,-0.0841,-89.419,-0.0001,-0.109,10.7454,-0.0,-0.0444,4.376,-0.0001,0.0001
274559,-106.8032,5.3818,-0.0105,-0.0841,-89.419,-0.0001,-0.109,10.7454,-0.0,-0.0444,4.376,-0.0001,0.0001
274575,-106.8032,5.3818,-0.0105,-0.0841,-89.419,-0.0001,-0.109,10.7454,-0.0,-0.0444,4.376,-0.0001,0.0001
274591,-106.8032,5.3818,-0.0105,-0.0841,-89.419,-0.0001,-0.109,10.7454,-0.0,-0.0444,4.376,-0.0001,0.0001
274607,-106.8032,5.3818,-0.0105,-0.0841,-89.419,-0.0001,-0.109,10.7454,-0.0,-0.0444,4.376,-0.0001,0.0001
274639,-106.8032,5.3818,-0.0105,-0.0841,-89.419,-0.0001,-0.109,10.7454,-0.0,-0.0444,4.376,-0.0001,0.0001
274655,-106.8438,6.471,-0.0106,-0.0693,-90.8075,0.1242,-0.952,10.9528,0.001,-7.6436,1.8797,0.0087,-30.8993
274671,-106.8438,6.471,-0.0106,-0.0693,-90.8075,0.1242,-0.952,10.9528,0.001,-7.6436,1.8797,0.0087,-30.8993
274687,-106.8438,6.471,-0.0106,-0.0693,-90.8075,0.1242,-0.952,10.9528,0.001,-7.6436,1.8797,0.0087,-30.8993
274703,-106.8438,6.471,-0.0106,-0.0693,-90.8075,0.1242,-0.952,10.9528,0.001,-7.6436,1.8797,0.0087,-30.8993
274719,-106.8438,6.471,-0.0106,-0.0693,-90.8075,0.1242,-0.952,10.9528,0.001,-7.6436,1.8797,0.0087,-30.8993
274735,-106.8438,6.471,-0.0106,-0.0693,-90.8075,0.1242,-0.952,10.9528,0.001,-7.6436,1.8797,0.0087,-30.8993
274751,-106.8438,6.471,-0.0106,-0.0693,-90.8075,0.1242,-0.952,10.9528,0.001,-7.6436,1.8797,0.0087,-30.8993
274767,-106.9544,7.5576,-0.0108,-0.0294,-96.5775,0.2694,-1.9446,10.8135,0.0011,-9.263,-1.2999,0.0013,-81.8314
274783,-106.9544,7.5576,-0.0108,-0.0294,-96.5775,0.2694,-1.9446,10.8135,0.0011,-9.263,-1.2999,0.0013,-81.8314
274799,-106.9544,7.5576,-0.0108,-0.0294,-96.5775,0.2694,-1.9446,10.8135,0.0011,-9.263,-1.2999,0.0013,-81.8314
274815,-106.9544,7.5576,-0.0108,-0.0294,-96.5775,0.2694,-1.9446,10.8135,0.0011,-9.263,-1.2999,0.0013,-81.8314
274831,-106.9544,7.5576,-0.0108,-0.0294,-96.5775,0.2694,-1.9446,10.8135,0.0011,-9.263,-1.2999,0.0013,-81.8314
274847,-106.9544,7.5576,-0.0108,-0.0294,-96.5775,0.2694,-1.9446,10.8135,0.0011,-9.263,-1.2999,0.0013,-81.8314
274863,-106.9544,7.5576,-0.0108,-0.0294,-96.5775,0.2694,-1.9446,10.8135,0.0011,-9.263,-1.2999,0.0013,-81.8314
274879,-107.0999,8.6106,-0.011,0.0052,-107.748,0.269,-2.4341,10.6124,-0.0001,-4.3888,-1.8024,-0.0108,-137.8207
274895,-107.0999,8.6106,-0.011,0.0052,-107.748,0.269,-2.4341,10.6124,-0.0001,-4.3888,-1.8024,-0.0108,-137.8207
274911,-107.0999,8.6106,-0.011,0.0052,-107.748,0.269,-2.4341,10.6124,-0.0001,-4.3888,-1.8024,-0.0108,-137.8207
274927,-107.0999,8.6106,-0.011,0.0052,-107.748,0.269,-2.4341,10.6124,-0.0001,-4.3888,-1.8024,-0.0108,-137.8207
274943,-107.0999,8.6106,-0.011,0.0052,-107.748,0.269,-2.4341,10.6124,-0.0001,-4.3888,-1.8024,-0.0108,-137.8207
274959,-107.0999,8.6106,-0.011,0.0052,-107.748,0.269,-2.4341,10.6124,-0.0001,-4.3888,-1.8024,-0.0108,-137.8207
274981,-107.0999,8.6106,-0.011,0.0052,-107.748,0.269,-2.4341,10.6124,-0.0001,-4.3888,-1.8024,-0.0108,-137.8207
274991,-107.2175,9.6176,-0.01,-0.0596,-124.1588,0.072,-1.8808,10.6717,-0.0102,4.9807,0.5339,-0.0913,-179.1804
275007,-107.2175,9.6176,-0.01,-0.0596,-124.1588,0.072,-1.8808,10.6717,-0.0102,4.9807,0.5339,-0.0913,-179.1804
275023,-107.2175,9.6176,-0.01,-0.0596,-124.1588,0.072,-1.8808,10.6717,-0.0102,4.9807,0.5339,-0.0913,-179.1804
275039,-107.2175,9.6176,-0.01,-0.0596,-124.1588,0.072,-1.8808,10.6717,-0.0102,4.9807,0.5339,-0.0913,-179.1804
275055,-107.2175,9.6176,-0.01,-0.0596,-124.1588,0.072,-1.8808,10.6717,-0.0102,4.9807,0.5339,-0.0913,-179.1804
275071,-107.2175,9.6176,-0.01,-0.0596,-124.1588,0.072,-1.8808,10.6717,-0.0102,4.9807,0.5339,-0.0913,-179.1804
275087,-107.2024,10.5934,-0.01,-0.1235,-143.2898,-0.1698,0.0564,10.7123,-0.0009,18.678,0.3912,0.09,-198.2534
275103,-107.2024,10.5934,-0.01,-0.1235,-143.2898,-0.1698,0.0564,10.7123,-0.0009,18.678,0.3912,0.09,-198.2534
275119,-107.2024,10.5934,-0.01,-0.1235,-143.2898,-0.1698,0.0564,10.7123,-0.0009,18.678,0.3912,0.09,-198.2534
275135,-107.2024,10.5934,-0.01,-0.1235,-143.2898,-0.1698,0.0564,10.7123,-0.0009,18.678,0.3912,0.09,-198.2534
275151,-107.2024,10.5934,-0.01,-0.1235,-143.2898,-0.1698,0.0564,10.7123,-0.0009,18.678,0.3912,0.09,-198.2534
275167,-107.2024,10.5934,-0.01,-0.1235,-143.2898,-0.1698,0.0564,10.7123,-0.0009,18.678,0.3912,0.09,-198.2534
275188,-107.0027,11.501,-0.0092,-0.2236,-163.5899,-0.4034,2.3741,10.056,0.0014,22.943,-6.4972,0.0232,-206.1844
275199,-107.0027,11.501,-0.0092,-0.2236,-163.5899,-0.4034,2.3741,10.056,0.0014,22.943,-6.4972,0.0232,-206.1844
275215,-107.0027,11.501,-0.0092,-0.2236,-163.5899,-0.4034,2.3741,10.056,0.0014,22.943,-6.4972,0.0232,-206.1844
275247,-107.0027,11.501,-0.0092,-0.2236,-163.5899,-0.4034,2.3741,10.056,0.0014,22.943,-6.4972,0.0232,-206.1844
275263,-107.0027,11.501,-0.0092,-0.2236,-163.5899,-0.4034,2.3741,10.056,0.0014,22.943,-6.4972,0.0232,-206.1844
275288,-106.6582,12.2495,-0.0087,-0.2685,175.8342,-0.6547,3.7953,7.9513,0.002,14.0747,-20.8439,0.0061,-202.9276
275295,-106.6582,12.2495,-0.0087,-0.2685,175.8342,-0.6547,3.7953,7.9513,0.002,14.0747,-20.8439,0.0061,-202.9276
275311,-106.6582,12.2495,-0.0087,-0.2685,175.8342,-0.6547,3.7953,7.9513,0.002,14.0747,-20.8439,0.0061,-202.9276
275327,-106.6582,12.2495,-0.0087,-0.2685,175.8342,-0.6547,3.7953,7.9513,0.002,14.0747,-20.8439,0.0061,-202.9276
275343,-106.6582,12.2495,-0.0087,-0.2685,175.8342,-0.6547,3.7953,7.9513,0.002,14.0747,-20.8439,0.0061,-202.9276
275359,-106.6582,12.2495,-0.0087,-0.2685,175.8342,-0.6547,3.7953,7.9513,0.002,14.0747,-20.8439,0.0061,-202.9276
275375,-106.6582,12.2495,-0.0087,-0.2685,175.8342,-0.6547,3.7953,7.9513,0.002,14.0747,-20.8439,0.0061,-202.9276
275398,-106.3564,12.7855,-0.0092,-0.1875,156.9462,-0.8585,2.6235,5.8467,-0.0041,-10.7323,-19.2775,-0.0566,-176.2624
275407,-106.3564,12.7855,-0.0092,-0.1875,156.9462,-0.8585,2.6235,5.8467,-0.0041,-10.7323,-19.2775,-0.0566,-176.2624
275423,-106.3564,12.7855,-0.0092,-0.1875,156.9462,-0.8585,2.6235,5.8467,-0.0041,-10.7323,-19.2775,-0.0566,-176.2624
275439,-106.3564,12.7855,-0.0092,-0.1875,156.9462,-0.8585,2.6235,5.8467,-0.0041,-10.7323,-19.2775,-0.0566,-176.2624
275455,-106.3564,12.7855,-0.0092,-0.1875,156.9462,-0.8585,2.6235,5.8467,-0.0041,-10.7323,-19.2775,-0.0566,-176.2624
275471,-106.3564,12.7855,-0.0092,-0.1875,156.9462,-0.8585,2.6235,5.8467,-0.0041,-10.7323,-19.2775,-0.0566,-176.2624
275487,-106.3564,12.7855,-0.0092,-0.1875,156.9462,-0.8585,2.6235,5.8467,-0.0041,-10.7323,-19.2775,-0.0566,-176.2624
275503,-106.2791,13.2184,-0.0103,-0.0255,141.2551,-0.9137,0.3098,5.1753,0.002,-21.8505,-6.3408,0.0584,-134.8988
275519,-106.2791,13.2184,-0.0103,-0.0255,141.2551,-0.9137,0.3098,5.1753,0.002,-21.8505,-6.3408,0.0584,-134.8988
275535,-106.2791,13.2184,-0.0103,-0.0255,141.2551,-0.9137,0.3098,5.1753,0.002,-21.8505,-6.3408,0.0584,-134.8988
275551,-106.2791,13.2184,-0.0103,-0.0255,141.2551,-0.9137,0.3098,5.1753,0.002,-21.8505,-6.3408,0.0584,-134.8988
275567,-106.2791,13.2184,-0.0103,-0.0255,141.2551,-0.9137,0.3098,5.1753,0.002,-21.8505,-6.3408,0.0584,-134.8988
275583,-106.2791,13.2184,-0.0103,-0.0255,141.2551,-0.9137,0.3098,5.1753,0.002,-21.8505,-6.3408,0.0584,-134.8988
275603,-106.4339,13.722,-0.0116,0.1494,130.5229,-0.7585,-1.8683,6.0101,-0.0008,-20.7607,7.9576,-0.0274,-87.372
275615,-106.4339,13.722,-0.0116,0.1494,130.5229,-0.7585,-1.8683,6.0101,-0.0008,-20.7607,7.9576,-0.0274,-87.372
275631,-106.4339,13.722,-0.0116,0.1494,130.5229,-0.7585,-1.8683,6.0101,-0.0008,-20.7607,7.9576,-0.0274,-87.372
275647,-106.4339,13.722,-0.0116,0.1494,130.5229,-0.7585,-1.8683,6.0101,-0.0008,-20.7607,7.9576,-0.0274,-87.372
275663,-106.4339,13.722,-0.0116,0.1494,130.5229,-0.7585,-1.8683,6.0101,-0.0008,-20.7607,7.9576,-0.0274,-87.372
275679,-106.4339,13.722,-0.0116,0.1494,130.5229,-0.7585,-1.8683,6.0101,-0.0008,-20.7607,7.9576,-0.0274,-87.372
275695,-106.4339,13.722,-0.0116,0.1494,130.5229,-0.7585,-1.8683,6.0101,-0.0008,-20.7607,7.9576,-0.0274,-87.372
275711,-106.4339,13.722,-0.0116,0.1494,130.5229,-0.7585,-1.8683,6.0101,-0.0008,-20.7607,7.9576,-0.0274,-87.372
275727,-106.6948,14.3445,-0.0122,0.2037,122.5987,-0.4255,-2.1482,6.937,-0.0025,-2.7701,9.1718,-0.0169,-77.8572
275759,-106.6948,14.3445,-0.0122,0.2037,122.5987,-0.4255,-2.1482,6.937,-0.0025,-2.7701,9.1718,-0.0169,-77.8572
275775,-106.6948,14.3445,-0.0122,0.2037,122.5987,-0.4255,-2.1482,6.937,-0.0025,-2.7701,9.1718,-0.0169,-77.8572
275791,-106.6948,14.3445,-0.0122,0.2037,122.5987,-0.4255,-2.1482,6.937,-0.0025,-2.7701,9.1718,-0.0169,-77.8572
275807,-106.6948,14.3445,-0.0122,0.2037,122.5987,-0.4255,-2.1482,6.937,-0.0025,-2.7701,9.1718,-0.0169,-77.8572
275823,-106.9723,15.0417,-0.0122,0.1786,116.812,-0.2798,-2.8391,7.2132,-0.0017,-6.365,2.5453,0.008,-35.957
275839,-106.9723,15.0417,-0.0122,0.1786,116.812,-0.2798,-2.8391,7.2132,-0.0017,-6.365,2.5453,0.008,-35.957
275855,-106.9723,15.0417,-0.0122,0.1786,116.812,-0.2798,-2.8391,7.2132,-0.0017,-6.365,2.5453,0.008,-35.957
275871,-106.9723,15.0417,-0.0122,0.1786,116.812,-0.2798,-2.8391,7.2132,-0.0017,-6.365,2.5453,0.008,-35.957
275887,-106.9723,15.0417,-0.0122,0.1786,116.812,-0.2798,-2.8391,7.2132,-0.0017,-6.365,2.5453,0.008,-35.957
275903,-106.9723,15.0417,-0.0122,0.1786,116.812,-0.2798,-2.8391,7.2132,-0.0017,-6.365,2.5453,0.008,-35.957
275919,-106.9723,15.0417,-0.0122,0.1786,116.812,-0.2798,-2.8391,7.2132,-0.0017,-6.365,2.5453,0.008,-35.957
275935,-107.2993,15.7572,-0.0119,0.1258,115.0668,-0.2588,-3.305,7.2422,-0.0003,-4.2553,0.2641,0.0123,-9.5607
275951,-107.2993,15.7572,-0.0119,0.1258,115.0668,-0.2588,-3.305,7.2422,-0.0003,-4.2553,0.2641,0.0123,-9.5607
275967,-107.2993,15.7572,-0.0119,0.1258,115.0668,-0.2588,-3.305,7.2422,-0.0003,-4.2553,0.2641,0.0123,-9.5607
275983,-107.2993,15.7572,-0.0119,0.1258,115.0668,-0.2588,-3.305,7.2422,-0.0003,-4.2553,0.2641,0.0123,-9.5607
275999,-107.2993,15.7572,-0.0119,0.1258,115.0668,-0.2588,-3.305,7.2422,-0.0003,-4.2553,0.2641,0.0123,-9.5607
276015,-107.2993,15.7572,-0.0119,0.1258,115.0668,-0.2588,-3.305,7.2422,-0.0003,-4.2553,0.2641,0.0123,-9.5607
276034,-107.6379,16.4867,-0.0116,0.0833,114.6441,-0.1653,-3.3955,7.3626,-0.0006,-0.8603,1.1455,-0.0031,-3.1934
276047,-107.6379,16.4867,-0.0116,0.0833,114.6441,-0.1653,-3.3955,7.3626,-0.0006,-0.8603,1.1455,-0.0031,-3.1934
276063,-107.6379,16.4867,-0.0116,0.0833,114.6441,-0.1653,-3.3955,7.3626,-0.0006,-0.8603,1.1455,-0.0031,-3.1934
276079,-107.6379,16.4867,-0.0116,0.0833,114.6441,-0.1653,-3.3955,7.3626,-0.0006,-0.8603,1.1455,-0.0031,-3.1934
276095,-107.6379,16.4867,-0.0116,0.0833,114.6441,-0.1653,-3.3955,7.3626,-0.0006,-0.8603,1.1455,-0.0031,-3.1934
276111,-107.6379,16.4867,-0.0116,0.0833,114.6441,-0.1653,-3.3955,7.3626,-0.0006,-0.8603,1.1455,-0.0031,-3.1934
276135,-107.9797,17.2289,-0.0115,0.0557,114.5373,-0.0934,-3.4305,7.4739,-0.0005,-0.3427,1.0898,0.0011,-1.6185
276143,-107.9797,17.2289,-0.0115,0.0557,114.5373,-0.0934,-3.4305,7.4739,-0.0005,-0.3427,1.0898,0.0011,-1.6185
276159,-107.9797,17.2289,-0.0115,0.0557,114.5373,-0.0934,-3.4305,7.4739,-0.0005,-0.3427,1.0898,0.0011,-1.6185
276175,-107.9797,17.2289,-0.0115,0.0557,114.5373,-0.0934,-3.4305,7.4739,-0.0005,-0.3427,1.0898,0.0011,-1.6185
276191,-107.9797,17.2289,-0.0115,0.0557,114.5373,-0.0934,-3.4305,7.4739,-0.0005,-0.3427,1.0898,0.0011,-1.6185
276207,-107.9797,17.2289,-0.0115,0.0557,114.5373,-0.0934,-3.4305,7.4739,-0.0005,-0.3427,1.0898,0.0011,-1.6185
276223,-107.9797,17.2289,-0.0115,0.0557,114.5373,-0.0934,-3.4305,7.4739,-0.0005,-0.3427,1.0898,0.0011,-1.6185
276239,-108.3243,17.9816,-0.0114,0.0388,114.5092,-0.0511,-3.4619,7.57,-0.0003,-0.3046,0.932,0.0024,-1.2055
276255,-108.3243,17.9816,-0.0114,0.0388,114.5092,-0.0511,-3.4619,7.57,-0.0003,-0.3046,0.932,0.0024,-1.2055
276271,-108.3243,17.9816,-0.0114,0.0388,114.5092,-0.0511,-3.4619,7.57,-0.0003,-0.3046,0.932,0.0024,-1.2055
276287,-108.3243,17.9816,-0.0114,0.0388,114.5092,-0.0511,-3.4619,7.57,-0.0003,-0.3046,0.932,0.0024,-1.2055
276303,-108.3243,17.9816,-0.0114,0.0388,114.5092,-0.0511,-3.4619,7.57,-0.0003,-0.3046,0.932,0.0024,-1.2055
276319,-108.3243,17.9816,-0.0114,0.0388,114.5092,-0.0511,-3.4619,7.57,-0.0003,-0.3046,0.932,0.0024,-1.2055
276335,-108.3243,17.9816,-0.0114,0.0388,114.5092,-0.0511,-3.4619,7.57,-0.0003,-0.3046,0.932,0.0024,-1.2055
276354,-108.6722,18.7434,-0.0114,0.0287,114.5016,-0.028,-3.495,7.6563,-0.0001,-0.2823,0.7364,0.0014,-1.0864
276367,-108.6722,18.7434,-0.0114,0.0287,114.5016,-0.028,-3.495,7.6563,-0.0001,-0.2823,0.7364,0.0014,-1.0864
276383,-108.6722,18.7434,-0.0114,0.0287,114.5016,-0.028,-3.495,7.6563,-0.0001,-0.2823,0.7364,0.0014,-1.0864
276399,-108.6722,18.7434,-0.0114,0.0287,114.5016,-0.028,-3.495,7.6563,-0.0001,-0.2823,0.7364,0.0014,-1.0864
276415,-108.6722,18.7434,-0.0114,0.0287,114.5016,-0.028,-3.495,7.6563,-0.0001,-0.2823,0.7364,0.0014,-1.0864
276431,-108.6722,18.7434,-0.0114,0.0287,114.5016,-0.028,-3.495,7.6563,-0.0001,-0.2823,0.7364,0.0014,-1.0864
276447,-108.6722,18.7434,-0.0114,0.0287,114.5016,-0.028,-3.495,7.6563,-0.0001,-0.2823,0.7364,0.0014,-1.0864
276463,-108.6722,18.7434,-0.0114,0.0287,114.5016,-0.028,-3.495,7.6563,-0.0001,-0.2823,0.7364,0.0014,-1.0864
276479,-109.0235,19.5135,-0.0113,0.0227,114.4994,-0.0154,-3.529,7.7371,-0.0,-0.306,0.7274,0.0008,-1.0447
276495,-109.0235,19.5135,-0.0113,0.0227,114.4994,-0.0154,-3.529,7.7371,-0.0,-0.306,0.7274,0.0008,-1.0447
276511,-109.0235,19.5135,-0.0113,0.0227,114.4994,-0.0154,-3.529,7.7371,-0.0,-0.306,0.7274,0.0008,-1.0447
276527,-109.0235,19.5135,-0.0113,0.0227,114.4994,-0.0154,-3.529,7.7371,-0.0,-0.306,0.7274,0.0008,-1.0447
276543,-109.0235,19.5135,-0.0113,0.0227,114.4994,-0.0154,-3.529,7.7371,-0.0,-0.306,0.7274,0.0008,-1.0447
276559,-109.0235,19.5135,-0.0113,0.0227,114.4994,-0.0154,-3.529,7.7371,-0.0,-0.306,0.7274,0.0008,-1.0447
276582,-109.3782,20.2915,-0.0113,0.0191,114.4988,-0.0086,-3.5629,7.8143,-0.0,-0.2985,0.6791,0.0002,-1.0243
276591,-109.3782,20.2915,-0.0113,0.0191,114.4988,-0.0086,-3.5629,7.8143,-0.0,-0.2985,0.6791,0.0002,-1.0243
276607,-109.3782,20.2915,-0.0113,0.0191,114.4988,-0.0086,-3.5629,7.8143,-0.0,-0.2985,0.6791,0.0002,-1.0243
276623,-109.3782,20.2915,-0.0113,0.0191,114.4988,-0.0086,-3.5629,7.8143,-0.0,-0.2985,0.6791,0.0002,-1.0243
276639,-109.3782,20.2915,-0.0113,0.0191,114.4988,-0.0086,-3.5629,7.8143,-0.0,-0.2985,0.6791,0.0002,-1.0243
276655,-109.3782,20.2915,-0.0113,0.0191,114.4988,-0.0086,-3.5629,7.8143,-0.0,-0.2985,0.6791,0.0002,-1.0243
276671,-109.3782,20.2915,-0.0113,0.0191,114.4988,-0.0086,-3.5629,7.8143,-0.0,-0.2985,0.6791,0.0002,-1.0243
276696,-109.3782,20.2915,-0.0113,0.0191,114.4988,-0.0086,-3.5629,7.8143,-0.0,-0.2985,0.6791,0.0002,-1.0243
276709,-109.7363,21.0771,-0.0113,0.017,114.4986,-0.0048,-3.5964,7.8891,0.0,-0.2846,0.6351,0.0001,-1.0102
276725,-109.7363,21.0771,-0.0113,0.017,114.4986,-0.0048,-3.5964,7.8891,0.0,-0.2846,0.6351,0.0001,-1.0102
276741,-109.7363,21.0771,-0.0113,0.017,114.4986,-0.0048,-3.5964,7.8891,0.0,-0.2846,0.6351,0.0001,-1.0102
276757,-109.7363,21.0771,-0.0113,0.017,114.4986,-0.0048,-3.5964,7.8891,0.0,-0.2846,0.6351,0.0001,-1.0102
276773,-109.7363,21.0771,-0.0113,0.017,114.4986,-0.0048,-3.5964,7.8891,0.0,-0.2846,0.6351,0.0001,-1.0102
276789,-109.7363,21.0771,-0.0113,0.017,114.4986,-0.0048,-3.5964,7.8891,0.0,-0.2846,0.6351,0.0001,-1.0102
276805,-109.7363,21.0771,-0.0113,0.017,114.4986,-0.0048,-3.5964,7.8891,0.0,-0.2846,0.6351,0.0001,-1.0102
276821,-110.0978,21.87,-0.0113,0.0157,114.4986,-0.0027,-3.6294,7.9619,0.0,-0.3023,0.6685,0.0,-0.9981
276837,-110.0978,21.87,-0.0113,0.0157,114.4986,-0.0027,-3.6294,7.9619,0.0,-0.3023,0.6685,0.0,-0.9981
276853,-110.0978,21.87,-0.0113,0.0157,114.4986,-0.0027,-3.6294,7.9619,0.0,-0.3023,0.6685,0.0,-0.9981
276869,-110.0978,21.87,-0.0113,0.0157,114.4986,-0.0027,-3.6294,7.9619,0.0,-0.3023,0.6685,0.0,-0.9981
276885,-110.0978,21.87,-0.0113,0.0157,114.4986,-0.0027,-3.6294,7.9619,0.0,-0.3023,0.6685,0.0,-0.9981
276901,-110.0978,21.87,-0.0113,0.0157,114.4986,-0.0027,-3.6294,7.9619,0.0,-0.3023,0.6685,0.0,-0.9981
276922,-110.4625,22.6701,-0.0113,0.0148,114.4986,-0.0015,-3.6616,8.033,0.0,-0.2832,0.6237,-0.0,-0.987
276933,-110.4625,22.6701,-0.0113,0.0148,114.4986,-0.0015,-3.6616,8.033,0.0,-0.2832,0.6237,-0.0,-0.987
