timestamp,x,y,z,pitch,yaw,roll,vx,vy,vz,ax,ay,az,yaw_rate
97799,-106.6867,-4.8475,-0.079,0.0,-89.3578,0.0,-0.0,0.0,0.0692,-0.0,0.0,6.7269,0.0
97815,-106.6867,-4.8475,-0.079,0.0,-89.3578,0.0,-0.0,0.0,0.0692,-0.0,0.0,6.7269,0.0
97831,-106.6867,-4.8475,-0.079,0.0,-89.3578,0.0,-0.0,0.0,0.0692,-0.0,0.0,6.7269,0.0
97847,-106.6867,-4.8475,-0.079,0.0,-89.3578,0.0,-0.0,0.0,0.0692,-0.0,0.0,6.7269,0.0
97863,-106.6867,-4.8475,-0.079,0.0,-89.3578,0.0,-0.0,0.0,0.0692,-0.0,0.0,6.7269,0.0
97879,-106.6867,-4.8475,-0.079,0.0,-89.3578,0.0,-0.0,0.0,0.0692,-0.0,0.0,6.7269,0.0
97895,-106.6867,-4.8475,-0.079,0.0,-89.3578,0.0,-0.0,0.0,0.0692,-0.0,0.0,6.7269,0.0
97911,-106.6867,-4.8475,-0.079,0.0,-89.3578,0.0,-0.0,0.0,0.0692,-0.0,0.0,6.7269,0.0
97927,-106.6867,-4.8475,-0.079,0.0,-89.3578,0.0,-0.0,0.0,0.0692,-0.0,0.0,6.7269,0.0
97943,-106.6867,-4.8475,-0.079,0.0,-89.3578,0.0,-0.0,0.0,0.0692,-0.0,0.0,6.7269,0.0
97959,-106.6867,-4.8475,-0.079,0.0,-89.3578,0.0,-0.0,0.0,0.0692,-0.0,0.0,6.7269,0.0
97975,-106.6867,-4.8475,-0.079,0.0,-89.3578,0.0,-0.0,0.0,0.0692,-0.0,0.0,6.7269,0.0
97991,-106.6867,-4.8475,-0.079,0.0,-89.3578,0.0,-0.0,0.0,0.0692,-0.0,0.0,6.7269,0.0
98007,-106.6867,-4.8475,-0.079,0.0,-89.3578,0.0,-0.0,0.0,0.0692,-0.0,0.0,6.7269,0.0
98023,-106.6867,-4.8475,-0.079,0.0,-89.3578,0.0,-0.0,0.0,0.0692,-0.0,0.0,6.7269,0.0
98039,-106.6867,-4.8475,-0.079,0.0,-89.3578,0.0,-0.0,0.0,0.0692,-0.0,0.0,6.7269,0.0
98055,-106.6867,-4.8475,-0.079,0.0,-89.3578,0.0,-0.0,0.0,0.0692,-0.0,0.0,6.7269,0.0
98071,-106.6867,-4.8475,-0.079,0.0,-89.3578,0.0,-0.0,0.0,0.0692,-0.0,0.0,6.7269,0.0
98087,-106.6867,-4.8475,-0.079,0.0,-89.3578,0.0,-0.0,0.0,0.0692,-0.0,0.0,6.7269,0.0
98103,-106.6867,-4.8475,-0.079,0.0,-89.3578,0.0,-0.0,0.0,0.0692,-0.0,0.0,6.7269,0.0
98119,-106.6867,-4.8475,-0.079,0.0,-89.3578,0.0,-0.0,0.0,0.0692,-0.0,0.0,6.7269,0.0
98135,-106.6867,-4.8475,-0.079,0.0,-89.3578,0.0,-0.0,0.0,0.0692,-0.0,0.0,6.7269,0.0
98151,-106.6867,-4.8475,-0.079,0.0,-89.3578,0.0,-0.0,0.0,0.0692,-0.0,0.0,6.7269,0.0
98167,-106.6867,-4.8475,-0.079,0.0,-89.3578,0.0,-0.0,0.0,0.0692,-0.0,0.0,6.7269,0.0
98183,-106.6867,-4.8475,-0.079,0.0,-89.3578,0.0,-0.0,0.0,0.0692,-0.0,0.0,6.7269,0.0
98199,-106.6867,-4.8475,-0.079,0.0,-89.3578,0.0,-0.0,0.0,0.0692,-0.0,0.0,6.7269,0.0
98215,-106.6867,-4.8475,-0.079,0.0,-89.3578,0.0,-0.0,0.0,0.0692,-0.0,0.0,6.7269,0.0
98231,-106.6867,-4.8456,-0.0592,-0.0017,-89.3578,0.0,-0.0005,0.0423,0.2346,-0.0012,0.1058,0.4137,0.0001
98247,-106.6867,-4.8456,-0.0592,-0.0017,-89.3578,0.0,-0.0005,0.0423,0.2346,-0.0012,0.1058,0.4137,0.0001
98263,-106.6867,-4.8456,-0.0592,-0.0017,-89.3578,0.0,-0.0005,0.0423,0.2346,-0.0012,0.1058,0.4137,0.0001
98279,-106.6867,-4.8456,-0.0592,-0.0017,-89.3578,0.0,-0.0005,0.0423,0.2346,-0.0012,0.1058,0.4137,0.0001
98295,-106.6867,-4.8456,-0.0592,-0.0017,-89.3578,0.0,-0.0005,0.0423,0.2346,-0.0012,0.1058,0.4137,0.0001
98311,-106.6867,-4.8456,-0.0592,-0.0017,-89.3578,0.0,-0.0005,0.0423,0.2346,-0.0012,0.1058,0.4137,0.0001
98327,-106.6867,-4.8456,-0.0592,-0.0017,-89.3578,0.0,-0.0005,0.0423,0.2346,-0.0012,0.1058,0.4137,0.0001
98343,-106.6868,-4.8406,-0.0385,-0.0051,-89.3578,0.0,-0.0012,0.1095,0.1742,-0.0065,0.5786,-0.5203,-0.0017
98359,-106.6868,-4.8406,-0.0385,-0.0051,-89.3578,0.0,-0.0012,0.1095,0.1742,-0.0065,0.5786,-0.5203,-0.0017
98375,-106.6868,-4.8406,-0.0385,-0.0051,-89.3578,0.0,-0.0012,0.1095,0.1742,-0.0065,0.5786,-0.5203,-0.0017
98391,-106.6868,-4.8406,-0.0385,-0.0051,-89.3578,0.0,-0.0012,0.1095,0.1742,-0.0065,0.5786,-0.5203,-0.0017
98407,-106.6868,-4.8406,-0.0385,-0.0051,-89.3578,0.0,-0.0012,0.1095,0.1742,-0.0065,0.5786,-0.5203,-0.0017
98423,-106.6868,-4.8406,-0.0385,-0.0051,-89.3578,0.0,-0.0012,0.1095,0.1742,-0.0065,0.5786,-0.5203,-0.0017
98443,-106.6872,-4.8047,-0.0251,-0.0287,-89.3606,0.0,-0.0066,0.5988,0.1008,-0.0506,4.6203,-0.6936,-0.0338
98455,-106.6872,-4.8047,-0.0251,-0.0287,-89.3606,0.0,-0.0066,0.5988,0.1008,-0.0506,4.6203,-0.6936,-0.0338
98471,-106.6872,-4.8047,-0.0251,-0.0287,-89.3606,0.0,-0.0066,0.5988,0.1008,-0.0506,4.6203,-0.6936,-0.0338
98487,-106.6872,-4.8047,-0.0251,-0.0287,-89.3606,0.0,-0.0066,0.5988,0.1008,-0.0506,4.6203,-0.6936,-0.0338
98503,-106.6872,-4.8047,-0.0251,-0.0287,-89.3606,0.0,-0.0066,0.5988,0.1008,-0.0506,4.6203,-0.6936,-0.0338
98519,-106.6872,-4.8047,-0.0251,-0.0287,-89.3606,0.0,-0.0066,0.5988,0.1008,-0.0506,4.6203,-0.6936,-0.0338
98535,-106.6872,-4.8047,-0.0251,-0.0287,-89.3606,0.0,-0.0066,0.5988,0.1008,-0.0506,4.6203,-0.6936,-0.0338
98551,-106.6881,-4.72,-0.0177,-0.0487,-89.3612,0.0,-0.0107,0.9576,0.0523,-0.039,3.4216,-0.4625,0.0006
98567,-106.6881,-4.72,-0.0177,-0.0487,-89.3612,0.0,-0.0107,0.9576,0.0523,-0.039,3.4216,-0.4625,0.0006
98583,-106.6881,-4.72,-0.0177,-0.0487,-89.3612,0.0,-0.0107,0.9576,0.0523,-0.039,3.4216,-0.4625,0.0006
98599,-106.6881,-4.72,-0.0177,-0.0487,-89.3612,0.0,-0.0107,0.9576,0.0523,-0.039,3.4216,-0.4625,0.0006
98615,-106.6881,-4.72,-0.0177,-0.0487,-89.3612,0.0,-0.0107,0.9576,0.0523,-0.039,3.4216,-0.4625,0.0006
98631,-106.6881,-4.72,-0.0177,-0.0487,-89.3612,0.0,-0.0107,0.9576,0.0523,-0.039,3.4216,-0.4625,0.0006
98647,-106.6881,-4.72,-0.0177,-0.0487,-89.3612,0.0,-0.0107,0.9576,0.0523,-0.039,3.4216,-0.4625,0.0006
98663,-106.6893,-4.6188,-0.0139,-0.0396,-89.3531,-0.0,-0.0117,1.0857,0.0311,-0.0094,1.2172,-0.2007,1.1802
98679,-106.6893,-4.6188,-0.0139,-0.0396,-89.3531,-0.0,-0.0117,1.0857,0.0311,-0.0094,1.2172,-0.2007,1.1802
98695,-106.6893,-4.6188,-0.0139,-0.0396,-89.3531,-0.0,-0.0117,1.0857,0.0311,-0.0094,1.2172,-0.2007,1.1802
98711,-106.6893,-4.6188,-0.0139,-0.0396,-89.3531,-0.0,-0.0117,1.0857,0.0311,-0.0094,1.2172,-0.2007,1.1802
98727,-106.6893,-4.6188,-0.0139,-0.0396,-89.3531,-0.0,-0.0117,1.0857,0.0311,-0.0094,1.2172,-0.2007,1.1802
98743,-106.6893,-4.6188,-0.0139,-0.0396,-89.3531,-0.0,-0.0117,1.0857,0.0311,-0.0094,1.2172,-0.2007,1.1802
98770,-106.6918,-4.4909,-0.0121,-0.0398,-89.3428,0.0023,-0.0292,1.3155,0.0112,-0.1595,2.0941,-0.182,-3.8833
98775,-106.6918,-4.4909,-0.0121,-0.0398,-89.3428,0.0023,-0.0292,1.3155,0.0112,-0.1595,2.0941,-0.182,-3.8833
98791,-106.6918,-4.4909,-0.0121,-0.0398,-89.3428,0.0023,-0.0292,1.3155,0.0112,-0.1595,2.0941,-0.182,-3.8833
98807,-106.6918,-4.4909,-0.0121,-0.0398,-89.3428,0.0023,-0.0292,1.3155,0.0112,-0.1595,2.0941,-0.182,-3.8833
98823,-106.6918,-4.4909,-0.0121,-0.0398,-89.3428,0.0023,-0.0292,1.3155,0.0112,-0.1595,2.0941,-0.182,-3.8833
98839,-106.6918,-4.4909,-0.0121,-0.0398,-89.3428,0.0023,-0.0292,1.3155,0.0112,-0.1595,2.0941,-0.182,-3.8833
98855,-106.6918,-4.4909,-0.0121,-0.0398,-89.3428,0.0023,-0.0292,1.3155,0.0112,-0.1595,2.0941,-0.182,-3.8833
98875,-106.6942,-4.3605,-0.0115,-0.0239,-89.2926,-0.0003,-0.0168,1.306,0.0044,0.1127,-0.0867,-0.0618,-4.4318
98887,-106.6942,-4.3605,-0.0115,-0.0239,-89.2926,-0.0003,-0.0168,1.306,0.0044,0.1127,-0.0867,-0.0618,-4.4318
98903,-106.6942,-4.3605,-0.0115,-0.0239,-89.2926,-0.0003,-0.0168,1.306,0.0044,0.1127,-0.0867,-0.0618,-4.4318
98919,-106.6942,-4.3605,-0.0115,-0.0239,-89.2926,-0.0003,-0.0168,1.306,0.0044,0.1127,-0.0867,-0.0618,-4.4318
98935,-106.6942,-4.3605,-0.0115,-0.0239,-89.2926,-0.0003,-0.0168,1.306,0.0044,0.1127,-0.0867,-0.0618,-4.4318
98951,-106.6942,-4.3605,-0.0115,-0.0239,-89.2926,-0.0003,-0.0168,1.306,0.0044,0.1127,-0.0867,-0.0618,-4.4318
98967,-106.6942,-4.3605,-0.0115,-0.0239,-89.2926,-0.0003,-0.0168,1.306,0.0044,0.1127,-0.0867,-0.0618,-4.4318
98983,-106.6959,-4.2074,-0.0111,-0.0367,-89.2511,-0.0014,-0.0212,1.837,0.0019,-0.044,5.3076,-0.0249,-0.4713
98999,-106.6959,-4.2074,-0.0111,-0.0367,-89.2511,-0.0014,-0.0212,1.837,0.0019,-0.044,5.3076,-0.0249,-0.4713
99015,-106.6959,-4.2074,-0.0111,-0.0367,-89.2511,-0.0014,-0.0212,1.837,0.0019,-0.044,5.3076,-0.0249,-0.4713
99031,-106.6959,-4.2074,-0.0111,-0.0367,-89.2511,-0.0014,-0.0212,1.837,0.0019,-0.044,5.3076,-0.0249,-0.4713
99047,-106.6959,-4.2074,-0.0111,-0.0367,-89.2511,-0.0014,-0.0212,1.837,0.0019,-0.044,5.3076,-0.0249,-0.4713
99063,-106.6959,-4.2074,-0.0111,-0.0367,-89.2511,-0.0014,-0.0212,1.837,0.0019,-0.044,5.3076,-0.0249,-0.4713
99079,-106.6985,-3.99,-0.0107,-0.0711,-89.2693,-0.0002,-0.0321,2.5529,0.0009,-0.106,7.0033,-0.0102,-3.0968
99095,-106.6985,-3.99,-0.0107,-0.0711,-89.2693,-0.0002,-0.0321,2.5529,0.0009,-0.106,7.0033,-0.0102,-3.0968
99111,-106.6985,-3.99,-0.0107,-0.0711,-89.2693,-0.0002,-0.0321,2.5529,0.0009,-0.106,7.0033,-0.0102,-3.0968
99127,-106.6985,-3.99,-0.0107,-0.0711,-89.2693,-0.0002,-0.0321,2.5529,0.0009,-0.106,7.0033,-0.0102,-3.0968
99143,-106.6985,-3.99,-0.0107,-0.0711,-89.2693,-0.0002,-0.0321,2.5529,0.0009,-0.106,7.0033,-0.0102,-3.0968
99159,-106.6985,-3.99,-0.0107,-0.0711,-89.2693,-0.0002,-0.0321,2.5529,0.0009,-0.106,7.0033,-0.0102,-3.0968
99175,-106.7016,-3.7341,-0.0106,-0.0772,-89.2821,-0.0001,-0.0369,2.9857,0.0004,-0.0505,4.5752,-0.0048,2.0844
99191,-106.7016,-3.7341,-0.0106,-0.0772,-89.2821,-0.0001,-0.0369,2.9857,0.0004,-0.0505,4.5752,-0.0048,2.0844
99207,-106.7016,-3.7341,-0.0106,-0.0772,-89.2821,-0.0001,-0.0369,2.9857,0.0004,-0.0505,4.5752,-0.0048,2.0844
99223,-106.7016,-3.7341,-0.0106,-0.0772,-89.2821,-0.0001,-0.0369,2.9857,0.0004,-0.0505,4.5752,-0.0048,2.0844
99239,-106.7016,-3.7341,-0.0106,-0.0772,-89.2821,-0.0001,-0.0369,2.9857,0.0004,-0.0505,4.5752,-0.0048,2.0844
99255,-106.7016,-3.7341,-0.0106,-0.0772,-89.2821,-0.0001,-0.0369,2.9857,0.0004,-0.0505,4.5752,-0.0048,2.0844
99271,-106.7016,-3.7341,-0.0106,-0.0772,-89.2821,-0.0001,-0.0369,2.9857,0.0004,-0.0505,4.5752,-0.0048,2.0844
99287,-106.7065,-3.4009,-0.0105,-0.0916,-89.2358,0.001,-0.053,3.7457,0.0002,-0.1471,6.9363,-0.0017,-0.6917
99303,-106.7065,-3.4009,-0.0105,-0.0916,-89.2358,0.001,-0.053,3.7457,0.0002,-0.1471,6.9363,-0.0017,-0.6917
99319,-106.7065,-3.4009,-0.0105,-0.0916,-89.2358,0.001,-0.053,3.7457,0.0002,-0.1471,6.9363,-0.0017,-0.6917
99335,-106.7065,-3.4009,-0.0105,-0.0916,-89.2358,0.001,-0.053,3.7457,0.0002,-0.1471,6.9363,-0.0017,-0.6917
99351,-106.7065,-3.4009,-0.0105,-0.0916,-89.2358,0.001,-0.053,3.7457,0.0002,-0.1471,6.9363,-0.0017,-0.6917
99367,-106.7065,-3.4009,-0.0105,-0.0916,-89.2358,0.001,-0.053,3.7457,0.0002,-0.1471,6.9363,-0.0017,-0.6917
99383,-106.7065,-3.4009,-0.0105,-0.0916,-89.2358,0.001,-0.053,3.7457,0.0002,-0.1471,6.9363,-0.0017,-0.6917
99399,-106.7125,-3.006,-0.0105,-0.0951,-89.2053,0.0013,-0.063,4.2364,0.0001,-0.0895,4.3693,-0.001,-4.2934
99415,-106.7125,-3.006,-0.0105,-0.0951,-89.2053,0.0013,-0.063,4.2364,0.0001,-0.0895,4.3693,-0.001,-4.2934
99431,-106.7125,-3.006,-0.0105,-0.0951,-89.2053,0.0013,-0.063,4.2364,0.0001,-0.0895,4.3693,-0.001,-4.2934
99447,-106.7125,-3.006,-0.0105,-0.0951,-89.2053,0.0013,-0.063,4.2364,0.0001,-0.0895,4.3693,-0.001,-4.2934
99463,-106.7125,-3.006,-0.0105,-0.0951,-89.2053,0.0013,-0.063,4.2364,0.0001,-0.0895,4.3693,-0.001,-4.2934
99479,-106.7125,-3.006,-0.0105,-0.0951,-89.2053,0.0013,-0.063,4.2364,0.0001,-0.0895,4.3693,-0.001,-4.2934
99500,-106.7193,-2.5429,-0.0104,-0.108,-89.1903,0.0005,-0.0732,5.114,0.0,-0.1004,8.6504,-0.0007,-0.3247
99511,-106.7193,-2.5429,-0.0104,-0.108,-89.1903,0.0005,-0.0732,5.114,0.0,-0.1004,8.6504,-0.0007,-0.3247
99527,-106.7193,-2.5429,-0.0104,-0.108,-89.1903,0.0005,-0.0732,5.114,0.0,-0.1004,8.6504,-0.0007,-0.3247
99543,-106.7193,-2.5429,-0.0104,-0.108,-89.1903,0.0005,-0.0732,5.114,0.0,-0.1004,8.6504,-0.0007,-0.3247
99559,-106.7193,-2.5429,-0.0104,-0.108,-89.1903,0.0005,-0.0732,5.114,0.0,-0.1004,8.6504,-0.0007,-0.3247
99575,-106.7193,-2.5429,-0.0104,-0.108,-89.1903,0.0005,-0.0732,5.114,0.0,-0.1004,8.6504,-0.0007,-0.3247
99596,-106.7266,-2.0103,-0.0104,-0.1063,-89.2083,-0.0001,-0.0784,5.6535,0.0,-0.0509,5.2891,-0.0,0.6308
99607,-106.7266,-2.0103,-0.0104,-0.1063,-89.2083,-0.0001,-0.0784,5.6535,0.0,-0.0509,5.2891,-0.0,0.6308
99623,-106.7266,-2.0103,-0.0104,-0.1063,-89.2083,-0.0001,-0.0784,5.6535,0.0,-0.0509,5.2891,-0.0,0.6308
99639,-106.7266,-2.0103,-0.0104,-0.1063,-89.2083,-0.0001,-0.0784,5.6535,0.0,-0.0509,5.2891,-0.0,0.6308
99655,-106.7266,-2.0103,-0.0104,-0.1063,-89.2083,-0.0001,-0.0784,5.6535,0.0,-0.0509,5.2891,-0.0,0.6308
99671,-106.7266,-2.0103,-0.0104,-0.1063,-89.2083,-0.0001,-0.0784,5.6535,0.0,-0.0509,5.2891,-0.0,0.6308
99687,-106.7266,-2.0103,-0.0104,-0.1063,-89.2083,-0.0001,-0.0784,5.6535,0.0,-0.0509,5.2891,-0.0,0.6308
99703,-106.7348,-1.4222,-0.0104,-0.0993,-89.2105,-0.0002,-0.0863,6.1759,0.0,-0.0776,5.1625,-0.0001,-1.4899
99719,-106.7348,-1.4222,-0.0104,-0.0993,-89.2105,-0.0002,-0.0863,6.1759,0.0,-0.0776,5.1625,-0.0001,-1.4899
99735,-106.7348,-1.4222,-0.0104,-0.0993,-89.2105,-0.0002,-0.0863,6.1759,0.0,-0.0776,5.1625,-0.0001,-1.4899
99751,-106.7348,-1.4222,-0.0104,-0.0993,-89.2105,-0.0002,-0.0863,6.1759,0.0,-0.0776,5.1625,-0.0001,-1.4899
99767,-106.7348,-1.4222,-0.0104,-0.0993,-89.2105,-0.0002,-0.0863,6.1759,0.0,-0.0776,5.1625,-0.0001,-1.4899
99783,-106.7348,-1.4222,-0.0104,-0.0993,-89.2105,-0.0002,-0.0863,6.1759,0.0,-0.0776,5.1625,-0.0001,-1.4899
99808,-106.744,-0.7765,-0.0104,-0.0984,-89.1816,0.0002,-0.0951,6.7851,-0.0,-0.0842,5.777,-0.0002,1.5608
99815,-106.744,-0.7765,-0.0104,-0.0984,-89.1816,0.0002,-0.0951,6.7851,-0.0,-0.0842,5.777,-0.0002,1.5608
99831,-106.744,-0.7765,-0.0104,-0.0984,-89.1816,0.0002,-0.0951,6.7851,-0.0,-0.0842,5.777,-0.0002,1.5608
99847,-106.744,-0.7765,-0.0104,-0.0984,-89.1816,0.0002,-0.0951,6.7851,-0.0,-0.0842,5.777,-0.0002,1.5608
99863,-106.744,-0.7765,-0.0104,-0.0984,-89.1816,0.0002,-0.0951,6.7851,-0.0,-0.0842,5.777,-0.0002,1.5608
99879,-106.744,-0.7765,-0.0104,-0.0984,-89.1816,0.0002,-0.0951,6.7851,-0.0,-0.0842,5.777,-0.0002,1.5608
99895,-106.744,-0.7765,-0.0104,-0.0984,-89.1816,0.0002,-0.0951,6.7851,-0.0,-0.0842,5.777,-0.0002,1.5608
99911,-106.744,-0.7765,-0.0104,-0.0984,-89.1816,0.0002,-0.0951,6.7851,-0.0,-0.0842,5.777,-0.0002,1.5608
99927,-106.7541,-0.0643,-0.0104,-0.1036,-89.1849,0.0003,-0.1067,7.4671,0.0,-0.1029,6.0532,0.0001,-1.1103
99943,-106.7541,-0.0643,-0.0104,-0.1036,-89.1849,0.0003,-0.1067,7.4671,0.0,-0.1029,6.0532,0.0001,-1.1103
99959,-106.7541,-0.0643,-0.0104,-0.1036,-89.1849,0.0003,-0.1067,7.4671,0.0,-0.1029,6.0532,0.0001,-1.1103
99975,-106.7541,-0.0643,-0.0104,-0.1036,-89.1849,0.0003,-0.1067,7.4671,0.0,-0.1029,6.0532,0.0001,-1.1103
99991,-106.7541,-0.0643,-0.0104,-0.1036,-89.1849,0.0003,-0.1067,7.4671,0.0,-0.1029,6.0532,0.0001,-1.1103
100007,-106.7541,-0.0643,-0.0104,-0.1036,-89.1849,0.0003,-0.1067,7.4671,0.0,-0.1029,6.0532,0.0001,-1.1103
100027,-106.7653,0.7161,-0.0104,-0.107,-89.1783,0.0003,-0.1158,8.1261,-0.0,-0.0823,5.9746,-0.0001,0.8668
100039,-106.7653,0.7161,-0.0104,-0.107,-89.1783,0.0003,-0.1158,8.1261,-0.0,-0.0823,5.9746,-0.0001,0.8668
100055,-106.7653,0.7161,-0.0104,-0.107,-89.1783,0.0003,-0.1158,8.1261,-0.0,-0.0823,5.9746,-0.0001,0.8668
100071,-106.7653,0.7161,-0.0104,-0.107,-89.1783,0.0003,-0.1158,8.1261,-0.0,-0.0823,5.9746,-0.0001,0.8668
100087,-106.7653,0.7161,-0.0104,-0.107,-89.1783,0.0003,-0.1158,8.1261,-0.0,-0.0823,5.9746,-0.0001,0.8668
100103,-106.7653,0.7161,-0.0104,-0.107,-89.1783,0.0003,-0.1158,8.1261,-0.0,-0.0823,5.9746,-0.0001,0.8668
100124,-106.7772,1.5549,-0.0104,-0.106,-89.1819,0.0002,-0.1251,8.7389,0.0,-0.0938,6.1676,0.0001,-0.5315
100135,-106.7772,1.5549,-0.0104,-0.106,-89.1819,0.0002,-0.1251,8.7389,0.0,-0.0938,6.1676,0.0001,-0.5315
100151,-106.7772,1.5549,-0.0104,-0.106,-89.1819,0.0002,-0.1251,8.7389,0.0,-0.0938,6.1676,0.0001,-0.5315
100167,-106.7772,1.5549,-0.0104,-0.106,-89.1819,0.0002,-0.1251,8.7389,0.0,-0.0938,6.1676,0.0001,-0.5315
100183,-106.7772,1.5549,-0.0104,-0.106,-89.1819,0.0002,-0.1251,8.7389,0.0,-0.0938,6.1676,0.0001,-0.5315
100199,-106.7772,1.5549,-0.0104,-0.106,-89.1819,0.0002,-0.1251,8.7389,0.0,-0.0938,6.1676,0.0001,-0.5315
100215,-106.7772,1.5549,-0.0104,-0.106,-89.1819,0.0002,-0.1251,8.7389,0.0,-0.0938,6.1676,0.0001,-0.5315
100231,-106.7772,1.5549,-0.0104,-0.106,-89.1819,0.0002,-0.1251,8.7389,0.0,-0.0938,6.1676,0.0001,-0.5315
100247,-106.7902,2.4575,-0.0104,-0.1012,-89.1798,0.0001,-0.1328,9.2876,-0.0,-0.0762,5.4509,-0.0001,0.2431
100263,-106.7902,2.4575,-0.0104,-0.1012,-89.1798,0.0001,-0.1328,9.2876,-0.0,-0.0762,5.4509,-0.0001,0.2431
100279,-106.7902,2.4575,-0.0104,-0.1012,-89.1798,0.0001,-0.1328,9.2876,-0.0,-0.0762,5.4509,-0.0001,0.2431
100295,-106.7902,2.4575,-0.0104,-0.1012,-89.1798,0.0001,-0.1328,9.2876,-0.0,-0.0762,5.4509,-0.0001,0.2431
100311,-106.7902,2.4575,-0.0104,-0.1012,-89.1798,0.0001,-0.1328,9.2876,-0.0,-0.0762,5.4509,-0.0001,0.2431
100331,-106.8038,3.4128,-0.0105,-0.0948,-89.1805,0.0001,-0.1402,9.7981,0.0,-0.0678,4.6804,0.0001,-0.0314
100343,-106.8038,3.4128,-0.0105,-0.0948,-89.1805,0.0001,-0.1402,9.7981,0.0,-0.0678,4.6804,0.0001,-0.0314
100359,-106.8038,3.4128,-0.0105,-0.0948,-89.1805,0.0001,-0.1402,9.7981,0.0,-0.0678,4.6804,0.0001,-0.0314
100375,-106.8038,3.4128,-0.0105,-0.0948,-89.1805,0.0001,-0.1402,9.7981,0.0,-0.0678,4.6804,0.0001,-0.0314
100391,-106.8038,3.4128,-0.0105,-0.0948,-89.1805,0.0001,-0.1402,9.7981,0.0,-0.0678,4.6804,0.0001,-0.0314
100407,-106.8038,3.4128,-0.0105,-0.0948,-89.1805,0.0001,-0.1402,9.7981,0.0,-0.0678,4.6804,0.0001,-0.0314
100423,-106.8038,3.4128,-0.0105,-0.0948,-89.1805,0.0001,-0.1402,9.7981,0.0,-0.0678,4.6804,0.0001,-0.0314
100439,-106.8038,3.4128,-0.0105,-0.0948,-89.1805,0.0001,-0.1402,9.7981,0.0,-0.0678,4.6804,0.0001,-0.0314
100455,-106.8182,4.4187,-0.0105,-0.0898,-89.1803,0.0,-0.1473,10.2954,0.0,-0.0703,4.9202,-0.0001,0.0002
100471,-106.8182,4.4187,-0.0105,-0.0898,-89.1803,0.0,-0.1473,10.2954,0.0,-0.0703,4.9202,-0.0001,0.0002
100487,-106.8182,4.4187,-0.0105,-0.0898,-89.1803,0.0,-0.1473,10.2954,0.0,-0.0703,4.9202,-0.0001,0.0002
100503,-106.8182,4.4187,-0.0105,-0.0898,-89.1803,0.0,-0.1473,10.2954,0.0,-0.0703,4.9202,-0.0001,0.0002
100519,-106.8182,4.4187,-0.0105,-0.0898,-89.1803,0.0,-0.1473,10.2954,0.0,-0.0703,4.9202,-0.0001,0.0002
100535,-106.8182,4.4187,-0.0105,-0.0898,-89.1803,0.0,-0.1473,10.2954,0.0,-0.0703,4.9202,-0.0001,0.0002
100551,-106.8333,5.4731,-0.0105,-0.0853,-89.1804,0.0,-0.1539,10.7607,0.0,-0.0596,4.1687,0.0,0.0002
100567,-106.8333,5.4731,-0.0105,-0.0853,-89.1804,0.0,-0.1539,10.7607,0.0,-0.0596,4.1687,0.0,0.0002
100583,-106.8333,5.4731,-0.0105,-0.0853,-89.1804,0.0,-0.1539,10.7607,0.0,-0.0596,4.1687,0.0,0.0002
100599,-106.8333,5.4731,-0.0105,-0.0853,-89.1804,0.0,-0.1539,10.7607,0.0,-0.0596,4.1687,0.0,0.0002
100615,-106.8333,5.4731,-0.0105,-0.0853,-89.1804,0.0,-0.1539,10.7607,0.0,-0.0596,4.1687,0.0,0.0002
100631,-106.8333,5.4731,-0.0105,-0.0853,-89.1804,0.0,-0.1539,10.7607,0.0,-0.0596,4.1687,0.0,0.0002
100652,-106.8488,6.5562,-0.0106,-0.0802,-89.1804,0.0,-0.16,11.1852,0.0,-0.0616,4.3073,-0.0,-0.0001
100663,-106.8488,6.5562,-0.0106,-0.0802,-89.1804,0.0,-0.16,11.1852,0.0,-0.0616,4.3073,-0.0,-0.0001
100679,-106.8488,6.5562,-0.0106,-0.0802,-89.1804,0.0,-0.16,11.1852,0.0,-0.0616,4.3073,-0.0,-0.0001
100695,-106.8488,6.5562,-0.0106,-0.0802,-89.1804,0.0,-0.16,11.1852,0.0,-0.0616,4.3073,-0.0,-0.0001
100711,-106.8488,6.5562,-0.0106,-0.0802,-89.1804,0.0,-0.16,11.1852,0.0,-0.0616,4.3073,-0.0,-0.0001
100727,-106.8488,6.5562,-0.0106,-0.0802,-89.1804,0.0,-0.16,11.1852,0.0,-0.0616,4.3073,-0.0,-0.0001
100748,-106.8651,7.6958,-0.0106,-0.0746,-89.1804,0.0,-0.1656,11.575,-0.0,-0.0548,3.8326,-0.0001,-0.0001
100759,-106.8651,7.6958,-0.0106,-0.0746,-89.1804,0.0,-0.1656,11.575,-0.0,-0.0548,3.8326,-0.0001,-0.0001
100775,-106.8651,7.6958,-0.0106,-0.0746,-89.1804,0.0,-0.1656,11.575,-0.0,-0.0548,3.8326,-0.0001,-0.0001
100791,-106.8651,7.6958,-0.0106,-0.0746,-89.1804,0.0,-0.1656,11.575,-0.0,-0.0548,3.8326,-0.0001,-0.0001
100823,-106.8651,7.6958,-0.0106,-0.0746,-89.1804,0.0,-0.1656,11.575,-0.0,-0.0548,3.8326,-0.0001,-0.0001
100839,-106.8651,7.6958,-0.0106,-0.0746,-89.1804,0.0,-0.1656,11.575,-0.0,-0.0548,3.8326,-0.0001,-0.0001
100855,-106.9117,8.8638,-0.0107,-0.0591,-90.5858,0.1245,-1.0016,11.7163,0.001,-8.3639,1.4134,0.01,-30.7206
100871,-106.9117,8.8638,-0.0107,-0.0591,-90.5858,0.1245,-1.0016,11.7163,0.001,-8.3639,1.4134,0.01,-30.7206
100887,-106.9117,8.8638,-0.0107,-0.0591,-90.5858,0.1245,-1.0016,11.7163,0.001,-8.3639,1.4134,0.01,-30.7206
100903,-106.9117,8.8638,-0.0107,-0.0591,-90.5858,0.1245,-1.0016,11.7163,0.001,-8.3639,1.4134,0.01,-30.7206
100919,-106.9117,8.8638,-0.0107,-0.0591,-90.5858,0.1245,-1.0016,11.7163,0.001,-8.3639,1.4134,0.01,-30.7206
100935,-106.9117,8.8638,-0.0107,-0.0591,-90.5858,0.1245,-1.0016,11.7163,0.001,-8.3639,1.4134,0.01,-30.7206
100951,-107.0215,10.0005,-0.0108,-0.0229,-96.0578,0.2568,-1.9153,11.5594,0.0011,-9.3415,-1.604,0.0008,-78.6993
100967,-107.0215,10.0005,-0.0108,-0.0229,-96.0578,0.2568,-1.9153,11.5594,0.0011,-9.3415,-1.604,0.0008,-78.6993
100983,-107.0215,10.0005,-0.0108,-0.0229,-96.0578,0.2568,-1.9153,11.5594,0.0011,-9.3415,-1.604,0.0008,-78.6993
100999,-107.0215,10.0005,-0.0108,-0.0229,-96.0578,0.2568,-1.9153,11.5594,0.0011,-9.3415,-1.604,0.0008,-78.6993
101015,-107.0215,10.0005,-0.0108,-0.0229,-96.0578,0.2568,-1.9153,11.5594,0.0011,-9.3415,-1.604,0.0008,-78.6993
101031,-107.0215,10.0005,-0.0108,-0.0229,-96.0578,0.2568,-1.9153,11.5594,0.0011,-9.3415,-1.604,0.0008,-78.6993
101052,-107.1641,11.1292,-0.011,0.0083,-106.8963,0.2535,-2.3597,11.3523,-0.0001,-4.3267,-2.0158,-0.0111,-134.1562
101063,-107.1641,11.1292,-0.011,0.0083,-106.8963,0.2535,-2.3597,11.3523,-0.0001,-4.3267,-2.0158,-0.0111,-134.1562
101079,-107.1641,11.1292,-0.011,0.0083,-106.8963,0.2535,-2.3597,11.3523,-0.0001,-4.3267,-2.0158,-0.0111,-134.1562
101095,-107.1641,11.1292,-0.011,0.0083,-106.8963,0.2535,-2.3597,11.3523,-0.0001,-4.3267,-2.0158,-0.0111,-134.1562
101111,-107.1641,11.1292,-0.011,0.0083,-106.8963,0.2535,-2.3597,11.3523,-0.0001,-4.3267,-2.0158,-0.0111,-134.1562
101127,-107.1641,11.1292,-0.011,0.0083,-106.8963,0.2535,-2.3597,11.3523,-0.0001,-4.3267,-2.0158,-0.0111,-134.1562
101148,-107.277,12.2023,-0.011,-0.0044,-123.0252,0.1098,-1.9185,11.3208,-0.0012,4.4423,-0.317,-0.0112,-183.0692
101159,-107.277,12.2023,-0.011,-0.0044,-123.0252,0.1098,-1.9185,11.3208,-0.0012,4.4423,-0.317,-0.0112,-183.0692
101175,-107.277,12.2023,-0.011,-0.0044,-123.0252,0.1098,-1.9185,11.3208,-0.0012,4.4423,-0.317,-0.0112,-183.0692
101191,-107.277,12.2023,-0.011,-0.0044,-123.0252,0.1098,-1.9185,11.3208,-0.0012,4.4423,-0.317,-0.0112,-183.0692
101207,-107.277,12.2023,-0.011,-0.0044,-123.0252,0.1098,-1.9185,11.3208,-0.0012,4.4423,-0.317,-0.0112,-183.0692
101223,-107.277,12.2023,-0.011,-0.0044,-123.0252,0.1098,-1.9185,11.3208,-0.0012,4.4423,-0.317,-0.0112,-183.0692
101239,-107.277,12.2023,-0.011,-0.0044,-123.0252,0.1098,-1.9185,11.3208,-0.0012,4.4423,-0.317,-0.0112,-183.0692
101255,-107.2675,13.2398,-0.0103,-0.1009,-142.5947,-0.1609,-0.0611,11.3198,0.001,18.4893,-0.0106,0.0213,-203.7507
101271,-107.2675,13.2398,-0.0103,-0.1009,-142.5947,-0.1609,-0.0611,11.3198,0.001,18.4893,-0.0106,0.0213,-203.7507
101287,-107.2675,13.2398,-0.0103,-0.1009,-142.5947,-0.1609,-0.0611,11.3198,0.001,18.4893,-0.0106,0.0213,-203.7507
101303,-107.2675,13.2398,-0.0103,-0.1009,-142.5947,-0.1609,-0.0611,11.3198,0.001,18.4893,-0.0106,0.0213,-203.7507
101319,-107.2675,13.2398,-0.0103,-0.1009,-142.5947,-0.1609,-0.0611,11.3198,0.001,18.4893,-0.0106,0.0213,-203.7507
101335,-107.2675,13.2398,-0.0103,-0.1009,-142.5947,-0.1609,-0.0611,11.3198,0.001,18.4893,-0.0106,0.0213,-203.7507
101351,-107.0761,14.2029,-0.0093,-0.2126,-163.5325,-0.4051,2.2689,10.6327,0.002,22.8242,-6.7306,0.0106,-213.2188
101367,-107.0761,14.2029,-0.0093,-0.2126,-163.5325,-0.4051,2.2689,10.6327,0.002,22.8242,-6.7306,0.0106,-213.2188
101383,-107.0761,14.2029,-0.0093,-0.2126,-163.5325,-0.4051,2.2689,10.6327,0.002,22.8242,-6.7306,0.0106,-213.2188
101399,-107.0761,14.2029,-0.0093,-0.2126,-163.5325,-0.4051,2.2689,10.6327,0.002,22.8242,-6.7306,0.0106,-213.2188
101431,-107.0761,14.2029,-0.0093,-0.2126,-163.5325,-0.4051,2.2689,10.6327,0.002,22.8242,-6.7306,0.0106,-213.2188
101453,-106.7414,15.0013,-0.0087,-0.2655,175.0692,-0.6634,3.7015,8.4878,0.0023,14.0337,-21.0112,0.0023,-212.779
101463,-106.7414,15.0013,-0.0087,-0.2655,175.0692,-0.6634,3.7015,8.4878,0.0023,14.0337,-21.0112,0.0023,-212.779
101479,-106.7414,15.0013,-0.0087,-0.2655,175.0692,-0.6634,3.7015,8.4878,0.0023,14.0337,-21.0112,0.0023,-212.779
101495,-106.7414,15.0013,-0.0087,-0.2655,175.0692,-0.6634,3.7015,8.4878,0.0023,14.0337,-21.0112,0.0023,-212.779
101511,-106.7414,15.0013,-0.0087,-0.2655,175.0692,-0.6634,3.7015,8.4878,0.0023,14.0337,-21.0112,0.0023,-212.779
101527,-106.7414,15.0013,-0.0087,-0.2655,175.0692,-0.6634,3.7015,8.4878,0.0023,14.0337,-21.0112,0.0023,-212.779
101547,-106.4589,15.5699,-0.0092,-0.1955,155.6219,-0.8621,2.5654,6.4415,-0.003,-11.6858,-21.0476,-0.0547,-187.5822
101559,-106.4589,15.5699,-0.0092,-0.1955,155.6219,-0.8621,2.5654,6.4415,-0.003,-11.6858,-21.0476,-0.0547,-187.5822
101575,-106.4589,15.5699,-0.0092,-0.1955,155.6219,-0.8621,2.5654,6.4415,-0.003,-11.6858,-21.0476,-0.0547,-187.5822
101591,-106.4589,15.5699,-0.0092,-0.1955,155.6219,-0.8621,2.5654,6.4415,-0.003,-11.6858,-21.0476,-0.0547,-187.5822
101607,-106.4589,15.5699,-0.0092,-0.1955,155.6219,-0.8621,2.5654,6.4415,-0.003,-11.6858,-21.0476,-0.0547,-187.5822
101623,-106.4589,15.5699,-0.0092,-0.1955,155.6219,-0.8621,2.5654,6.4415,-0.003,-11.6858,-21.0476,-0.0547,-187.5822
101639,-106.4589,15.5699,-0.0092,-0.1955,155.6219,-0.8621,2.5654,6.4415,-0.003,-11.6858,-21.0476,-0.0547,-187.5822
101655,-106.3968,16.0579,-0.0102,-0.0318,138.7281,-0.9253,0.2292,5.8204,0.0012,-23.2292,-6.1749,0.0427,-146.291
101671,-106.3968,16.0579,-0.0102,-0.0318,138.7281,-0.9253,0.2292,5.8204,0.0012,-23.2292,-6.1749,0.0427,-146.291
101687,-106.3968,16.0579,-0.0102,-0.0318,138.7281,-0.9253,0.2292,5.8204,0.0012,-23.2292,-6.1749,0.0427,-146.291
101703,-106.3968,16.0579,-0.0102,-0.0318,138.7281,-0.9253,0.2292,5.8204,0.0012,-23.2292,-6.1749,0.0427,-146.291
101719,-106.3968,16.0579,-0.0102,-0.0318,138.7281,-0.9253,0.2292,5.8204,0.0012,-23.2292,-6.1749,0.0427,-146.291
101735,-106.3968,16.0579,-0.0102,-0.0318,138.7281,-0.9253,0.2292,5.8204,0.0012,-23.2292,-6.1749,0.0427,-146.291
101756,-106.5611,16.6275,-0.0115,0.1431,127.0502,-0.7593,-1.8101,6.7636,-0.001,-20.4881,9.4755,-0.0229,-96.4926
101767,-106.5611,16.6275,-0.0115,0.1431,127.0502,-0.7593,-1.8101,6.7636,-0.001,-20.4881,9.4755,-0.0229,-96.4926
101783,-106.5611,16.6275,-0.0115,0.1431,127.0502,-0.7593,-1.8101,6.7636,-0.001,-20.4881,9.4755,-0.0229,-96.4926
101799,-106.5611,16.6275,-0.0115,0.1431,127.0502,-0.7593,-1.8101,6.7636,-0.001,-20.4881,9.4755,-0.0229,-96.4926
101815,-106.5611,16.6275,-0.0115,0.1431,127.0502,-0.7593,-1.8101,6.7636,-0.001,-20.4881,9.4755,-0.0229,-96.4926
101831,-106.5611,16.6275,-0.0115,0.1431,127.0502,-0.7593,-1.8101,6.7636,-0.001,-20.4881,9.4755,-0.0229,-96.4926
101847,-106.794,17.2729,-0.0121,0.2004,118.8899,-0.4315,-1.9262,7.7176,-0.0026,-1.255,10.3204,-0.017,-86.4018
101863,-106.794,17.2729,-0.0121,0.2004,118.8899,-0.4315,-1.9262,7.7176,-0.0026,-1.255,10.3204,-0.017,-86.4018
101879,-106.794,17.2729,-0.0121,0.2004,118.8899,-0.4315,-1.9262,7.7176,-0.0026,-1.255,10.3204,-0.017,-86.4018
101895,-106.794,17.2729,-0.0121,0.2004,118.8899,-0.4315,-1.9262,7.7176,-0.0026,-1.255,10.3204,-0.017,-86.4018
101911,-106.794,17.2729,-0.0121,0.2004,118.8899,-0.4315,-1.9262,7.7176,-0.0026,-1.255,10.3204,-0.017,-86.4018
101943,-106.9922,18.0166,-0.0123,0.1825,110.8264,-0.0808,-1.1922,8.4382,-0.0031,7.7776,7.6365,-0.0052,-86.8002
101959,-106.9922,18.0166,-0.0123,0.1825,110.8264,-0.0808,-1.1922,8.4382,-0.0031,7.7776,7.6365,-0.0052,-86.8002
101975,-106.9922,18.0166,-0.0123,0.1825,110.8264,-0.0808,-1.1922,8.4382,-0.0031,7.7776,7.6365,-0.0052,-86.8002
101991,-106.9922,18.0166,-0.0123,0.1825,110.8264,-0.0808,-1.1922,8.4382,-0.0031,7.7776,7.6365,-0.0052,-86.8002
102007,-106.9922,18.0166,-0.0123,0.1825,110.8264,-0.0808,-1.1922,8.4382,-0.0031,7.7776,7.6365,-0.0052,-86.8002
102023,-106.9922,18.0166,-0.0123,0.1825,110.8264,-0.0808,-1.1922,8.4382,-0.0031,7.7776,7.6365,-0.0052,-86.8002
102039,-107.1617,18.8747,-0.0123,0.15,104.202,-0.0147,-1.5577,8.8542,-0.0011,-3.5229,4.011,0.0188,-41.7087
102055,-107.1617,18.8747,-0.0123,0.15,104.202,-0.0147,-1.5577,8.8542,-0.0011,-3.5229,4.011,0.0188,-41.7087
102071,-107.1617,18.8747,-0.0123,0.15,104.202,-0.0147,-1.5577,8.8542,-0.0011,-3.5229,4.011,0.0188,-41.7087
102087,-107.1617,18.8747,-0.0123,0.15,104.202,-0.0147,-1.5577,8.8542,-0.0011,-3.5229,4.011,0.0188,-41.7087
102103,-107.1617,18.8747,-0.0123,0.15,104.202,-0.0147,-1.5577,8.8542,-0.0011,-3.5229,4.011,0.0188,-41.7087
102119,-107.1617,18.8747,-0.0123,0.15,104.202,-0.0147,-1.5577,8.8542,-0.0011,-3.5229,4.011,0.0188,-41.7087
102142,-107.3471,19.7136,-0.012,0.1085,102.188,-0.0831,-1.9058,8.987,0.0006,-3.6885,1.4068,0.0184,-11.7321
102151,-107.3471,19.7136,-0.012,0.1085,102.188,-0.0831,-1.9058,8.987,0.0006,-3.6885,1.4068,0.0184,-11.7321
102167,-107.3471,19.7136,-0.012,0.1085,102.188,-0.0831,-1.9058,8.987,0.0006,-3.6885,1.4068,0.0184,-11.7321
102183,-107.3471,19.7136,-0.012,0.1085,102.188,-0.0831,-1.9058,8.987,0.0006,-3.6885,1.4068,0.0184,-11.7321
102199,-107.3471,19.7136,-0.012,0.1085,102.188,-0.0831,-1.9058,8.987,0.0006,-3.6885,1.4068,0.0184,-11.7321
102215,-107.3471,19.7136,-0.012,0.1085,102.188,-0.0831,-1.9058,8.987,0.0006,-3.6885,1.4068,0.0184,-11.7321
102231,-107.3471,19.7136,-0.012,0.1085,102.188,-0.0831,-1.9058,8.987,0.0006,-3.6885,1.4068,0.0184,-11.7321
102247,-107.5426,20.6173,-0.0117,0.0707,101.6282,-0.0543,-1.9134,9.0936,0.0,-0.0688,0.9767,-0.0052,-3.8235
102263,-107.5426,20.6173,-0.0117,0.0707,101.6282,-0.0543,-1.9134,9.0936,0.0,-0.0688,0.9767,-0.0052,-3.8235
102279,-107.5426,20.6173,-0.0117,0.0707,101.6282,-0.0543,-1.9134,9.0936,0.0,-0.0688,0.9767,-0.0052,-3.8235
102295,-107.5426,20.6173,-0.0117,0.0707,101.6282,-0.0543,-1.9134,9.0936,0.0,-0.0688,0.9767,-0.0052,-3.8235
102311,-107.5426,20.6173,-0.0117,0.0707,101.6282,-0.0543,-1.9134,9.0936,0.0,-0.0688,0.9767,-0.0052,-3.8235
102327,-107.5426,20.6173,-0.0117,0.0707,101.6282,-0.0543,-1.9134,9.0936,0.0,-0.0688,0.9767,-0.0052,-3.8235
102347,-107.7284,21.5065,-0.0115,0.0471,101.4799,-0.0247,-1.8946,9.1886,-0.0002,0.1933,0.9765,-0.0018,-1.6561
102359,-107.7284,21.5065,-0.0115,0.0471,101.4799,-0.0247,-1.8946,9.1886,-0.0002,0.1933,0.9765,-0.0018,-1.6561
102375,-107.7284,21.5065,-0.0115,0.0471,101.4799,-0.0247,-1.8946,9.1886,-0.0002,0.1933,0.9765,-0.0018,-1.6561
102391,-107.7284,21.5065,-0.0115,0.0471,101.4799,-0.0247,-1.8946,9.1886,-0.0002,0.1933,0.9765,-0.0018,-1.6561
102407,-107.7284,21.5065,-0.0115,0.0471,101.4799,-0.0247,-1.8946,9.1886,-0.0002,0.1933,0.9765,-0.0018,-1.6561
102423,-107.7284,21.5065,-0.0115,0.0471,101.4799,-0.0247,-1.8946,9.1886,-0.0002,0.1933,0.9765,-0.0018,-1.6561
102439,-107.7284,21.5065,-0.0115,0.0471,101.4799,-0.0247,-1.8946,9.1886,-0.0002,0.1933,0.9765,-0.0018,-1.6561
102455,-107.9175,22.4292,-0.0114,0.0317,101.4373,-0.0092,-1.8871,9.2592,-0.0001,0.0715,0.6752,0.0007,-1.1272
102471,-107.9175,22.4292,-0.0114,0.0317,101.4373,-0.0092,-1.8871,9.2592,-0.0001,0.0715,0.6752,0.0007,-1.1272
102487,-107.9175,22.4292,-0.0114,0.0317,101.4373,-0.0092,-1.8871,9.2592,-0.0001,0.0715,0.6752,0.0007,-1.1272
102503,-107.9175,22.4292,-0.0114,0.0317,101.4373,-0.0092,-1.8871,9.2592,-0.0001,0.0715,0.6752,0.0007,-1.1272
102519,-107.9175,22.4292,-0.0114,0.0317,101.4373,-0.0092,-1.8871,9.2592,-0.0001,0.0715,0.6752,0.0007,-1.1272
102535,-107.9175,22.4292,-0.0114,0.0317,101.4373,-0.0092,-1.8871,9.2592,-0.0001,0.0715,0.6752,0.0007,-1.1272
102556,-108.1064,23.3586,-0.0113,0.0226,101.4253,-0.0029,-1.8905,9.324,-0.0,-0.0325,0.6172,0.0006,-0.9564
102567,-108.1064,23.3586,-0.0113,0.0226,101.4253,-0.0029,-1.8905,9.324,-0.0,-0.0325,0.6172,0.0006,-0.9564
102583,-108.1064,23.3586,-0.0113,0.0226,101.4253,-0.0029,-1.8905,9.324,-0.0,-0.0325,0.6172,0.0006,-0.9564
102599,-108.1064,23.3586,-0.0113,0.0226,101.4253,-0.0029,-1.8905,9.324,-0.0,-0.0325,0.6172,0.0006,-0.9564
102615,-108.1064,23.3586,-0.0113,0.0226,101.4253,-0.0029,-1.8905,9.324,-0.0,-0.0325,0.6172,0.0006,-0.9564
102631,-108.1064,23.3586,-0.0113,0.0226,101.4253,-0.0029,-1.8905,9.324,-0.0,-0.0325,0.6172,0.0006,-0.9564
102652,-108.2959,24.2944,-0.0113,0.0173,101.4218,-0.0007,-1.899,9.3855,0.0,-0.0836,0.6034,0.0003,-0.901
102663,-108.2959,24.2944,-0.0113,0.0173,101.4218,-0.0007,-1.899,9.3855,0.0,-0.0836,0.6034,0.0003,-0.901
102679,-108.2959,24.2944,-0.0113,0.0173,101.4218,-0.0007,-1.899,9.3855,0.0,-0.0836,0.6034,0.0003,-0.901
102695,-108.2959,24.2944,-0.0113,0.0173,101.4218,-0.0007,-1.899,9.3855,0.0,-0.0836,0.6034,0.0003,-0.901
102711,-108.2959,24.2944,-0.0113,0.0173,101.4218,-0.0007,-1.899,9.3855,0.0,-0.0836,0.6034,0.0003,-0.901
102727,-108.2959,24.2944,-0.0113,0.0173,101.4218,-0.0007,-1.899,9.3855,0.0,-0.0836,0.6034,0.0003,-0.901
102743,-108.2959,24.2944,-0.0113,0.0173,101.4218,-0.0007,-1.899,9.3855,0.0,-0.0836,0.6034,0.0003,-0.901
102759,-108.4857,25.2329,-0.0113,0.0144,101.4209,-0.0,-1.9097,9.4457,0.0,-0.1071,0.6042,0.0001,-0.8707
102775,-108.4857,25.2329,-0.0113,0.0144,101.4209,-0.0,-1.9097,9.4457,0.0,-0.1071,0.6042,0.0001,-0.8707
102791,-108.4857,25.2329,-0.0113,0.0144,101.4209,-0.0,-1.9097,9.4457,0.0,-0.1071,0.6042,0.0001,-0.8707
102807,-108.4857,25.2329,-0.0113,0.0144,101.4209,-0.0,-1.9097,9.4457,0.0,-0.1071,0.6042,0.0001,-0.8707
102823,-108.4857,25.2329,-0.0113,0.0144,101.4209,-0.0,-1.9097,9.4457,0.0,-0.1071,0.6042,0.0001,-0.8707
102839,-108.4857,25.2329,-0.0113,0.0144,101.4209,-0.0,-1.9097,9.4457,0.0,-0.1071,0.6042,0.0001,-0.8707
102855,-108.4857,25.2329,-0.0113,0.0144,101.4209,-0.0,-1.9097,9.4457,0.0,-0.1071,0.6042,0.0001,-0.8707
102871,-108.6773,26.1807,-0.0113,0.0126,101.4206,0.0001,-1.9207,9.503,0.0,-0.1086,0.5636,0.0,-0.8659
102887,-108.6773,26.1807,-0.0113,0.0126,101.4206,0.0001,-1.9207,9.503,0.0,-0.1086,0.5636,0.0,-0.8659
102903,-108.6773,26.1807,-0.0113,0.0126,101.4206,0.0001,-1.9207,9.503,0.0,-0.1086,0.5636,0.0,-0.8659
102919,-108.6773,26.1807,-0.0113,0.0126,101.4206,0.0001,-1.9207,9.503,0.0,-0.1086,0.5636,0.0,-0.8659
102935,-108.6773,26.1807,-0.0113,0.0126,101.4206,0.0001,-1.9207,9.503,0.0,-0.1086,0.5636,0.0,-0.8659
102951,-108.6773,26.1807,-0.0113,0.0126,101.4206,0.0001,-1.9207,9.503,0.0,-0.1086,0.5636,0.0,-0.8659
102967,-108.87,27.1341,-0.0112,0.0115,101.4205,0.0001,-1.9319,9.5591,0.0,-0.1075,0.5413,-0.0001,-0.8564
102983,-108.87,27.1341,-0.0112,0.0115,101.4205,0.0001,-1.9319,9.5591,0.0,-0.1075,0.5413,-0.0001,-0.8564
102999,-108.87,27.1341,-0.0112,0.0115,101.4205,0.0001,-1.9319,9.5591,0.0,-0.1075,0.5413,-0.0001,-0.8564
103015,-108.87,27.1341,-0.0112,0.0115,101.4205,0.0001,-1.9319,9.5591,0.0,-0.1075,0.5413,-0.0001,-0.8564
103031,-108.87,27.1341,-0.0112,0.0115,101.4205,0.0001,-1.9319,9.5591,0.0,-0.1075,0.5413,-0.0001,-0.8564
103047,-108.87,27.1341,-0.0112,0.0115,101.4205,0.0001,-1.9319,9.5591,0.0,-0.1075,0.5413,-0.0001,-0.8564
103063,-108.87,27.1341,-0.0112,0.0115,101.4205,0.0001,-1.9319,9.5591,0.0,-0.1075,0.5413,-0.0001,-0.8564
103079,-109.0638,28.093,-0.0112,0.0108,101.4205,0.0001,-1.9429,9.614,0.0,-0.1094,0.5447,-0.0001,-0.8478
103095,-109.0638,28.093,-0.0112,0.0108,101.4205,0.0001,-1.9429,9.614,0.0,-0.1094,0.5447,-0.0001,-0.8478
103111,-109.0638,28.093,-0.0112,0.0108,101.4205,0.0001,-1.9429,9.614,0.0,-0.1094,0.5447,-0.0001,-0.8478
