timestamp,x,y,z,pitch,yaw,roll,vx,vy,vz,ax,ay,az,yaw_rate
85015,-106.6867,-4.8475,-0.0803,0.0,-89.3578,0.0,-0.0,0.0,0.0388,-0.0,0.0,7.2881,-0.0
85031,-106.6867,-4.8475,-0.0803,0.0,-89.3578,0.0,-0.0,0.0,0.0388,-0.0,0.0,7.2881,-0.0
85047,-106.6867,-4.8475,-0.0803,0.0,-89.3578,0.0,-0.0,0.0,0.0388,-0.0,0.0,7.2881,-0.0
85063,-106.6867,-4.8475,-0.0803,0.0,-89.3578,0.0,-0.0,0.0,0.0388,-0.0,0.0,7.2881,-0.0
85079,-106.6867,-4.8475,-0.0803,0.0,-89.3578,0.0,-0.0,0.0,0.0388,-0.0,0.0,7.2881,-0.0
85095,-106.6867,-4.8475,-0.0803,0.0,-89.3578,0.0,-0.0,0.0,0.0388,-0.0,0.0,7.2881,-0.0
85111,-106.6867,-4.8475,-0.0803,0.0,-89.3578,0.0,-0.0,0.0,0.0388,-0.0,0.0,7.2881,-0.0
85127,-106.6867,-4.8475,-0.0803,0.0,-89.3578,0.0,-0.0,0.0,0.0388,-0.0,0.0,7.2881,-0.0
85143,-106.6867,-4.8475,-0.0803,0.0,-89.3578,0.0,-0.0,0.0,0.0388,-0.0,0.0,7.2881,-0.0
85159,-106.6867,-4.8475,-0.0803,0.0,-89.3578,0.0,-0.0,0.0,0.0388,-0.0,0.0,7.2881,-0.0
85175,-106.6867,-4.8475,-0.0803,0.0,-89.3578,0.0,-0.0,0.0,0.0388,-0.0,0.0,7.2881,-0.0
85191,-106.6867,-4.8475,-0.0803,0.0,-89.3578,0.0,-0.0,0.0,0.0388,-0.0,0.0,7.2881,-0.0
85207,-106.6867,-4.8475,-0.0803,0.0,-89.3578,0.0,-0.0,0.0,0.0388,-0.0,0.0,7.2881,-0.0
85223,-106.6867,-4.8459,-0.0613,-0.0014,-89.3578,0.0,-0.0004,0.0382,0.2378,-0.0021,0.1889,0.9847,0.0001
85239,-106.6867,-4.8459,-0.0613,-0.0014,-89.3578,0.0,-0.0004,0.0382,0.2378,-0.0021,0.1889,0.9847,0.0001
85255,-106.6867,-4.8459,-0.0613,-0.0014,-89.3578,0.0,-0.0004,0.0382,0.2378,-0.0021,0.1889,0.9847,0.0001
85271,-106.6867,-4.8459,-0.0613,-0.0014,-89.3578,0.0,-0.0004,0.0382,0.2378,-0.0021,0.1889,0.9847,0.0001
85287,-106.6867,-4.8459,-0.0613,-0.0014,-89.3578,0.0,-0.0004,0.0382,0.2378,-0.0021,0.1889,0.9847,0.0001
85303,-106.6867,-4.8459,-0.0613,-0.0014,-89.3578,0.0,-0.0004,0.0382,0.2378,-0.0021,0.1889,0.9847,0.0001
85319,-106.6867,-4.8459,-0.0613,-0.0014,-89.3578,0.0,-0.0004,0.0382,0.2378,-0.0021,0.1889,0.9847,0.0001
85335,-106.6867,-4.8459,-0.0613,-0.0014,-89.3578,0.0,-0.0004,0.0382,0.2378,-0.0021,0.1889,0.9847,0.0001
85351,-106.6867,-4.8459,-0.0613,-0.0014,-89.3578,0.0,-0.0004,0.0382,0.2378,-0.0021,0.1889,0.9847,0.0001
85367,-106.6867,-4.8459,-0.0613,-0.0014,-89.3578,0.0,-0.0004,0.0382,0.2378,-0.0021,0.1889,0.9847,0.0001
85383,-106.6867,-4.8459,-0.0613,-0.0014,-89.3578,0.0,-0.0004,0.0382,0.2378,-0.0021,0.1889,0.9847,0.0001
85399,-106.6867,-4.8459,-0.0613,-0.0014,-89.3578,0.0,-0.0004,0.0382,0.2378,-0.0021,0.1889,0.9847,0.0001
85415,-106.6867,-4.8459,-0.0613,-0.0014,-89.3578,0.0,-0.0004,0.0382,0.2378,-0.0021,0.1889,0.9847,0.0001
85431,-106.6868,-4.8404,-0.0399,-0.0059,-89.3579,-0.0,-0.0018,0.1625,0.1815,-0.0065,0.5833,-0.2641,-0.0013
85447,-106.6868,-4.8404,-0.0399,-0.0059,-89.3579,-0.0,-0.0018,0.1625,0.1815,-0.0065,0.5833,-0.2641,-0.0013
85463,-106.6868,-4.8404,-0.0399,-0.0059,-89.3579,-0.0,-0.0018,0.1625,0.1815,-0.0065,0.5833,-0.2641,-0.0013
85479,-106.6868,-4.8404,-0.0399,-0.0059,-89.3579,-0.0,-0.0018,0.1625,0.1815,-0.0065,0.5833,-0.2641,-0.0013
85495,-106.6868,-4.8404,-0.0399,-0.0059,-89.3579,-0.0,-0.0018,0.1625,0.1815,-0.0065,0.5833,-0.2641,-0.0013
85511,-106.6868,-4.8404,-0.0399,-0.0059,-89.3579,-0.0,-0.0018,0.1625,0.1815,-0.0065,0.5833,-0.2641,-0.0013
85529,-106.6872,-4.8025,-0.0266,-0.029,-89.3663,0.0002,-0.0077,0.5855,0.1108,-0.0641,4.5705,-0.7637,0.2588
85543,-106.6872,-4.8025,-0.0266,-0.029,-89.3663,0.0002,-0.0077,0.5855,0.1108,-0.0641,4.5705,-0.7637,0.2588
85559,-106.6872,-4.8025,-0.0266,-0.029,-89.3663,0.0002,-0.0077,0.5855,0.1108,-0.0641,4.5705,-0.7637,0.2588
85575,-106.6872,-4.8025,-0.0266,-0.029,-89.3663,0.0002,-0.0077,0.5855,0.1108,-0.0641,4.5705,-0.7637,0.2588
85591,-106.6872,-4.8025,-0.0266,-0.029,-89.3663,0.0002,-0.0077,0.5855,0.1108,-0.0641,4.5705,-0.7637,0.2588
85607,-106.6872,-4.8025,-0.0266,-0.029,-89.3663,0.0002,-0.0077,0.5855,0.1108,-0.0641,4.5705,-0.7637,0.2588
85625,-106.6881,-4.7266,-0.019,-0.0484,-89.3666,0.0002,-0.0116,0.9965,0.0613,-0.0421,4.4678,-0.5384,-0.3426
85639,-106.6881,-4.7266,-0.019,-0.0484,-89.3666,0.0002,-0.0116,0.9965,0.0613,-0.0421,4.4678,-0.5384,-0.3426
85655,-106.6881,-4.7266,-0.019,-0.0484,-89.3666,0.0002,-0.0116,0.9965,0.0613,-0.0421,4.4678,-0.5384,-0.3426
85671,-106.6881,-4.7266,-0.019,-0.0484,-89.3666,0.0002,-0.0116,0.9965,0.0613,-0.0421,4.4678,-0.5384,-0.3426
85687,-106.6881,-4.7266,-0.019,-0.0484,-89.3666,0.0002,-0.0116,0.9965,0.0613,-0.0421,4.4678,-0.5384,-0.3426
85703,-106.6881,-4.7266,-0.019,-0.0484,-89.3666,0.0002,-0.0116,0.9965,0.0613,-0.0421,4.4678,-0.5384,-0.3426
85719,-106.689,-4.6217,-0.0145,-0.0515,-89.3973,-0.0005,-0.0116,1.2711,0.034,0.0001,2.9268,-0.2906,-4.0997
85735,-106.689,-4.6217,-0.0145,-0.0515,-89.3973,-0.0005,-0.0116,1.2711,0.034,0.0001,2.9268,-0.2906,-4.0997
85751,-106.689,-4.6217,-0.0145,-0.0515,-89.3973,-0.0005,-0.0116,1.2711,0.034,0.0001,2.9268,-0.2906,-4.0997
85767,-106.689,-4.6217,-0.0145,-0.0515,-89.3973,-0.0005,-0.0116,1.2711,0.034,0.0001,2.9268,-0.2906,-4.0997
85783,-106.689,-4.6217,-0.0145,-0.0515,-89.3973,-0.0005,-0.0116,1.2711,0.034,0.0001,2.9268,-0.2906,-4.0997
85799,-106.689,-4.6217,-0.0145,-0.0515,-89.3973,-0.0005,-0.0116,1.2711,0.034,0.0001,2.9268,-0.2906,-4.0997
85816,-106.6902,-4.5043,-0.0125,-0.0347,-89.421,0.0001,-0.015,1.2521,0.014,-0.0355,-0.1966,-0.2082,-3.226
85831,-106.6902,-4.5043,-0.0125,-0.0347,-89.421,0.0001,-0.015,1.2521,0.014,-0.0355,-0.1966,-0.2082,-3.226
85847,-106.6902,-4.5043,-0.0125,-0.0347,-89.421,0.0001,-0.015,1.2521,0.014,-0.0355,-0.1966,-0.2082,-3.226
85863,-106.6902,-4.5043,-0.0125,-0.0347,-89.421,0.0001,-0.015,1.2521,0.014,-0.0355,-0.1966,-0.2082,-3.226
85879,-106.6902,-4.5043,-0.0125,-0.0347,-89.421,0.0001,-0.015,1.2521,0.014,-0.0355,-0.1966,-0.2082,-3.226
85895,-106.692,-4.3964,-0.0118,-0.0207,-89.3569,0.001,-0.0256,1.2088,0.0065,-0.1181,-0.4845,-0.0836,4.5267
85911,-106.692,-4.3964,-0.0118,-0.0207,-89.3569,0.001,-0.0256,1.2088,0.0065,-0.1181,-0.4845,-0.0836,4.5267
85927,-106.692,-4.3964,-0.0118,-0.0207,-89.3569,0.001,-0.0256,1.2088,0.0065,-0.1181,-0.4845,-0.0836,4.5267
85943,-106.692,-4.3964,-0.0118,-0.0207,-89.3569,0.001,-0.0256,1.2088,0.0065,-0.1181,-0.4845,-0.0836,4.5267
85959,-106.692,-4.3964,-0.0118,-0.0207,-89.3569,0.001,-0.0256,1.2088,0.0065,-0.1181,-0.4845,-0.0836,4.5267
85975,-106.692,-4.3964,-0.0118,-0.0207,-89.3569,0.001,-0.0256,1.2088,0.0065,-0.1181,-0.4845,-0.0836,4.5267
85991,-106.6949,-4.2455,-0.0112,-0.0413,-89.3235,-0.0001,-0.0173,1.8064,0.003,0.0858,6.2174,-0.0366,-2.8038
86007,-106.6949,-4.2455,-0.0112,-0.0413,-89.3235,-0.0001,-0.0173,1.8064,0.003,0.0858,6.2174,-0.0366,-2.8038
86023,-106.6949,-4.2455,-0.0112,-0.0413,-89.3235,-0.0001,-0.0173,1.8064,0.003,0.0858,6.2174,-0.0366,-2.8038
86039,-106.6949,-4.2455,-0.0112,-0.0413,-89.3235,-0.0001,-0.0173,1.8064,0.003,0.0858,6.2174,-0.0366,-2.8038
86055,-106.6949,-4.2455,-0.0112,-0.0413,-89.3235,-0.0001,-0.0173,1.8064,0.003,0.0858,6.2174,-0.0366,-2.8038
86071,-106.6949,-4.2455,-0.0112,-0.0413,-89.3235,-0.0001,-0.0173,1.8064,0.003,0.0858,6.2174,-0.0366,-2.8038
86089,-106.6956,-4.0597,-0.0109,-0.0594,-89.4259,-0.0027,-0.0136,2.2995,0.0015,0.0409,5.4009,-0.0161,-3.0571
86103,-106.6956,-4.0597,-0.0109,-0.0594,-89.4259,-0.0027,-0.0136,2.2995,0.0015,0.0409,5.4009,-0.0161,-3.0571
86119,-106.6956,-4.0597,-0.0109,-0.0594,-89.4259,-0.0027,-0.0136,2.2995,0.0015,0.0409,5.4009,-0.0161,-3.0571
86135,-106.6956,-4.0597,-0.0109,-0.0594,-89.4259,-0.0027,-0.0136,2.2995,0.0015,0.0409,5.4009,-0.0161,-3.0571
86151,-106.6956,-4.0597,-0.0109,-0.0594,-89.4259,-0.0027,-0.0136,2.2995,0.0015,0.0409,5.4009,-0.0161,-3.0571
86167,-106.6956,-4.0597,-0.0109,-0.0594,-89.4259,-0.0027,-0.0136,2.2995,0.0015,0.0409,5.4009,-0.0161,-3.0571
86185,-106.6983,-3.8181,-0.0107,-0.0707,-89.3692,-0.0001,-0.0309,2.7864,0.0007,-0.1828,5.1308,-0.0083,0.9562
86199,-106.6983,-3.8181,-0.0107,-0.0707,-89.3692,-0.0001,-0.0309,2.7864,0.0007,-0.1828,5.1308,-0.0083,0.9562
86215,-106.6983,-3.8181,-0.0107,-0.0707,-89.3692,-0.0001,-0.0309,2.7864,0.0007,-0.1828,5.1308,-0.0083,0.9562
86231,-106.6983,-3.8181,-0.0107,-0.0707,-89.3692,-0.0001,-0.0309,2.7864,0.0007,-0.1828,5.1308,-0.0083,0.9562
86247,-106.6983,-3.8181,-0.0107,-0.0707,-89.3692,-0.0001,-0.0309,2.7864,0.0007,-0.1828,5.1308,-0.0083,0.9562
86263,-106.6983,-3.8181,-0.0107,-0.0707,-89.3692,-0.0001,-0.0309,2.7864,0.0007,-0.1828,5.1308,-0.0083,0.9562
86281,-106.7016,-3.5136,-0.0105,-0.0909,-89.3515,-0.0001,-0.0354,3.4208,0.0004,-0.0469,6.6724,-0.0037,0.4629
86295,-106.7016,-3.5136,-0.0105,-0.0909,-89.3515,-0.0001,-0.0354,3.4208,0.0004,-0.0469,6.6724,-0.0037,0.4629
86311,-106.7016,-3.5136,-0.0105,-0.0909,-89.3515,-0.0001,-0.0354,3.4208,0.0004,-0.0469,6.6724,-0.0037,0.4629
86327,-106.7016,-3.5136,-0.0105,-0.0909,-89.3515,-0.0001,-0.0354,3.4208,0.0004,-0.0469,6.6724,-0.0037,0.4629
86343,-106.7016,-3.5136,-0.0105,-0.0909,-89.3515,-0.0001,-0.0354,3.4208,0.0004,-0.0469,6.6724,-0.0037,0.4629
86359,-106.7016,-3.5136,-0.0105,-0.0909,-89.3515,-0.0001,-0.0354,3.4208,0.0004,-0.0469,6.6724,-0.0037,0.4629
86376,-106.7054,-3.1637,-0.0105,-0.0908,-89.3477,0.0003,-0.043,3.8473,0.0002,-0.0817,4.6007,-0.0019,1.3899
86391,-106.7054,-3.1637,-0.0105,-0.0908,-89.3477,0.0003,-0.043,3.8473,0.0002,-0.0817,4.6007,-0.0019,1.3899
86407,-106.7054,-3.1637,-0.0105,-0.0908,-89.3477,0.0003,-0.043,3.8473,0.0002,-0.0817,4.6007,-0.0019,1.3899
86423,-106.7054,-3.1637,-0.0105,-0.0908,-89.3477,0.0003,-0.043,3.8473,0.0002,-0.0817,4.6007,-0.0019,1.3899
86439,-106.7054,-3.1637,-0.0105,-0.0908,-89.3477,0.0003,-0.043,3.8473,0.0002,-0.0817,4.6007,-0.0019,1.3899
86455,-106.7054,-3.1637,-0.0105,-0.0908,-89.3477,0.0003,-0.043,3.8473,0.0002,-0.0817,4.6007,-0.0019,1.3899
86473,-106.7109,-2.752,-0.0106,-0.0833,-89.2761,0.0015,-0.0544,4.3331,0.0001,-0.1164,4.9654,-0.0008,-0.4293
86487,-106.7109,-2.752,-0.0106,-0.0833,-89.2761,0.0015,-0.0544,4.3331,0.0001,-0.1164,4.9654,-0.0008,-0.4293
86503,-106.7109,-2.752,-0.0106,-0.0833,-89.2761,0.0015,-0.0544,4.3331,0.0001,-0.1164,4.9654,-0.0008,-0.4293
86519,-106.7109,-2.752,-0.0106,-0.0833,-89.2761,0.0015,-0.0544,4.3331,0.0001,-0.1164,4.9654,-0.0008,-0.4293
86535,-106.7109,-2.752,-0.0106,-0.0833,-89.2761,0.0015,-0.0544,4.3331,0.0001,-0.1164,4.9654,-0.0008,-0.4293
86551,-106.7109,-2.752,-0.0106,-0.0833,-89.2761,0.0015,-0.0544,4.3331,0.0001,-0.1164,4.9654,-0.0008,-0.4293
86567,-106.7167,-2.3236,-0.0105,-0.0845,-89.2417,0.0016,-0.0647,4.8922,0.0,-0.1125,6.109,-0.0007,0.0451
86583,-106.7167,-2.3236,-0.0105,-0.0845,-89.2417,0.0016,-0.0647,4.8922,0.0,-0.1125,6.109,-0.0007,0.0451
86599,-106.7167,-2.3236,-0.0105,-0.0845,-89.2417,0.0016,-0.0647,4.8922,0.0,-0.1125,6.109,-0.0007,0.0451
86615,-106.7167,-2.3236,-0.0105,-0.0845,-89.2417,0.0016,-0.0647,4.8922,0.0,-0.1125,6.109,-0.0007,0.0451
86631,-106.7167,-2.3236,-0.0105,-0.0845,-89.2417,0.0016,-0.0647,4.8922,0.0,-0.1125,6.109,-0.0007,0.0451
86647,-106.7167,-2.3236,-0.0105,-0.0845,-89.2417,0.0016,-0.0647,4.8922,0.0,-0.1125,6.109,-0.0007,0.0451
86665,-106.7233,-1.8082,-0.0105,-0.0894,-89.2637,0.0009,-0.0705,5.4685,0.0,-0.0599,5.8668,-0.0002,-0.085
86679,-106.7233,-1.8082,-0.0105,-0.0894,-89.2637,0.0009,-0.0705,5.4685,0.0,-0.0599,5.8668,-0.0002,-0.085
86695,-106.7233,-1.8082,-0.0105,-0.0894,-89.2637,0.0009,-0.0705,5.4685,0.0,-0.0599,5.8668,-0.0002,-0.085
86711,-106.7233,-1.8082,-0.0105,-0.0894,-89.2637,0.0009,-0.0705,5.4685,0.0,-0.0599,5.8668,-0.0002,-0.085
86727,-106.7233,-1.8082,-0.0105,-0.0894,-89.2637,0.0009,-0.0705,5.4685,0.0,-0.0599,5.8668,-0.0002,-0.085
86743,-106.7233,-1.8082,-0.0105,-0.0894,-89.2637,0.0009,-0.0705,5.4685,0.0,-0.0599,5.8668,-0.0002,-0.085
86759,-106.7304,-1.2627,-0.0104,-0.102,-89.2556,0.0005,-0.0807,6.2121,0.0,-0.1101,8.0515,-0.0001,0.1929
86775,-106.7304,-1.2627,-0.0104,-0.102,-89.2556,0.0005,-0.0807,6.2121,0.0,-0.1101,8.0515,-0.0001,0.1929
86791,-106.7304,-1.2627,-0.0104,-0.102,-89.2556,0.0005,-0.0807,6.2121,0.0,-0.1101,8.0515,-0.0001,0.1929
86807,-106.7304,-1.2627,-0.0104,-0.102,-89.2556,0.0005,-0.0807,6.2121,0.0,-0.1101,8.0515,-0.0001,0.1929
86823,-106.7304,-1.2627,-0.0104,-0.102,-89.2556,0.0005,-0.0807,6.2121,0.0,-0.1101,8.0515,-0.0001,0.1929
86839,-106.7304,-1.2627,-0.0104,-0.102,-89.2556,0.0005,-0.0807,6.2121,0.0,-0.1101,8.0515,-0.0001,0.1929
86855,-106.7385,-0.627,-0.0103,-0.111,-89.2712,0.0001,-0.0886,6.9105,0.0,-0.0818,7.2886,-0.0,-0.4184
86871,-106.7385,-0.627,-0.0103,-0.111,-89.2712,0.0001,-0.0886,6.9105,0.0,-0.0818,7.2886,-0.0,-0.4184
86887,-106.7385,-0.627,-0.0103,-0.111,-89.2712,0.0001,-0.0886,6.9105,0.0,-0.0818,7.2886,-0.0,-0.4184
86903,-106.7385,-0.627,-0.0103,-0.111,-89.2712,0.0001,-0.0886,6.9105,0.0,-0.0818,7.2886,-0.0,-0.4184
86919,-106.7385,-0.627,-0.0103,-0.111,-89.2712,0.0001,-0.0886,6.9105,0.0,-0.0818,7.2886,-0.0,-0.4184
86935,-106.7473,0.0527,-0.0103,-0.1178,-89.2614,0.0001,-0.0985,7.6549,0.0,-0.1073,8.0479,0.0,0.1914
86951,-106.7473,0.0527,-0.0103,-0.1178,-89.2614,0.0001,-0.0985,7.6549,0.0,-0.1073,8.0479,0.0,0.1914
86967,-106.7473,0.0527,-0.0103,-0.1178,-89.2614,0.0001,-0.0985,7.6549,0.0,-0.1073,8.0479,0.0,0.1914
86983,-106.7473,0.0527,-0.0103,-0.1178,-89.2614,0.0001,-0.0985,7.6549,0.0,-0.1073,8.0479,0.0,0.1914
86999,-106.7473,0.0527,-0.0103,-0.1178,-89.2614,0.0001,-0.0985,7.6549,0.0,-0.1073,8.0479,0.0,0.1914
87015,-106.7473,0.0527,-0.0103,-0.1178,-89.2614,0.0001,-0.0985,7.6549,0.0,-0.1073,8.0479,0.0,0.1914
87033,-106.7567,0.7914,-0.0103,-0.119,-89.2657,0.0,-0.1066,8.3043,-0.0,-0.0879,7.0671,-0.0,-0.0597
87047,-106.7567,0.7914,-0.0103,-0.119,-89.2657,0.0,-0.1066,8.3043,-0.0,-0.0879,7.0671,-0.0,-0.0597
87063,-106.7567,0.7914,-0.0103,-0.119,-89.2657,0.0,-0.1066,8.3043,-0.0,-0.0879,7.0671,-0.0,-0.0597
87079,-106.7567,0.7914,-0.0103,-0.119,-89.2657,0.0,-0.1066,8.3043,-0.0,-0.0879,7.0671,-0.0,-0.0597
87095,-106.7567,0.7914,-0.0103,-0.119,-89.2657,0.0,-0.1066,8.3043,-0.0,-0.0879,7.0671,-0.0,-0.0597
87111,-106.7567,0.7914,-0.0103,-0.119,-89.2657,0.0,-0.1066,8.3043,-0.0,-0.0879,7.0671,-0.0,-0.0597
87129,-106.7673,1.6139,-0.0103,-0.11,-89.2642,0.0,-0.1133,8.8219,-0.0,-0.0701,5.4223,-0.0,0.0314
87143,-106.7673,1.6139,-0.0103,-0.11,-89.2642,0.0,-0.1133,8.8219,-0.0,-0.0701,5.4223,-0.0,0.0314
87159,-106.7673,1.6139,-0.0103,-0.11,-89.2642,0.0,-0.1133,8.8219,-0.0,-0.0701,5.4223,-0.0,0.0314
87175,-106.7673,1.6139,-0.0103,-0.11,-89.2642,0.0,-0.1133,8.8219,-0.0,-0.0701,5.4223,-0.0,0.0314
87191,-106.7673,1.6139,-0.0103,-0.11,-89.2642,0.0,-0.1133,8.8219,-0.0,-0.0701,5.4223,-0.0,0.0314
87207,-106.7673,1.6139,-0.0103,-0.11,-89.2642,0.0,-0.1133,8.8219,-0.0,-0.0701,5.4223,-0.0,0.0314
87225,-106.7787,2.5093,-0.0104,-0.0981,-89.2649,0.0,-0.1194,9.3038,0.0,-0.0625,4.8996,0.0001,-0.0106
87239,-106.7787,2.5093,-0.0104,-0.0981,-89.2649,0.0,-0.1194,9.3038,0.0,-0.0625,4.8996,0.0001,-0.0106
87255,-106.7787,2.5093,-0.0104,-0.0981,-89.2649,0.0,-0.1194,9.3038,0.0,-0.0625,4.8996,0.0001,-0.0106
87271,-106.7787,2.5093,-0.0104,-0.0981,-89.2649,0.0,-0.1194,9.3038,0.0,-0.0625,4.8996,0.0001,-0.0106
87287,-106.7787,2.5093,-0.0104,-0.0981,-89.2649,0.0,-0.1194,9.3038,0.0,-0.0625,4.8996,0.0001,-0.0106
87303,-106.7787,2.5093,-0.0104,-0.0981,-89.2649,0.0,-0.1194,9.3038,0.0,-0.0625,4.8996,0.0001,-0.0106
87321,-106.7901,3.3969,-0.0105,-0.0955,-89.2648,-0.0,-0.1266,9.8613,0.0,-0.0776,6.0408,0.0,0.0001
87335,-106.7901,3.3969,-0.0105,-0.0955,-89.2648,-0.0,-0.1266,9.8613,0.0,-0.0776,6.0408,0.0,0.0001
87351,-106.7901,3.3969,-0.0105,-0.0955,-89.2648,-0.0,-0.1266,9.8613,0.0,-0.0776,6.0408,0.0,0.0001
87367,-106.7901,3.3969,-0.0105,-0.0955,-89.2648,-0.0,-0.1266,9.8613,0.0,-0.0776,6.0408,0.0,0.0001
87383,-106.7901,3.3969,-0.0105,-0.0955,-89.2648,-0.0,-0.1266,9.8613,0.0,-0.0776,6.0408,0.0,0.0001
87399,-106.7901,3.3969,-0.0105,-0.0955,-89.2648,-0.0,-0.1266,9.8613,0.0,-0.0776,6.0408,0.0,0.0001
87417,-106.8026,4.3724,-0.0105,-0.093,-89.2648,0.0,-0.1329,10.3531,0.0,-0.0656,5.1173,-0.0001,0.0002
87431,-106.8026,4.3724,-0.0105,-0.093,-89.2648,0.0,-0.1329,10.3531,0.0,-0.0656,5.1173,-0.0001,0.0002
87447,-106.8026,4.3724,-0.0105,-0.093,-89.2648,0.0,-0.1329,10.3531,0.0,-0.0656,5.1173,-0.0001,0.0002
87463,-106.8026,4.3724,-0.0105,-0.093,-89.2648,0.0,-0.1329,10.3531,0.0,-0.0656,5.1173,-0.0001,0.0002
87479,-106.8026,4.3724,-0.0105,-0.093,-89.2648,0.0,-0.1329,10.3531,0.0,-0.0656,5.1173,-0.0001,0.0002
87495,-106.8026,4.3724,-0.0105,-0.093,-89.2648,0.0,-0.1329,10.3531,0.0,-0.0656,5.1173,-0.0001,0.0002
87511,-106.8151,5.345,-0.0105,-0.0873,-89.2647,0.0,-0.1384,10.7827,0.0,-0.0601,4.68,0.0001,-0.0001
87527,-106.8151,5.345,-0.0105,-0.0873,-89.2647,0.0,-0.1384,10.7827,0.0,-0.0601,4.68,0.0001,-0.0001
87543,-106.8151,5.345,-0.0105,-0.0873,-89.2647,0.0,-0.1384,10.7827,0.0,-0.0601,4.68,0.0001,-0.0001
87559,-106.8151,5.345,-0.0105,-0.0873,-89.2647,0.0,-0.1384,10.7827,0.0,-0.0601,4.68,0.0001,-0.0001
87575,-106.8151,5.345,-0.0105,-0.0873,-89.2647,0.0,-0.1384,10.7827,0.0,-0.0601,4.68,0.0001,-0.0001
87591,-106.8151,5.345,-0.0105,-0.0873,-89.2647,0.0,-0.1384,10.7827,0.0,-0.0601,4.68,0.0001,-0.0001
87607,-106.8289,6.4183,-0.0106,-0.0805,-89.2647,0.0,-0.1435,11.1843,-0.0,-0.0529,4.1214,-0.0001,-0.0
87623,-106.8289,6.4183,-0.0106,-0.0805,-89.2647,0.0,-0.1435,11.1843,-0.0,-0.0529,4.1214,-0.0001,-0.0
87639,-106.8289,6.4183,-0.0106,-0.0805,-89.2647,0.0,-0.1435,11.1843,-0.0,-0.0529,4.1214,-0.0001,-0.0
87655,-106.8289,6.4183,-0.0106,-0.0805,-89.2647,0.0,-0.1435,11.1843,-0.0,-0.0529,4.1214,-0.0001,-0.0
87671,-106.8289,6.4183,-0.0106,-0.0805,-89.2647,0.0,-0.1435,11.1843,-0.0,-0.0529,4.1214,-0.0001,-0.0
87687,-106.8289,6.4183,-0.0106,-0.0805,-89.2647,0.0,-0.1435,11.1843,-0.0,-0.0529,4.1214,-0.0001,-0.0
87705,-106.8433,7.5366,-0.0106,-0.073,-89.2648,0.0,-0.1482,11.5454,0.0,-0.0472,3.6778,0.0001,-0.0
87719,-106.8433,7.5366,-0.0106,-0.073,-89.2648,0.0,-0.1482,11.5454,0.0,-0.0472,3.6778,0.0001,-0.0
87735,-106.8433,7.5366,-0.0106,-0.073,-89.2648,0.0,-0.1482,11.5454,0.0,-0.0472,3.6778,0.0001,-0.0
87751,-106.8433,7.5366,-0.0106,-0.073,-89.2648,0.0,-0.1482,11.5454,0.0,-0.0472,3.6778,0.0001,-0.0
87767,-106.8433,7.5366,-0.0106,-0.073,-89.2648,0.0,-0.1482,11.5454,0.0,-0.0472,3.6778,0.0001,-0.0
87783,-106.8433,7.5366,-0.0106,-0.073,-89.2648,0.0,-0.1482,11.5454,0.0,-0.0472,3.6778,0.0001,-0.0
87799,-106.8572,8.6238,-0.0107,-0.0683,-89.2648,0.0,-0.1526,11.8918,0.0,-0.048,3.7404,-0.0001,-0.0001
87815,-106.8572,8.6238,-0.0107,-0.0683,-89.2648,0.0,-0.1526,11.8918,0.0,-0.048,3.7404,-0.0001,-0.0001
87831,-106.8572,8.6238,-0.0107,-0.0683,-89.2648,0.0,-0.1526,11.8918,0.0,-0.048,3.7404,-0.0001,-0.0001
87847,-106.8572,8.6238,-0.0107,-0.0683,-89.2648,0.0,-0.1526,11.8918,0.0,-0.048,3.7404,-0.0001,-0.0001
87863,-106.8572,8.6238,-0.0107,-0.0683,-89.2648,0.0,-0.1526,11.8918,0.0,-0.048,3.7404,-0.0001,-0.0001
87880,-106.8712,9.7139,-0.0107,-0.0648,-89.2647,0.0,-0.1567,12.2082,-0.0,-0.045,3.5025,-0.0001,-0.0
87895,-106.8712,9.7139,-0.0107,-0.0648,-89.2647,0.0,-0.1567,12.2082,-0.0,-0.045,3.5025,-0.0001,-0.0
87911,-106.8712,9.7139,-0.0107,-0.0648,-89.2647,0.0,-0.1567,12.2082,-0.0,-0.045,3.5025,-0.0001,-0.0
87927,-106.8712,9.7139,-0.0107,-0.0648,-89.2647,0.0,-0.1567,12.2082,-0.0,-0.045,3.5025,-0.0001,-0.0
87943,-106.8712,9.7139,-0.0107,-0.0648,-89.2647,0.0,-0.1567,12.2082,-0.0,-0.045,3.5025,-0.0001,-0.0
87959,-106.8712,9.7139,-0.0107,-0.0648,-89.2647,0.0,-0.1567,12.2082,-0.0,-0.045,3.5025,-0.0001,-0.0
87977,-106.8865,10.9008,-0.0107,-0.0607,-89.2647,0.0,-0.1606,12.5144,0.0,-0.041,3.1938,0.0001,-0.0
87991,-106.8865,10.9008,-0.0107,-0.0607,-89.2647,0.0,-0.1606,12.5144,0.0,-0.041,3.1938,0.0001,-0.0
88007,-106.8865,10.9008,-0.0107,-0.0607,-89.2647,0.0,-0.1606,12.5144,0.0,-0.041,3.1938,0.0001,-0.0
88039,-106.8865,10.9008,-0.0107,-0.0607,-89.2647,0.0,-0.1606,12.5144,0.0,-0.041,3.1938,0.0001,-0.0
88055,-106.8865,10.9008,-0.0107,-0.0607,-89.2647,0.0,-0.1606,12.5144,0.0,-0.041,3.1938,0.0001,-0.0
88071,-106.9313,12.1362,-0.0108,-0.0465,-90.6302,0.1222,-0.9851,12.586,0.001,-8.4017,0.7298,0.0102,-30.3073
88087,-106.9313,12.1362,-0.0108,-0.0465,-90.6302,0.1222,-0.9851,12.586,0.001,-8.4017,0.7298,0.0102,-30.3073
88103,-106.9313,12.1362,-0.0108,-0.0465,-90.6302,0.1222,-0.9851,12.586,0.001,-8.4017,0.7298,0.0102,-30.3073
88119,-106.9313,12.1362,-0.0108,-0.0465,-90.6302,0.1222,-0.9851,12.586,0.001,-8.4017,0.7298,0.0102,-30.3073
88135,-106.9313,12.1362,-0.0108,-0.0465,-90.6302,0.1222,-0.9851,12.586,0.001,-8.4017,0.7298,0.0102,-30.3073
88151,-106.9313,12.1362,-0.0108,-0.0465,-90.6302,0.1222,-0.9851,12.586,0.001,-8.4017,0.7298,0.0102,-30.3073
88167,-107.0336,13.2951,-0.0109,-0.0127,-95.7162,0.2525,-1.8742,12.3751,0.0011,-9.5613,-2.2677,0.0015,-76.4982
88183,-107.0336,13.2951,-0.0109,-0.0127,-95.7162,0.2525,-1.8742,12.3751,0.0011,-9.5613,-2.2677,0.0015,-76.4982
88199,-107.0336,13.2951,-0.0109,-0.0127,-95.7162,0.2525,-1.8742,12.3751,0.0011,-9.5613,-2.2677,0.0015,-76.4982
88215,-107.0336,13.2951,-0.0109,-0.0127,-95.7162,0.2525,-1.8742,12.3751,0.0011,-9.5613,-2.2677,0.0015,-76.4982
88231,-107.0336,13.2951,-0.0109,-0.0127,-95.7162,0.2525,-1.8742,12.3751,0.0011,-9.5613,-2.2677,0.0015,-76.4982
88247,-107.0336,13.2951,-0.0109,-0.0127,-95.7162,0.2525,-1.8742,12.3751,0.0011,-9.5613,-2.2677,0.0015,-76.4982
88263,-107.1714,14.4723,-0.0111,0.0183,-106.1368,0.2589,-2.3457,12.1181,0.0,-4.8388,-2.6385,-0.0112,-132.7375
88279,-107.1714,14.4723,-0.0111,0.0183,-106.1368,0.2589,-2.3457,12.1181,0.0,-4.8388,-2.6385,-0.0112,-132.7375
88295,-107.1714,14.4723,-0.0111,0.0183,-106.1368,0.2589,-2.3457,12.1181,0.0,-4.8388,-2.6385,-0.0112,-132.7375
88311,-107.1714,14.4723,-0.0111,0.0183,-106.1368,0.2589,-2.3457,12.1181,0.0,-4.8388,-2.6385,-0.0112,-132.7375
88327,-107.1714,14.4723,-0.0111,0.0183,-106.1368,0.2589,-2.3457,12.1181,0.0,-4.8388,-2.6385,-0.0112,-132.7375
88343,-107.1714,14.4723,-0.0111,0.0183,-106.1368,0.2589,-2.3457,12.1181,0.0,-4.8388,-2.6385,-0.0112,-132.7375
88359,-107.1714,14.4723,-0.0111,0.0183,-106.1368,0.2589,-2.3457,12.1181,0.0,-4.8388,-2.6385,-0.0112,-132.7375
88375,-107.2843,15.6271,-0.0111,0.0063,-122.5558,0.116,-1.9561,12.0233,-0.0012,3.8654,-0.9402,-0.012,-187.3186
88391,-107.2843,15.6271,-0.0111,0.0063,-122.5558,0.116,-1.9561,12.0233,-0.0012,3.8654,-0.9402,-0.012,-187.3186
88407,-107.2843,15.6271,-0.0111,0.0063,-122.5558,0.116,-1.9561,12.0233,-0.0012,3.8654,-0.9402,-0.012,-187.3186
88423,-107.2843,15.6271,-0.0111,0.0063,-122.5558,0.116,-1.9561,12.0233,-0.0012,3.8654,-0.9402,-0.012,-187.3186
88439,-107.2843,15.6271,-0.0111,0.0063,-122.5558,0.116,-1.9561,12.0233,-0.0012,3.8654,-0.9402,-0.012,-187.3186
88455,-107.2843,15.6271,-0.0111,0.0063,-122.5558,0.116,-1.9561,12.0233,-0.0012,3.8654,-0.9402,-0.012,-187.3186
88471,-107.2823,16.6656,-0.0105,-0.0833,-141.5363,-0.1416,-0.2445,11.987,0.0006,18.1935,-0.3859,0.0191,-210.4005
88487,-107.2823,16.6656,-0.0105,-0.0833,-141.5363,-0.1416,-0.2445,11.987,0.0006,18.1935,-0.3859,0.0191,-210.4005
88503,-107.2823,16.6656,-0.0105,-0.0833,-141.5363,-0.1416,-0.2445,11.987,0.0006,18.1935,-0.3859,0.0191,-210.4005
88519,-107.2823,16.6656,-0.0105,-0.0833,-141.5363,-0.1416,-0.2445,11.987,0.0006,18.1935,-0.3859,0.0191,-210.4005
88535,-107.2823,16.6656,-0.0105,-0.0833,-141.5363,-0.1416,-0.2445,11.987,0.0006,18.1935,-0.3859,0.0191,-210.4005
88551,-107.2823,16.6656,-0.0105,-0.0833,-141.5363,-0.1416,-0.2445,11.987,0.0006,18.1935,-0.3859,0.0191,-210.4005
88567,-107.106,17.6856,-0.0094,-0.2024,-163.1015,-0.4002,2.0864,11.2874,0.0021,23.4343,-7.0336,0.0149,-221.1533
88583,-107.106,17.6856,-0.0094,-0.2024,-163.1015,-0.4002,2.0864,11.2874,0.0021,23.4343,-7.0336,0.0149,-221.1533
88599,-107.106,17.6856,-0.0094,-0.2024,-163.1015,-0.4002,2.0864,11.2874,0.0021,23.4343,-7.0336,0.0149,-221.1533
88615,-107.106,17.6856,-0.0094,-0.2024,-163.1015,-0.4002,2.0864,11.2874,0.0021,23.4343,-7.0336,0.0149,-221.1533
88647,-107.106,17.6856,-0.0094,-0.2024,-163.1015,-0.4002,2.0864,11.2874,0.0021,23.4343,-7.0336,0.0149,-221.1533
88663,-106.7922,18.5078,-0.0086,-0.2837,176.0355,-0.5693,4.0844,9.8713,0.0016,21.6468,-15.3424,-0.0057,-230.6028
88679,-106.7922,18.5078,-0.0086,-0.2837,176.0355,-0.5693,4.0844,9.8713,0.0016,21.6468,-15.3424,-0.0057,-230.6028
88695,-106.7922,18.5078,-0.0086,-0.2837,176.0355,-0.5693,4.0844,9.8713,0.0016,21.6468,-15.3424,-0.0057,-230.6028
88711,-106.7922,18.5078,-0.0086,-0.2837,176.0355,-0.5693,4.0844,9.8713,0.0016,21.6468,-15.3424,-0.0057,-230.6028
88727,-106.7922,18.5078,-0.0086,-0.2837,176.0355,-0.5693,4.0844,9.8713,0.0016,21.6468,-15.3424,-0.0057,-230.6028
88743,-106.7922,18.5078,-0.0086,-0.2837,176.0355,-0.5693,4.0844,9.8713,0.0016,21.6468,-15.3424,-0.0057,-230.6028
88759,-106.397,19.1693,-0.0083,-0.31,154.0508,-0.7494,4.7645,7.5232,0.0017,7.1713,-24.7602,0.001,-230.0452
88775,-106.397,19.1693,-0.0083,-0.31,154.0508,-0.7494,4.7645,7.5232,0.0017,7.1713,-24.7602,0.001,-230.0452
88791,-106.397,19.1693,-0.0083,-0.31,154.0508,-0.7494,4.7645,7.5232,0.0017,7.1713,-24.7602,0.001,-230.0452
88807,-106.397,19.1693,-0.0083,-0.31,154.0508,-0.7494,4.7645,7.5232,0.0017,7.1713,-24.7602,0.001,-230.0452
88823,-106.397,19.1693,-0.0083,-0.31,154.0508,-0.7494,4.7645,7.5232,0.0017,7.1713,-24.7602,0.001,-230.0452
88841,-106.1186,19.6948,-0.0091,-0.1965,134.4542,-0.878,2.859,6.4213,0.0032,-20.1685,-11.6635,0.0161,-188.5995
88855,-106.1186,19.6948,-0.0091,-0.1965,134.4542,-0.878,2.859,6.4213,0.0032,-20.1685,-11.6635,0.0161,-188.5995
88871,-106.1186,19.6948,-0.0091,-0.1965,134.4542,-0.878,2.859,6.4213,0.0032,-20.1685,-11.6635,0.0161,-188.5995
88887,-106.1186,19.6948,-0.0091,-0.1965,134.4542,-0.878,2.859,6.4213,0.0032,-20.1685,-11.6635,0.0161,-188.5995
88903,-106.1186,19.6948,-0.0091,-0.1965,134.4542,-0.878,2.859,6.4213,0.0032,-20.1685,-11.6635,0.0161,-188.5995
88919,-106.1186,19.6948,-0.0091,-0.1965,134.4542,-0.878,2.859,6.4213,0.0032,-20.1685,-11.6635,0.0161,-188.5995
88936,-106.0573,20.2105,-0.0102,-0.028,120.108,-0.8902,0.748,6.8336,0.0002,-23.9053,4.6688,-0.0335,-138.0084
88951,-106.0573,20.2105,-0.0102,-0.028,120.108,-0.8902,0.748,6.8336,0.0002,-23.9053,4.6688,-0.0335,-138.0084
88967,-106.0573,20.2105,-0.0102,-0.028,120.108,-0.8902,0.748,6.8336,0.0002,-23.9053,4.6688,-0.0335,-138.0084
88983,-106.0573,20.2105,-0.0102,-0.028,120.108,-0.8902,0.748,6.8336,0.0002,-23.9053,4.6688,-0.0335,-138.0084
88999,-106.0573,20.2105,-0.0102,-0.028,120.108,-0.8902,0.748,6.8336,0.0002,-23.9053,4.6688,-0.0335,-138.0084
89015,-106.0573,20.2105,-0.0102,-0.028,120.108,-0.8902,0.748,6.8336,0.0002,-23.9053,4.6688,-0.0335,-138.0084
89031,-106.1298,20.874,-0.0113,0.1127,109.9996,-0.7172,-0.3615,7.9022,-0.0015,-11.8847,11.446,-0.0187,-93.2197
89047,-106.1298,20.874,-0.0113,0.1127,109.9996,-0.7172,-0.3615,7.9022,-0.0015,-11.8847,11.446,-0.0187,-93.2197
89063,-106.1298,20.874,-0.0113,0.1127,109.9996,-0.7172,-0.3615,7.9022,-0.0015,-11.8847,11.446,-0.0187,-93.2197
89079,-106.1298,20.874,-0.0113,0.1127,109.9996,-0.7172,-0.3615,7.9022,-0.0015,-11.8847,11.446,-0.0187,-93.2197
89095,-106.1298,20.874,-0.0113,0.1127,109.9996,-0.7172,-0.3615,7.9022,-0.0015,-11.8847,11.446,-0.0187,-93.2197
89111,-106.1298,20.874,-0.0113,0.1127,109.9996,-0.7172,-0.3615,7.9022,-0.0015,-11.8847,11.446,-0.0187,-93.2197
89127,-106.1945,21.6466,-0.0119,0.1526,101.4238,-0.3153,0.2782,8.6189,-0.0032,6.7675,7.5808,-0.0178,-90.7006
89159,-106.1945,21.6466,-0.0119,0.1526,101.4238,-0.3153,0.2782,8.6189,-0.0032,6.7675,7.5808,-0.0178,-90.7006
89175,-106.1945,21.6466,-0.0119,0.1526,101.4238,-0.3153,0.2782,8.6189,-0.0032,6.7675,7.5808,-0.0178,-90.7006
89191,-106.1945,21.6466,-0.0119,0.1526,101.4238,-0.3153,0.2782,8.6189,-0.0032,6.7675,7.5808,-0.0178,-90.7006
89207,-106.1945,21.6466,-0.0119,0.1526,101.4238,-0.3153,0.2782,8.6189,-0.0032,6.7675,7.5808,-0.0178,-90.7006
89223,-106.2161,22.4994,-0.0121,0.1465,94.694,-0.1586,-0.0041,9.1286,-0.0018,-2.9345,5.2978,0.0144,-45.7853
89239,-106.2161,22.4994,-0.0121,0.1465,94.694,-0.1586,-0.0041,9.1286,-0.0018,-2.9345,5.2978,0.0144,-45.7853
89255,-106.2161,22.4994,-0.0121,0.1465,94.694,-0.1586,-0.0041,9.1286,-0.0018,-2.9345,5.2978,0.0144,-45.7853
89271,-106.2161,22.4994,-0.0121,0.1465,94.694,-0.1586,-0.0041,9.1286,-0.0018,-2.9345,5.2978,0.0144,-45.7853
89287,-106.2161,22.4994,-0.0121,0.1465,94.694,-0.1586,-0.0041,9.1286,-0.0018,-2.9345,5.2978,0.0144,-45.7853
89303,-106.2161,22.4994,-0.0121,0.1465,94.694,-0.1586,-0.0041,9.1286,-0.0018,-2.9345,5.2978,0.0144,-45.7853
89319,-106.2572,23.3694,-0.0119,0.1106,92.4969,-0.1732,-0.3637,9.3223,-0.0,-3.8166,2.0559,0.0189,-12.6361
89335,-106.2572,23.3694,-0.0119,0.1106,92.4969,-0.1732,-0.3637,9.3223,-0.0,-3.8166,2.0559,0.0189,-12.6361
89351,-106.2572,23.3694,-0.0119,0.1106,92.4969,-0.1732,-0.3637,9.3223,-0.0,-3.8166,2.0559,0.0189,-12.6361
89367,-106.2572,23.3694,-0.0119,0.1106,92.4969,-0.1732,-0.3637,9.3223,-0.0,-3.8166,2.0559,0.0189,-12.6361
89383,-106.2572,23.3694,-0.0119,0.1106,92.4969,-0.1732,-0.3637,9.3223,-0.0,-3.8166,2.0559,0.0189,-12.6361
89399,-106.2572,23.3694,-0.0119,0.1106,92.4969,-0.1732,-0.3637,9.3223,-0.0,-3.8166,2.0559,0.0189,-12.6361
89415,-106.2971,24.2862,-0.0116,0.0735,91.8994,-0.109,-0.3571,9.4282,-0.0003,0.0676,1.0837,-0.0033,-4.0419
89431,-106.2971,24.2862,-0.0116,0.0735,91.8994,-0.109,-0.3571,9.4282,-0.0003,0.0676,1.0837,-0.0033,-4.0419
89447,-106.2971,24.2862,-0.0116,0.0735,91.8994,-0.109,-0.3571,9.4282,-0.0003,0.0676,1.0837,-0.0033,-4.0419
89463,-106.2971,24.2862,-0.0116,0.0735,91.8994,-0.109,-0.3571,9.4282,-0.0003,0.0676,1.0837,-0.0033,-4.0419
89479,-106.2971,24.2862,-0.0116,0.0735,91.8994,-0.109,-0.3571,9.4282,-0.0003,0.0676,1.0837,-0.0033,-4.0419
89495,-106.2971,24.2862,-0.0116,0.0735,91.8994,-0.109,-0.3571,9.4282,-0.0003,0.0676,1.0837,-0.0033,-4.0419
89511,-106.3298,25.1829,-0.0115,0.0494,91.74,-0.0574,-0.3206,9.5169,-0.0004,0.3862,0.9374,-0.0002,-1.6674
89527,-106.3298,25.1829,-0.0115,0.0494,91.74,-0.0574,-0.3206,9.5169,-0.0004,0.3862,0.9374,-0.0002,-1.6674
89543,-106.3298,25.1829,-0.0115,0.0494,91.74,-0.0574,-0.3206,9.5169,-0.0004,0.3862,0.9374,-0.0002,-1.6674
89559,-106.3298,25.1829,-0.0115,0.0494,91.74,-0.0574,-0.3206,9.5169,-0.0004,0.3862,0.9374,-0.0002,-1.6674
89575,-106.3298,25.1829,-0.0115,0.0494,91.74,-0.0574,-0.3206,9.5169,-0.0004,0.3862,0.9374,-0.0002,-1.6674
89591,-106.3298,25.1829,-0.0115,0.0494,91.74,-0.0574,-0.3206,9.5169,-0.0004,0.3862,0.9374,-0.0002,-1.6674
89609,-106.3604,26.131,-0.0114,0.0327,91.6929,-0.0275,-0.2989,9.5787,-0.0002,0.218,0.6221,0.0017,-1.1167
89623,-106.3604,26.131,-0.0114,0.0327,91.6929,-0.0275,-0.2989,9.5787,-0.0002,0.218,0.6221,0.0017,-1.1167
89639,-106.3604,26.131,-0.0114,0.0327,91.6929,-0.0275,-0.2989,9.5787,-0.0002,0.218,0.6221,0.0017,-1.1167
89655,-106.3604,26.131,-0.0114,0.0327,91.6929,-0.0275,-0.2989,9.5787,-0.0002,0.218,0.6221,0.0017,-1.1167
89671,-106.3604,26.131,-0.0114,0.0327,91.6929,-0.0275,-0.2989,9.5787,-0.0002,0.218,0.6221,0.0017,-1.1167
89687,-106.3604,26.131,-0.0114,0.0327,91.6929,-0.0275,-0.2989,9.5787,-0.0002,0.218,0.6221,0.0017,-1.1167
89703,-106.3881,27.0397,-0.0113,0.0239,91.6805,-0.0136,-0.2904,9.6493,-0.0001,0.0908,0.7468,0.0013,-0.8216
89719,-106.3881,27.0397,-0.0113,0.0239,91.6805,-0.0136,-0.2904,9.6493,-0.0001,0.0908,0.7468,0.0013,-0.8216
89735,-106.3881,27.0397,-0.0113,0.0239,91.6805,-0.0136,-0.2904,9.6493,-0.0001,0.0908,0.7468,0.0013,-0.8216
89751,-106.3881,27.0397,-0.0113,0.0239,91.6805,-0.0136,-0.2904,9.6493,-0.0001,0.0908,0.7468,0.0013,-0.8216
89767,-106.3881,27.0397,-0.0113,0.0239,91.6805,-0.0136,-0.2904,9.6493,-0.0001,0.0908,0.7468,0.0013,-0.8216
89783,-106.3881,27.0397,-0.0113,0.0239,91.6805,-0.0136,-0.2904,9.6493,-0.0001,0.0908,0.7468,0.0013,-0.8216
89799,-106.415,27.944,-0.0113,0.019,91.677,-0.007,-0.2878,9.7142,-0.0,0.0276,0.696,0.0006,-0.7344
89815,-106.415,27.944,-0.0113,0.019,91.677,-0.007,-0.2878,9.7142,-0.0,0.0276,0.696,0.0006,-0.7344
89831,-106.415,27.944,-0.0113,0.019,91.677,-0.007,-0.2878,9.7142,-0.0,0.0276,0.696,0.0006,-0.7344
89847,-106.415,27.944,-0.0113,0.019,91.677,-0.007,-0.2878,9.7142,-0.0,0.0276,0.696,0.0006,-0.7344
89863,-106.415,27.944,-0.0113,0.019,91.677,-0.007,-0.2878,9.7142,-0.0,0.0276,0.696,0.0006,-0.7344
89881,-106.4417,28.8578,-0.0114,0.0077,91.6867,0.0208,-0.2905,9.7759,-0.0037,-0.0286,0.6581,-0.0399,-0.5878
89895,-106.4417,28.8578,-0.0114,0.0077,91.6867,0.0208,-0.2905,9.7759,-0.0037,-0.0286,0.6581,-0.0399,-0.5878
89911,-106.4417,28.8578,-0.0114,0.0077,91.6867,0.0208,-0.2905,9.7759,-0.0037,-0.0286,0.6581,-0.0399,-0.5878
89927,-106.4417,28.8578,-0.0114,0.0077,91.6867,0.0208,-0.2905,9.7759,-0.0037,-0.0286,0.6581,-0.0399,-0.5878
89943,-106.4417,28.8578,-0.0114,0.0077,91.6867,0.0208,-0.2905,9.7759,-0.0037,-0.0286,0.6581,-0.0399,-0.5878
89959,-106.4417,28.8578,-0.0114,0.0077,91.6867,0.0208,-0.2905,9.7759,-0.0037,-0.0286,0.6581,-0.0399,-0.5878
89977,-106.4687,29.7663,-0.0115,0.0049,91.6932,0.0184,-0.291,9.8286,0.0006,-0.0061,0.5683,0.047,-0.6427
89991,-106.4687,29.7663,-0.0115,0.0049,91.6932,0.0184,-0.291,9.8286,0.0006,-0.0061,0.5683,0.047,-0.6427
90007,-106.4687,29.7663,-0.0115,0.0049,91.6932,0.0184,-0.291,9.8286,0.0006,-0.0061,0.5683,0.047,-0.6427
90023,-106.4687,29.7663,-0.0115,0.0049,91.6932,0.0184,-0.291,9.8286,0.0006,-0.0061,0.5683,0.047,-0.6427
90039,-106.4687,29.7663,-0.0115,0.0049,91.6932,0.0184,-0.291,9.8286,0.0006,-0.0061,0.5683,0.047,-0.6427
90055,-106.4687,29.7663,-0.0115,0.0049,91.6932,0.0184,-0.291,9.8286,0.0006,-0.0061,0.5683,0.047,-0.6427
90072,-106.4955,30.672,-0.0113,0.0019,91.6961,0.005,-0.2922,9.8798,0.0068,-0.0126,0.5577,0.0677,-0.5448
90087,-106.4955,30.672,-0.0113,0.0019,91.6961,0.005,-0.2922,9.8798,0.0068,-0.0126,0.5577,0.0677,-0.5448
90103,-106.4955,30.672,-0.0113,0.0019,91.6961,0.005,-0.2922,9.8798,0.0068,-0.0126,0.5577,0.0677,-0.5448
90119,-106.4955,30.672,-0.0113,0.0019,91.6961,0.005,-0.2922,9.8798,0.0068,-0.0126,0.5577,0.0677,-0.5448
90135,-106.4955,30.672,-0.0113,0.0019,91.6961,0.005,-0.2922,9.8798,0.0068,-0.0126,0.5577,0.0677,-0.5448
90151,-106.4955,30.672,-0.0113,0.0019,91.6961,0.005,-0.2922,9.8798,0.0068,-0.0126,0.5577,0.0677,-0.5448
90169,-106.5246,31.6575,-0.0114,0.0102,91.7048,0.0106,-0.2951,9.922,-0.0005,-0.0295,0.4243,-0.0741,-0.7136
90183,-106.5246,31.6575,-0.0114,0.0102,91.7048,0.0106,-0.2951,9.922,-0.0005,-0.0295,0.4243,-0.0741,-0.7136
90199,-106.5246,31.6575,-0.0114,0.0102,91.7048,0.0106,-0.2951,9.922,-0.0005,-0.0295,0.4243,-0.0741,-0.7136
90215,-106.5246,31.6575,-0.0114,0.0102,91.7048,0.0106,-0.2951,9.922,-0.0005,-0.0295,0.4243,-0.0741,-0.7136
90231,-106.5246,31.6575,-0.0114,0.0102,91.7048,0.0106,-0.2951,9.922,-0.0005,-0.0295,0.4243,-0.0741,-0.7136
90247,-106.5246,31.6575,-0.0114,0.0102,91.7048,0.0106,-0.2951,9.922,-0.0005,-0.0295,0.4243,-0.0741,-0.7136
90263,-106.5535,32.6286,-0.0113,0.0115,91.7099,0.0073,-0.2973,9.9675,0.0004,-0.0226,0.4658,0.0099,-0.7418
90279,-106.5535,32.6286,-0.0113,0.0115,91.7099,0.0073,-0.2973,9.9675,0.0004,-0.0226,0.4658,0.0099,-0.7418
90295,-106.5535,32.6286,-0.0113,0.0115,91.7099,0.0073,-0.2973,9.9675,0.0004,-0.0226,0.4658,0.0099,-0.7418
90311,-106.5535,32.6286,-0.0113,0.0115,91.7099,0.0073,-0.2973,9.9675,0.0004,-0.0226,0.4658,0.0099,-0.7418
90327,-106.5535,32.6286,-0.0113,0.0115,91.7099,0.0073,-0.2973,9.9675,0.0004,-0.0226,0.4658,0.0099,-0.7418
