timestamp,x,y,z,pitch,yaw,roll,vx,vy,vz,ax,ay,az,yaw_rate
69688,-106.6867,-4.8475,-0.0601,0.0,-89.3578,0.0,-0.0,-0.0,0.236,0.0,-0.0,0.5188,-0.0
69704,-106.6867,-4.8475,-0.0601,0.0,-89.3578,0.0,-0.0,-0.0,0.236,0.0,-0.0,0.5188,-0.0
69727,-106.6867,-4.8475,-0.0601,0.0,-89.3578,0.0,-0.0,-0.0,0.236,0.0,-0.0,0.5188,-0.0
69736,-106.6867,-4.8475,-0.0601,0.0,-89.3578,0.0,-0.0,-0.0,0.236,0.0,-0.0,0.5188,-0.0
69752,-106.6867,-4.8456,-0.0391,-0.0016,-89.3578,-0.0,-0.0005,0.0407,0.1774,-0.0026,0.2298,-0.3314,-0.0001
69768,-106.6867,-4.8456,-0.0391,-0.0016,-89.3578,-0.0,-0.0005,0.0407,0.1774,-0.0026,0.2298,-0.3314,-0.0001
69784,-106.6867,-4.8456,-0.0391,-0.0016,-89.3578,-0.0,-0.0005,0.0407,0.1774,-0.0026,0.2298,-0.3314,-0.0001
69800,-106.6867,-4.8456,-0.0391,-0.0016,-89.3578,-0.0,-0.0005,0.0407,0.1774,-0.0026,0.2298,-0.3314,-0.0001
69816,-106.6867,-4.8456,-0.0391,-0.0016,-89.3578,-0.0,-0.0005,0.0407,0.1774,-0.0026,0.2298,-0.3314,-0.0001
69832,-106.6867,-4.8456,-0.0391,-0.0016,-89.3578,-0.0,-0.0005,0.0407,0.1774,-0.0026,0.2298,-0.3314,-0.0001
69854,-106.6868,-4.8398,-0.0256,-0.0067,-89.3578,0.0,-0.0022,0.1944,0.1031,-0.017,1.5196,-0.7347,-0.0004
69864,-106.6868,-4.8398,-0.0256,-0.0067,-89.3578,0.0,-0.0022,0.1944,0.1031,-0.017,1.5196,-0.7347,-0.0004
69880,-106.6868,-4.8398,-0.0256,-0.0067,-89.3578,0.0,-0.0022,0.1944,0.1031,-0.017,1.5196,-0.7347,-0.0004
69896,-106.6868,-4.8398,-0.0256,-0.0067,-89.3578,0.0,-0.0022,0.1944,0.1031,-0.017,1.5196,-0.7347,-0.0004
69912,-106.6868,-4.8398,-0.0256,-0.0067,-89.3578,0.0,-0.0022,0.1944,0.1031,-0.017,1.5196,-0.7347,-0.0004
69928,-106.6868,-4.8398,-0.0256,-0.0067,-89.3578,0.0,-0.0022,0.1944,0.1031,-0.017,1.5196,-0.7347,-0.0004
69944,-106.6868,-4.8398,-0.0256,-0.0067,-89.3578,0.0,-0.0022,0.1944,0.1031,-0.017,1.5196,-0.7347,-0.0004
69966,-106.6872,-4.8005,-0.0181,-0.0295,-89.3573,0.0,-0.0065,0.5967,0.0536,-0.038,3.568,-0.4387,-0.0929
69976,-106.6872,-4.8005,-0.0181,-0.0295,-89.3573,0.0,-0.0065,0.5967,0.0536,-0.038,3.568,-0.4387,-0.0929
69992,-106.6872,-4.8005,-0.0181,-0.0295,-89.3573,0.0,-0.0065,0.5967,0.0536,-0.038,3.568,-0.4387,-0.0929
70008,-106.6872,-4.8005,-0.0181,-0.0295,-89.3573,0.0,-0.0065,0.5967,0.0536,-0.038,3.568,-0.4387,-0.0929
70024,-106.6872,-4.8005,-0.0181,-0.0295,-89.3573,0.0,-0.0065,0.5967,0.0536,-0.038,3.568,-0.4387,-0.0929
70040,-106.6872,-4.8005,-0.0181,-0.0295,-89.3573,0.0,-0.0065,0.5967,0.0536,-0.038,3.568,-0.4387,-0.0929
70056,-106.6872,-4.8005,-0.0181,-0.0295,-89.3573,0.0,-0.0065,0.5967,0.0536,-0.038,3.568,-0.4387,-0.0929
70072,-106.6882,-4.7152,-0.0142,-0.0489,-89.3605,0.0,-0.0116,1.0163,0.0262,-0.0499,4.0705,-0.2659,-0.0725
70088,-106.6882,-4.7152,-0.0142,-0.0489,-89.3605,0.0,-0.0116,1.0163,0.0262,-0.0499,4.0705,-0.2659,-0.0725
70104,-106.6882,-4.7152,-0.0142,-0.0489,-89.3605,0.0,-0.0116,1.0163,0.0262,-0.0499,4.0705,-0.2659,-0.0725
70120,-106.6882,-4.7152,-0.0142,-0.0489,-89.3605,0.0,-0.0116,1.0163,0.0262,-0.0499,4.0705,-0.2659,-0.0725
70136,-106.6882,-4.7152,-0.0142,-0.0489,-89.3605,0.0,-0.0116,1.0163,0.0262,-0.0499,4.0705,-0.2659,-0.0725
70152,-106.6882,-4.7152,-0.0142,-0.0489,-89.3605,0.0,-0.0116,1.0163,0.0262,-0.0499,4.0705,-0.2659,-0.0725
70168,-106.6906,-4.6021,-0.0121,-0.0465,-89.2968,0.0024,-0.0281,1.207,0.0132,-0.1647,1.9097,-0.1303,4.1954
70184,-106.6906,-4.6021,-0.0121,-0.0465,-89.2968,0.0024,-0.0281,1.207,0.0132,-0.1647,1.9097,-0.1303,4.1954
70200,-106.6906,-4.6021,-0.0121,-0.0465,-89.2968,0.0024,-0.0281,1.207,0.0132,-0.1647,1.9097,-0.1303,4.1954
70216,-106.6906,-4.6021,-0.0121,-0.0465,-89.2968,0.0024,-0.0281,1.207,0.0132,-0.1647,1.9097,-0.1303,4.1954
70232,-106.6906,-4.6021,-0.0121,-0.0465,-89.2968,0.0024,-0.0281,1.207,0.0132,-0.1647,1.9097,-0.1303,4.1954
70248,-106.6906,-4.6021,-0.0121,-0.0465,-89.2968,0.0024,-0.0281,1.207,0.0132,-0.1647,1.9097,-0.1303,4.1954
70269,-106.6946,-4.4858,-0.0114,-0.0284,-89.1996,0.003,-0.0322,1.2091,0.0046,-0.0408,0.0214,-0.085,4.1811
70280,-106.6946,-4.4858,-0.0114,-0.0284,-89.1996,0.003,-0.0322,1.2091,0.0046,-0.0408,0.0214,-0.085,4.1811
70296,-106.6946,-4.4858,-0.0114,-0.0284,-89.1996,0.003,-0.0322,1.2091,0.0046,-0.0408,0.0214,-0.085,4.1811
70312,-106.6946,-4.4858,-0.0114,-0.0284,-89.1996,0.003,-0.0322,1.2091,0.0046,-0.0408,0.0214,-0.085,4.1811
70328,-106.6946,-4.4858,-0.0114,-0.0284,-89.1996,0.003,-0.0322,1.2091,0.0046,-0.0408,0.0214,-0.085,4.1811
70344,-106.6946,-4.4858,-0.0114,-0.0284,-89.1996,0.003,-0.0322,1.2091,0.0046,-0.0408,0.0214,-0.085,4.1811
70360,-106.6946,-4.4858,-0.0114,-0.0284,-89.1996,0.003,-0.0322,1.2091,0.0046,-0.0408,0.0214,-0.085,4.1811
70378,-106.6967,-4.3601,-0.0112,-0.0281,-89.2153,-0.0018,-0.0184,1.5221,0.0018,0.1223,2.7889,-0.0251,2.5136
70392,-106.6967,-4.3601,-0.0112,-0.0281,-89.2153,-0.0018,-0.0184,1.5221,0.0018,0.1223,2.7889,-0.0251,2.5136
70408,-106.6967,-4.3601,-0.0112,-0.0281,-89.2153,-0.0018,-0.0184,1.5221,0.0018,0.1223,2.7889,-0.0251,2.5136
70424,-106.6967,-4.3601,-0.0112,-0.0281,-89.2153,-0.0018,-0.0184,1.5221,0.0018,0.1223,2.7889,-0.0251,2.5136
70440,-106.6967,-4.3601,-0.0112,-0.0281,-89.2153,-0.0018,-0.0184,1.5221,0.0018,0.1223,2.7889,-0.0251,2.5136
70456,-106.6967,-4.3601,-0.0112,-0.0281,-89.2153,-0.0018,-0.0184,1.5221,0.0018,0.1223,2.7889,-0.0251,2.5136
70474,-106.6988,-4.1979,-0.0109,-0.0486,-89.2354,-0.0008,-0.0261,1.8244,0.0008,-0.0827,3.2571,-0.0108,0.0192
70488,-106.6988,-4.1979,-0.0109,-0.0486,-89.2354,-0.0008,-0.0261,1.8244,0.0008,-0.0827,3.2571,-0.0108,0.0192
70504,-106.6988,-4.1979,-0.0109,-0.0486,-89.2354,-0.0008,-0.0261,1.8244,0.0008,-0.0827,3.2571,-0.0108,0.0192
70520,-106.6988,-4.1979,-0.0109,-0.0486,-89.2354,-0.0008,-0.0261,1.8244,0.0008,-0.0827,3.2571,-0.0108,0.0192
70536,-106.6988,-4.1979,-0.0109,-0.0486,-89.2354,-0.0008,-0.0261,1.8244,0.0008,-0.0827,3.2571,-0.0108,0.0192
70552,-106.6988,-4.1979,-0.0109,-0.0486,-89.2354,-0.0008,-0.0261,1.8244,0.0008,-0.0827,3.2571,-0.0108,0.0192
70568,-106.7014,-4.0054,-0.0108,-0.0555,-89.245,-0.0008,-0.0302,2.2375,0.0004,-0.0448,4.5238,-0.0043,-0.0128
70584,-106.7014,-4.0054,-0.0108,-0.0555,-89.245,-0.0008,-0.0302,2.2375,0.0004,-0.0448,4.5238,-0.0043,-0.0128
70600,-106.7014,-4.0054,-0.0108,-0.0555,-89.245,-0.0008,-0.0302,2.2375,0.0004,-0.0448,4.5238,-0.0043,-0.0128
70616,-106.7014,-4.0054,-0.0108,-0.0555,-89.245,-0.0008,-0.0302,2.2375,0.0004,-0.0448,4.5238,-0.0043,-0.0128
70632,-106.7014,-4.0054,-0.0108,-0.0555,-89.245,-0.0008,-0.0302,2.2375,0.0004,-0.0448,4.5238,-0.0043,-0.0128
70648,-106.7014,-4.0054,-0.0108,-0.0555,-89.245,-0.0008,-0.0302,2.2375,0.0004,-0.0448,4.5238,-0.0043,-0.0128
70664,-106.7014,-4.0054,-0.0108,-0.0555,-89.245,-0.0008,-0.0302,2.2375,0.0004,-0.0448,4.5238,-0.0043,-0.0128
70686,-106.7052,-3.7446,-0.0107,-0.0689,-89.2331,0.0,-0.0372,2.7055,0.0002,-0.0626,4.1684,-0.0018,1.3016
70702,-106.7052,-3.7446,-0.0107,-0.0689,-89.2331,0.0,-0.0372,2.7055,0.0002,-0.0626,4.1684,-0.0018,1.3016
70718,-106.7052,-3.7446,-0.0107,-0.0689,-89.2331,0.0,-0.0372,2.7055,0.0002,-0.0626,4.1684,-0.0018,1.3016
70734,-106.7052,-3.7446,-0.0107,-0.0689,-89.2331,0.0,-0.0372,2.7055,0.0002,-0.0626,4.1684,-0.0018,1.3016
70750,-106.7052,-3.7446,-0.0107,-0.0689,-89.2331,0.0,-0.0372,2.7055,0.0002,-0.0626,4.1684,-0.0018,1.3016
70766,-106.7052,-3.7446,-0.0107,-0.0689,-89.2331,0.0,-0.0372,2.7055,0.0002,-0.0626,4.1684,-0.0018,1.3016
70782,-106.7052,-3.7446,-0.0107,-0.0689,-89.2331,0.0,-0.0372,2.7055,0.0002,-0.0626,4.1684,-0.0018,1.3016
70798,-106.7127,-3.4383,-0.0106,-0.0754,-88.9299,0.0033,-0.0655,3.4355,0.0001,-0.251,6.4888,-0.0005,0.4744
70814,-106.7127,-3.4383,-0.0106,-0.0754,-88.9299,0.0033,-0.0655,3.4355,0.0001,-0.251,6.4888,-0.0005,0.4744
70830,-106.7127,-3.4383,-0.0106,-0.0754,-88.9299,0.0033,-0.0655,3.4355,0.0001,-0.251,6.4888,-0.0005,0.4744
70846,-106.7127,-3.4383,-0.0106,-0.0754,-88.9299,0.0033,-0.0655,3.4355,0.0001,-0.251,6.4888,-0.0005,0.4744
70862,-106.7127,-3.4383,-0.0106,-0.0754,-88.9299,0.0033,-0.0655,3.4355,0.0001,-0.251,6.4888,-0.0005,0.4744
70878,-106.7127,-3.4383,-0.0106,-0.0754,-88.9299,0.0033,-0.0655,3.4355,0.0001,-0.251,6.4888,-0.0005,0.4744
70894,-106.7127,-3.4383,-0.0106,-0.0754,-88.9299,0.0033,-0.0655,3.4355,0.0001,-0.251,6.4888,-0.0005,0.4744
70910,-106.7196,-3.0742,-0.0106,-0.0817,-88.942,0.0021,-0.0734,3.9195,0.0,-0.0689,4.2033,-0.0008,-2.2539
70926,-106.7196,-3.0742,-0.0106,-0.0817,-88.942,0.0021,-0.0734,3.9195,0.0,-0.0689,4.2033,-0.0008,-2.2539
70942,-106.7196,-3.0742,-0.0106,-0.0817,-88.942,0.0021,-0.0734,3.9195,0.0,-0.0689,4.2033,-0.0008,-2.2539
70958,-106.7196,-3.0742,-0.0106,-0.0817,-88.942,0.0021,-0.0734,3.9195,0.0,-0.0689,4.2033,-0.0008,-2.2539
70974,-106.7196,-3.0742,-0.0106,-0.0817,-88.942,0.0021,-0.0734,3.9195,0.0,-0.0689,4.2033,-0.0008,-2.2539
70997,-106.726,-2.6925,-0.0105,-0.0871,-88.9919,0.0003,-0.0778,4.4803,0.0,-0.0475,6.1227,-0.0002,0.7481
71006,-106.726,-2.6925,-0.0105,-0.0871,-88.9919,0.0003,-0.0778,4.4803,0.0,-0.0475,6.1227,-0.0002,0.7481
71022,-106.726,-2.6925,-0.0105,-0.0871,-88.9919,0.0003,-0.0778,4.4803,0.0,-0.0475,6.1227,-0.0002,0.7481
71038,-106.726,-2.6925,-0.0105,-0.0871,-88.9919,0.0003,-0.0778,4.4803,0.0,-0.0475,6.1227,-0.0002,0.7481
71054,-106.726,-2.6925,-0.0105,-0.0871,-88.9919,0.0003,-0.0778,4.4803,0.0,-0.0475,6.1227,-0.0002,0.7481
71070,-106.726,-2.6925,-0.0105,-0.0871,-88.9919,0.0003,-0.0778,4.4803,0.0,-0.0475,6.1227,-0.0002,0.7481
71086,-106.726,-2.6925,-0.0105,-0.0871,-88.9919,0.0003,-0.0778,4.4803,0.0,-0.0475,6.1227,-0.0002,0.7481
71102,-106.726,-2.6925,-0.0105,-0.0871,-88.9919,0.0003,-0.0778,4.4803,0.0,-0.0475,6.1227,-0.0002,0.7481
71118,-106.7346,-2.2135,-0.0105,-0.0948,-88.9783,0.0002,-0.092,5.1121,0.0,-0.1335,5.9182,0.0,-1.034
71134,-106.7346,-2.2135,-0.0105,-0.0948,-88.9783,0.0002,-0.092,5.1121,0.0,-0.1335,5.9182,0.0,-1.034
71150,-106.7346,-2.2135,-0.0105,-0.0948,-88.9783,0.0002,-0.092,5.1121,0.0,-0.1335,5.9182,0.0,-1.034
71166,-106.7346,-2.2135,-0.0105,-0.0948,-88.9783,0.0002,-0.092,5.1121,0.0,-0.1335,5.9182,0.0,-1.034
71182,-106.7346,-2.2135,-0.0105,-0.0948,-88.9783,0.0002,-0.092,5.1121,0.0,-0.1335,5.9182,0.0,-1.034
71204,-106.7346,-2.2135,-0.0105,-0.0948,-88.9783,0.0002,-0.092,5.1121,0.0,-0.1335,5.9182,0.0,-1.034
71214,-106.7443,-1.6713,-0.0104,-0.0997,-88.9765,0.0002,-0.1021,5.7597,0.0,-0.0994,6.3791,-0.0,1.329
71230,-106.7443,-1.6713,-0.0104,-0.0997,-88.9765,0.0002,-0.1021,5.7597,0.0,-0.0994,6.3791,-0.0,1.329
71246,-106.7443,-1.6713,-0.0104,-0.0997,-88.9765,0.0002,-0.1021,5.7597,0.0,-0.0994,6.3791,-0.0,1.329
71262,-106.7443,-1.6713,-0.0104,-0.0997,-88.9765,0.0002,-0.1021,5.7597,0.0,-0.0994,6.3791,-0.0,1.329
71278,-106.7443,-1.6713,-0.0104,-0.0997,-88.9765,0.0002,-0.1021,5.7597,0.0,-0.0994,6.3791,-0.0,1.329
71294,-106.7443,-1.6713,-0.0104,-0.0997,-88.9765,0.0002,-0.1021,5.7597,0.0,-0.0994,6.3791,-0.0,1.329
71310,-106.7443,-1.6713,-0.0104,-0.0997,-88.9765,0.0002,-0.1021,5.7597,0.0,-0.0994,6.3791,-0.0,1.329
71326,-106.7552,-1.0613,-0.0104,-0.1057,-88.9704,0.0003,-0.1167,6.4603,0.0,-0.1371,6.5984,-0.0001,-1.2537
71342,-106.7552,-1.0613,-0.0104,-0.1057,-88.9704,0.0003,-0.1167,6.4603,0.0,-0.1371,6.5984,-0.0001,-1.2537
71358,-106.7552,-1.0613,-0.0104,-0.1057,-88.9704,0.0003,-0.1167,6.4603,0.0,-0.1371,6.5984,-0.0001,-1.2537
71374,-106.7552,-1.0613,-0.0104,-0.1057,-88.9704,0.0003,-0.1167,6.4603,0.0,-0.1371,6.5984,-0.0001,-1.2537
71390,-106.7552,-1.0613,-0.0104,-0.1057,-88.9704,0.0003,-0.1167,6.4603,0.0,-0.1371,6.5984,-0.0001,-1.2537
71406,-106.7552,-1.0613,-0.0104,-0.1057,-88.9704,0.0003,-0.1167,6.4603,0.0,-0.1371,6.5984,-0.0001,-1.2537
71426,-106.7675,-0.3779,-0.0103,-0.1129,-88.967,0.0002,-0.1291,7.2088,0.0,-0.1086,6.5151,0.0,1.1563
71438,-106.7675,-0.3779,-0.0103,-0.1129,-88.967,0.0002,-0.1291,7.2088,0.0,-0.1086,6.5151,0.0,1.1563
71454,-106.7675,-0.3779,-0.0103,-0.1129,-88.967,0.0002,-0.1291,7.2088,0.0,-0.1086,6.5151,0.0,1.1563
71470,-106.7675,-0.3779,-0.0103,-0.1129,-88.967,0.0002,-0.1291,7.2088,0.0,-0.1086,6.5151,0.0,1.1563
71486,-106.7675,-0.3779,-0.0103,-0.1129,-88.967,0.0002,-0.1291,7.2088,0.0,-0.1086,6.5151,0.0,1.1563
71502,-106.7675,-0.3779,-0.0103,-0.1129,-88.967,0.0002,-0.1291,7.2088,0.0,-0.1086,6.5151,0.0,1.1563
71518,-106.7675,-0.3779,-0.0103,-0.1129,-88.967,0.0002,-0.1291,7.2088,0.0,-0.1086,6.5151,0.0,1.1563
71534,-106.7811,0.3804,-0.0103,-0.117,-88.972,0.0001,-0.143,7.9333,0.0,-0.1296,6.7768,-0.0,-0.8928
71550,-106.7811,0.3804,-0.0103,-0.117,-88.972,0.0001,-0.143,7.9333,0.0,-0.1296,6.7768,-0.0,-0.8928
71566,-106.7811,0.3804,-0.0103,-0.117,-88.972,0.0001,-0.143,7.9333,0.0,-0.1296,6.7768,-0.0,-0.8928
71582,-106.7811,0.3804,-0.0103,-0.117,-88.972,0.0001,-0.143,7.9333,0.0,-0.1296,6.7768,-0.0,-0.8928
71598,-106.7811,0.3804,-0.0103,-0.117,-88.972,0.0001,-0.143,7.9333,0.0,-0.1296,6.7768,-0.0,-0.8928
71614,-106.7811,0.3804,-0.0103,-0.117,-88.972,0.0001,-0.143,7.9333,0.0,-0.1296,6.7768,-0.0,-0.8928
71630,-106.7811,0.3804,-0.0103,-0.117,-88.972,0.0001,-0.143,7.9333,0.0,-0.1296,6.7768,-0.0,-0.8928
71648,-106.7811,0.3804,-0.0103,-0.117,-88.972,0.0001,-0.143,7.9333,0.0,-0.1296,6.7768,-0.0,-0.8928
71662,-106.7811,0.3804,-0.0103,-0.117,-88.972,0.0001,-0.143,7.9333,0.0,-0.1296,6.7768,-0.0,-0.8928
71678,-106.7811,0.3804,-0.0103,-0.117,-88.972,0.0001,-0.143,7.9333,0.0,-0.1296,6.7768,-0.0,-0.8928
71694,-106.7811,0.3804,-0.0103,-0.117,-88.972,0.0001,-0.143,7.9333,0.0,-0.1296,6.7768,-0.0,-0.8928
71710,-106.7811,0.3804,-0.0103,-0.117,-88.972,0.0001,-0.143,7.9333,0.0,-0.1296,6.7768,-0.0,-0.8928
71726,-106.7811,0.3804,-0.0103,-0.117,-88.972,0.0001,-0.143,7.9333,0.0,-0.1296,6.7768,-0.0,-0.8928
71742,-106.7811,0.3804,-0.0103,-0.117,-88.972,0.0001,-0.143,7.9333,0.0,-0.1296,6.7768,-0.0,-0.8928
71758,-106.7811,0.3804,-0.0103,-0.117,-88.972,0.0001,-0.143,7.9333,0.0,-0.1296,6.7768,-0.0,-0.8928
71774,-106.7811,0.3804,-0.0103,-0.117,-88.972,0.0001,-0.143,7.9333,0.0,-0.1296,6.7768,-0.0,-0.8928
71790,-106.7811,0.3804,-0.0103,-0.117,-88.972,0.0001,-0.143,7.9333,0.0,-0.1296,6.7768,-0.0,-0.8928
71806,-106.7811,0.3804,-0.0103,-0.117,-88.972,0.0001,-0.143,7.9333,0.0,-0.1296,6.7768,-0.0,-0.8928
71822,-106.7811,0.3804,-0.0103,-0.117,-88.972,0.0001,-0.143,7.9333,0.0,-0.1296,6.7768,-0.0,-0.8928
71838,-106.7811,0.3804,-0.0103,-0.117,-88.972,0.0001,-0.143,7.9333,0.0,-0.1296,6.7768,-0.0,-0.8928
71854,-106.7811,0.3804,-0.0103,-0.117,-88.972,0.0001,-0.143,7.9333,0.0,-0.1296,6.7768,-0.0,-0.8928
71870,-106.7811,0.3804,-0.0103,-0.117,-88.972,0.0001,-0.143,7.9333,0.0,-0.1296,6.7768,-0.0,-0.8928
71886,-106.7811,0.3804,-0.0103,-0.117,-88.972,0.0001,-0.143,7.9333,0.0,-0.1296,6.7768,-0.0,-0.8928
71902,-106.7811,0.3804,-0.0103,-0.117,-88.972,0.0001,-0.143,7.9333,0.0,-0.1296,6.7768,-0.0,-0.8928
71918,-106.7811,0.3804,-0.0103,-0.117,-88.972,0.0001,-0.143,7.9333,0.0,-0.1296,6.7768,-0.0,-0.8928
71934,-106.7811,0.3804,-0.0103,-0.117,-88.972,0.0001,-0.143,7.9333,0.0,-0.1296,6.7768,-0.0,-0.8928
71950,-106.7811,0.3804,-0.0103,-0.117,-88.972,0.0001,-0.143,7.9333,0.0,-0.1296,6.7768,-0.0,-0.8928
71966,-106.7811,0.3804,-0.0103,-0.117,-88.972,0.0001,-0.143,7.9333,0.0,-0.1296,6.7768,-0.0,-0.8928
71982,-106.7811,0.3804,-0.0103,-0.117,-88.972,0.0001,-0.143,7.9333,0.0,-0.1296,6.7768,-0.0,-0.8928
71998,-106.7811,0.3804,-0.0103,-0.117,-88.972,0.0001,-0.143,7.9333,0.0,-0.1296,6.7768,-0.0,-0.8928
72014,-106.7811,0.3804,-0.0103,-0.117,-88.972,0.0001,-0.143,7.9333,0.0,-0.1296,6.7768,-0.0,-0.8928
72030,-106.7811,0.3804,-0.0103,-0.117,-88.972,0.0001,-0.143,7.9333,0.0,-0.1296,6.7768,-0.0,-0.8928
72046,-106.796,1.2069,-0.0103,-0.1141,-88.9677,0.0001,-0.154,8.5746,0.0,-0.0276,1.6032,0.0,0.6647
72069,-106.796,1.2069,-0.0103,-0.1141,-88.9677,0.0001,-0.154,8.5746,0.0,-0.0276,1.6032,0.0,0.6647
72078,-106.812,2.0944,-0.0104,-0.1075,-88.9704,0.0,-0.1647,9.1517,0.0,-0.1058,5.7204,-0.0,-0.3283
72094,-106.812,2.0944,-0.0104,-0.1075,-88.9704,0.0,-0.1647,9.1517,0.0,-0.1058,5.7204,-0.0,-0.3283
72110,-106.812,2.0944,-0.0104,-0.1075,-88.9704,0.0,-0.1647,9.1517,0.0,-0.1058,5.7204,-0.0,-0.3283
72126,-106.812,2.0944,-0.0104,-0.1075,-88.9704,0.0,-0.1647,9.1517,0.0,-0.1058,5.7204,-0.0,-0.3283
72142,-106.812,2.0944,-0.0104,-0.1075,-88.9704,0.0,-0.1647,9.1517,0.0,-0.1058,5.7204,-0.0,-0.3283
72158,-106.812,2.0944,-0.0104,-0.1075,-88.9704,0.0,-0.1647,9.1517,0.0,-0.1058,5.7204,-0.0,-0.3283
72178,-106.8289,3.0368,-0.0104,-0.0993,-88.9694,0.0003,-0.174,9.6739,0.0,-0.0884,4.9805,0.0002,0.0759
72190,-106.8289,3.0368,-0.0104,-0.0993,-88.9694,0.0003,-0.174,9.6739,0.0,-0.0884,4.9805,0.0002,0.0759
72206,-106.8289,3.0368,-0.0104,-0.0993,-88.9694,0.0003,-0.174,9.6739,0.0,-0.0884,4.9805,0.0002,0.0759
72222,-106.8289,3.0368,-0.0104,-0.0993,-88.9694,0.0003,-0.174,9.6739,0.0,-0.0884,4.9805,0.0002,0.0759
72238,-106.8289,3.0368,-0.0104,-0.0993,-88.9694,0.0003,-0.174,9.6739,0.0,-0.0884,4.9805,0.0002,0.0759
72254,-106.8289,3.0368,-0.0104,-0.0993,-88.9694,0.0003,-0.174,9.6739,0.0,-0.0884,4.9805,0.0002,0.0759
72270,-106.8289,3.0368,-0.0104,-0.0993,-88.9694,0.0003,-0.174,9.6739,0.0,-0.0884,4.9805,0.0002,0.0759
72286,-106.8468,4.0304,-0.0105,-0.0928,-88.9695,0.0,-0.183,10.1748,0.0,-0.0843,4.6614,-0.0001,-0.001
72302,-106.8468,4.0304,-0.0105,-0.0928,-88.9695,0.0,-0.183,10.1748,0.0,-0.0843,4.6614,-0.0001,-0.001
72318,-106.8468,4.0304,-0.0105,-0.0928,-88.9695,0.0,-0.183,10.1748,0.0,-0.0843,4.6614,-0.0001,-0.001
72334,-106.8468,4.0304,-0.0105,-0.0928,-88.9695,0.0,-0.183,10.1748,0.0,-0.0843,4.6614,-0.0001,-0.001
72350,-106.8468,4.0304,-0.0105,-0.0928,-88.9695,0.0,-0.183,10.1748,0.0,-0.0843,4.6614,-0.0001,-0.001
72366,-106.8468,4.0304,-0.0105,-0.0928,-88.9695,0.0,-0.183,10.1748,0.0,-0.0843,4.6614,-0.0001,-0.001
72382,-106.8468,4.0304,-0.0105,-0.0928,-88.9695,0.0,-0.183,10.1748,0.0,-0.0843,4.6614,-0.0001,-0.001
72398,-106.8656,5.0732,-0.0105,-0.0875,-88.9695,-0.0,-0.1916,10.6503,-0.0,-0.0803,4.4683,-0.0002,0.0001
72414,-106.8656,5.0732,-0.0105,-0.0875,-88.9695,-0.0,-0.1916,10.6503,-0.0,-0.0803,4.4683,-0.0002,0.0001
72430,-106.8656,5.0732,-0.0105,-0.0875,-88.9695,-0.0,-0.1916,10.6503,-0.0,-0.0803,4.4683,-0.0002,0.0001
72446,-106.8656,5.0732,-0.0105,-0.0875,-88.9695,-0.0,-0.1916,10.6503,-0.0,-0.0803,4.4683,-0.0002,0.0001
72462,-106.8656,5.0732,-0.0105,-0.0875,-88.9695,-0.0,-0.1916,10.6503,-0.0,-0.0803,4.4683,-0.0002,0.0001
72478,-106.8656,5.0732,-0.0105,-0.0875,-88.9695,-0.0,-0.1916,10.6503,-0.0,-0.0803,4.4683,-0.0002,0.0001
72495,-106.8656,5.0732,-0.0105,-0.0875,-88.9695,-0.0,-0.1916,10.6503,-0.0,-0.0803,4.4683,-0.0002,0.0001
72511,-106.8851,6.1614,-0.0106,-0.0816,-88.9695,-0.0,-0.1993,11.0815,0.0,-0.0745,4.1412,0.0001,-0.0
72533,-106.8851,6.1614,-0.0106,-0.0816,-88.9695,-0.0,-0.1993,11.0815,0.0,-0.0745,4.1412,0.0001,-0.0
72549,-106.8851,6.1614,-0.0106,-0.0816,-88.9695,-0.0,-0.1993,11.0815,0.0,-0.0745,4.1412,0.0001,-0.0
72565,-106.8851,6.1614,-0.0106,-0.0816,-88.9695,-0.0,-0.1993,11.0815,0.0,-0.0745,4.1412,0.0001,-0.0
72581,-106.8851,6.1614,-0.0106,-0.0816,-88.9695,-0.0,-0.1993,11.0815,0.0,-0.0745,4.1412,0.0001,-0.0
72597,-106.8851,6.1614,-0.0106,-0.0816,-88.9695,-0.0,-0.1993,11.0815,0.0,-0.0745,4.1412,0.0001,-0.0
72615,-106.8851,6.1614,-0.0106,-0.0816,-88.9695,-0.0,-0.1993,11.0815,0.0,-0.0745,4.1412,0.0001,-0.0
72629,-106.8851,6.1614,-0.0106,-0.0816,-88.9695,-0.0,-0.1993,11.0815,0.0,-0.0745,4.1412,0.0001,-0.0
72645,-106.8851,6.1614,-0.0106,-0.0816,-88.9695,-0.0,-0.1993,11.0815,0.0,-0.0745,4.1412,0.0001,-0.0
72677,-106.8851,6.1614,-0.0106,-0.0816,-88.9695,-0.0,-0.1993,11.0815,0.0,-0.0745,4.1412,0.0001,-0.0
72693,-106.8851,6.1614,-0.0106,-0.0816,-88.9695,-0.0,-0.1993,11.0815,0.0,-0.0745,4.1412,0.0001,-0.0
72709,-106.8851,6.1614,-0.0106,-0.0816,-88.9695,-0.0,-0.1993,11.0815,0.0,-0.0745,4.1412,0.0001,-0.0
72725,-106.8851,6.1614,-0.0106,-0.0816,-88.9695,-0.0,-0.1993,11.0815,0.0,-0.0745,4.1412,0.0001,-0.0
72741,-106.8851,6.1614,-0.0106,-0.0816,-88.9695,-0.0,-0.1993,11.0815,0.0,-0.0745,4.1412,0.0001,-0.0
72757,-106.8851,6.1614,-0.0106,-0.0816,-88.9695,-0.0,-0.1993,11.0815,0.0,-0.0745,4.1412,0.0001,-0.0
72773,-106.8851,6.1614,-0.0106,-0.0816,-88.9695,-0.0,-0.1993,11.0815,0.0,-0.0745,4.1412,0.0001,-0.0
72789,-106.8851,6.1614,-0.0106,-0.0816,-88.9695,-0.0,-0.1993,11.0815,0.0,-0.0745,4.1412,0.0001,-0.0
72805,-106.8851,6.1614,-0.0106,-0.0816,-88.9695,-0.0,-0.1993,11.0815,0.0,-0.0745,4.1412,0.0001,-0.0
72821,-106.8851,6.1614,-0.0106,-0.0816,-88.9695,-0.0,-0.1993,11.0815,0.0,-0.0745,4.1412,0.0001,-0.0
72837,-106.9054,7.2907,-0.0106,-0.0757,-88.9695,0.0,-0.2065,11.4779,0.0,-0.0256,1.4239,0.0,-0.0
72853,-106.9054,7.2907,-0.0106,-0.0757,-88.9695,0.0,-0.2065,11.4779,0.0,-0.0256,1.4239,0.0,-0.0
72876,-106.956,8.4485,-0.0107,-0.0605,-90.3692,0.1241,-1.041,11.6273,0.001,-8.3563,1.4964,0.0098,-30.6282
72888,-106.956,8.4485,-0.0107,-0.0605,-90.3692,0.1241,-1.041,11.6273,0.001,-8.3563,1.4964,0.0098,-30.6282
72904,-106.956,8.4485,-0.0107,-0.0605,-90.3692,0.1241,-1.041,11.6273,0.001,-8.3563,1.4964,0.0098,-30.6282
72920,-106.956,8.4485,-0.0107,-0.0605,-90.3692,0.1241,-1.041,11.6273,0.001,-8.3563,1.4964,0.0098,-30.6282
72936,-106.956,8.4485,-0.0107,-0.0605,-90.3692,0.1241,-1.041,11.6273,0.001,-8.3563,1.4964,0.0098,-30.6282
72952,-106.956,8.4485,-0.0107,-0.0605,-90.3692,0.1241,-1.041,11.6273,0.001,-8.3563,1.4964,0.0098,-30.6282
72968,-106.956,8.4485,-0.0107,-0.0605,-90.3692,0.1241,-1.041,11.6273,0.001,-8.3563,1.4964,0.0098,-30.6282
72992,-107.0732,9.6015,-0.0108,-0.0229,-96.023,0.2604,-1.9958,11.4534,0.0011,-8.1867,-1.4907,0.0006,-80.6429
73000,-107.0732,9.6015,-0.0108,-0.0229,-96.023,0.2604,-1.9958,11.4534,0.0011,-8.1867,-1.4907,0.0006,-80.6429
73016,-107.0732,9.6015,-0.0108,-0.0229,-96.023,0.2604,-1.9958,11.4534,0.0011,-8.1867,-1.4907,0.0006,-80.6429
73032,-107.0732,9.6015,-0.0108,-0.0229,-96.023,0.2604,-1.9958,11.4534,0.0011,-8.1867,-1.4907,0.0006,-80.6429
73048,-107.0732,9.6015,-0.0108,-0.0229,-96.023,0.2604,-1.9958,11.4534,0.0011,-8.1867,-1.4907,0.0006,-80.6429
73064,-107.0732,9.6015,-0.0108,-0.0229,-96.023,0.2604,-1.9958,11.4534,0.0011,-8.1867,-1.4907,0.0006,-80.6429
73080,-107.0732,9.6015,-0.0108,-0.0229,-96.023,0.2604,-1.9958,11.4534,0.0011,-8.1867,-1.4907,0.0006,-80.6429
73096,-107.0732,9.6015,-0.0108,-0.0229,-96.023,0.2604,-1.9958,11.4534,0.0011,-8.1867,-1.4907,0.0006,-80.6429
73112,-107.0732,9.6015,-0.0108,-0.0229,-96.023,0.2604,-1.9958,11.4534,0.0011,-8.1867,-1.4907,0.0006,-80.6429
73128,-107.0732,9.6015,-0.0108,-0.0229,-96.023,0.2604,-1.9958,11.4534,0.0011,-8.1867,-1.4907,0.0006,-80.6429
73144,-107.0732,9.6015,-0.0108,-0.0229,-96.023,0.2604,-1.9958,11.4534,0.0011,-8.1867,-1.4907,0.0006,-80.6429
73160,-107.0732,9.6015,-0.0108,-0.0229,-96.023,0.2604,-1.9958,11.4534,0.0011,-8.1867,-1.4907,0.0006,-80.6429
73176,-107.0732,9.6015,-0.0108,-0.0229,-96.023,0.2604,-1.9958,11.4534,0.0011,-8.1867,-1.4907,0.0006,-80.6429
73192,-107.0732,9.6015,-0.0108,-0.0229,-96.023,0.2604,-1.9958,11.4534,0.0011,-8.1867,-1.4907,0.0006,-80.6429
73208,-107.0732,9.6015,-0.0108,-0.0229,-96.023,0.2604,-1.9958,11.4534,0.0011,-8.1867,-1.4907,0.0006,-80.6429
73224,-107.0732,9.6015,-0.0108,-0.0229,-96.023,0.2604,-1.9958,11.4534,0.0011,-8.1867,-1.4907,0.0006,-80.6429
73241,-107.0732,9.6015,-0.0108,-0.0229,-96.023,0.2604,-1.9958,11.4534,0.0011,-8.1867,-1.4907,0.0006,-80.6429
73256,-107.0732,9.6015,-0.0108,-0.0229,-96.023,0.2604,-1.9958,11.4534,0.0011,-8.1867,-1.4907,0.0006,-80.6429
73288,-107.0732,9.6015,-0.0108,-0.0229,-96.023,0.2604,-1.9958,11.4534,0.0011,-8.1867,-1.4907,0.0006,-80.6429
73304,-107.0732,9.6015,-0.0108,-0.0229,-96.023,0.2604,-1.9958,11.4534,0.0011,-8.1867,-1.4907,0.0006,-80.6429
73320,-107.0732,9.6015,-0.0108,-0.0229,-96.023,0.2604,-1.9958,11.4534,0.0011,-8.1867,-1.4907,0.0006,-80.6429
73336,-107.0732,9.6015,-0.0108,-0.0229,-96.023,0.2604,-1.9958,11.4534,0.0011,-8.1867,-1.4907,0.0006,-80.6429
73352,-107.0732,9.6015,-0.0108,-0.0229,-96.023,0.2604,-1.9958,11.4534,0.0011,-8.1867,-1.4907,0.0006,-80.6429
73368,-107.0732,9.6015,-0.0108,-0.0229,-96.023,0.2604,-1.9958,11.4534,0.0011,-8.1867,-1.4907,0.0006,-80.6429
73384,-107.0732,9.6015,-0.0108,-0.0229,-96.023,0.2604,-1.9958,11.4534,0.0011,-8.1867,-1.4907,0.0006,-80.6429
73400,-107.0732,9.6015,-0.0108,-0.0229,-96.023,0.2604,-1.9958,11.4534,0.0011,-8.1867,-1.4907,0.0006,-80.6429
73416,-107.0732,9.6015,-0.0108,-0.0229,-96.023,0.2604,-1.9958,11.4534,0.0011,-8.1867,-1.4907,0.0006,-80.6429
73432,-107.0732,9.6015,-0.0108,-0.0229,-96.023,0.2604,-1.9958,11.4534,0.0011,-8.1867,-1.4907,0.0006,-80.6429
73448,-107.0732,9.6015,-0.0108,-0.0229,-96.023,0.2604,-1.9958,11.4534,0.0011,-8.1867,-1.4907,0.0006,-80.6429
73464,-107.0732,9.6015,-0.0108,-0.0229,-96.023,0.2604,-1.9958,11.4534,0.0011,-8.1867,-1.4907,0.0006,-80.6429
73480,-107.0732,9.6015,-0.0108,-0.0229,-96.023,0.2604,-1.9958,11.4534,0.0011,-8.1867,-1.4907,0.0006,-80.6429
73496,-107.0732,9.6015,-0.0108,-0.0229,-96.023,0.2604,-1.9958,11.4534,0.0011,-8.1867,-1.4907,0.0006,-80.6429
73512,-107.1606,10.7333,-0.0109,-0.0193,-103.9587,-0.0042,-0.6204,11.2988,-0.0021,3.4385,-0.3866,-0.0079,-66.7707
73528,-107.1606,10.7333,-0.0109,-0.0193,-103.9587,-0.0042,-0.6204,11.2988,-0.0021,3.4385,-0.3866,-0.0079,-66.7707
73552,-107.1606,10.7333,-0.0109,-0.0193,-103.9587,-0.0042,-0.6204,11.2988,-0.0021,3.4385,-0.3866,-0.0079,-66.7707
73560,-107.1523,11.7337,-0.0116,0.085,-109.3409,-0.2225,-0.4416,8.9416,0.0009,1.7947,-23.6613,0.0305,-48.5403
73576,-107.1523,11.7337,-0.0116,0.085,-109.3409,-0.2225,-0.4416,8.9416,0.0009,1.7947,-23.6613,0.0305,-48.5403
73592,-107.1523,11.7337,-0.0116,0.085,-109.3409,-0.2225,-0.4416,8.9416,0.0009,1.7947,-23.6613,0.0305,-48.5403
73608,-107.1523,11.7337,-0.0116,0.085,-109.3409,-0.2225,-0.4416,8.9416,0.0009,1.7947,-23.6613,0.0305,-48.5403
73624,-107.1523,11.7337,-0.0116,0.085,-109.3409,-0.2225,-0.4416,8.9416,0.0009,1.7947,-23.6613,0.0305,-48.5403
73640,-107.1523,11.7337,-0.0116,0.085,-109.3409,-0.2225,-0.4416,8.9416,0.0009,1.7947,-23.6613,0.0305,-48.5403
73663,-107.1623,12.4679,-0.0126,0.2288,-112.8416,-0.3412,-0.1987,6.229,0.0013,2.2235,-24.8309,0.0038,-20.9809
73672,-107.1623,12.4679,-0.0126,0.2288,-112.8416,-0.3412,-0.1987,6.229,0.0013,2.2235,-24.8309,0.0038,-20.9809
73688,-107.1623,12.4679,-0.0126,0.2288,-112.8416,-0.3412,-0.1987,6.229,0.0013,2.2235,-24.8309,0.0038,-20.9809
73704,-107.1623,12.4679,-0.0126,0.2288,-112.8416,-0.3412,-0.1987,6.229,0.0013,2.2235,-24.8309,0.0038,-20.9809
73720,-107.1623,12.4679,-0.0126,0.2288,-112.8416,-0.3412,-0.1987,6.229,0.0013,2.2235,-24.8309,0.0038,-20.9809
73736,-107.1623,12.4679,-0.0126,0.2288,-112.8416,-0.3412,-0.1987,6.229,0.0013,2.2235,-24.8309,0.0038,-20.9809
73752,-107.1623,12.4679,-0.0126,0.2288,-112.8416,-0.3412,-0.1987,6.229,0.0013,2.2235,-24.8309,0.0038,-20.9809
73768,-107.1623,12.4679,-0.0126,0.2288,-112.8416,-0.3412,-0.1987,6.229,0.0013,2.2235,-24.8309,0.0038,-20.9809
73800,-107.162,12.9394,-0.013,0.3119,-113.3052,-0.4584,0.122,3.5339,0.0011,2.7372,-23.0034,-0.002,7.0759
73816,-107.162,12.9394,-0.013,0.3119,-113.3052,-0.4584,0.122,3.5339,0.0011,2.7372,-23.0034,-0.002,7.0759
73832,-107.162,12.9394,-0.013,0.3119,-113.3052,-0.4584,0.122,3.5339,0.0011,2.7372,-23.0034,-0.002,7.0759
73848,-107.162,12.9394,-0.013,0.3119,-113.3052,-0.4584,0.122,3.5339,0.0011,2.7372,-23.0034,-0.002,7.0759
73864,-107.162,12.9394,-0.013,0.3119,-113.3052,-0.4584,0.122,3.5339,0.0011,2.7372,-23.0034,-0.002,7.0759
73880,-107.162,12.9394,-0.013,0.3119,-113.3052,-0.4584,0.122,3.5339,0.0011,2.7372,-23.0034,-0.002,7.0759
73896,-107.1335,13.1791,-0.0131,0.3245,-112.4263,-0.5034,0.449,1.574,-0.0002,2.928,-17.5495,-0.0116,5.9516
73912,-107.1335,13.1791,-0.0131,0.3245,-112.4263,-0.5034,0.449,1.574,-0.0002,2.928,-17.5495,-0.0116,5.9516
73928,-107.1335,13.1791,-0.0131,0.3245,-112.4263,-0.5034,0.449,1.574,-0.0002,2.928,-17.5495,-0.0116,5.9516
73944,-107.1335,13.1791,-0.0131,0.3245,-112.4263,-0.5034,0.449,1.574,-0.0002,2.928,-17.5495,-0.0116,5.9516
73960,-107.1335,13.1791,-0.0131,0.3245,-112.4263,-0.5034,0.449,1.574,-0.0002,2.928,-17.5495,-0.0116,5.9516
73976,-107.1335,13.1791,-0.0131,0.3245,-112.4263,-0.5034,0.449,1.574,-0.0002,2.928,-17.5495,-0.0116,5.9516
73994,-107.0938,13.2994,-0.0126,0.2517,-112.2178,-0.3545,0.4325,1.0995,-0.0013,-0.1639,-4.718,-0.0111,-3.7726
74008,-107.0938,13.2994,-0.0126,0.2517,-112.2178,-0.3545,0.4325,1.0995,-0.0013,-0.1639,-4.718,-0.0111,-3.7726
74024,-107.0938,13.2994,-0.0126,0.2517,-112.2178,-0.3545,0.4325,1.0995,-0.0013,-0.1639,-4.718,-0.0111,-3.7726
74040,-107.0938,13.2994,-0.0126,0.2517,-112.2178,-0.3545,0.4325,1.0995,-0.0013,-0.1639,-4.718,-0.0111,-3.7726
74056,-107.0938,13.2994,-0.0126,0.2517,-112.2178,-0.3545,0.4325,1.0995,-0.0013,-0.1639,-4.718,-0.0111,-3.7726
74072,-107.0938,13.2994,-0.0126,0.2517,-112.2178,-0.3545,0.4325,1.0995,-0.0013,-0.1639,-4.718,-0.0111,-3.7726
74092,-107.0554,13.3972,-0.0123,0.1692,-112.1706,-0.2159,0.2416,0.5731,-0.0065,-1.8887,-5.2079,-0.051,0.3073
74104,-107.0554,13.3972,-0.0123,0.1692,-112.1706,-0.2159,0.2416,0.5731,-0.0065,-1.8887,-5.2079,-0.051,0.3073
74120,-107.0554,13.3972,-0.0123,0.1692,-112.1706,-0.2159,0.2416,0.5731,-0.0065,-1.8887,-5.2079,-0.051,0.3073
74136,-107.0554,13.3972,-0.0123,0.1692,-112.1706,-0.2159,0.2416,0.5731,-0.0065,-1.8887,-5.2079,-0.051,0.3073
74152,-107.0554,13.3972,-0.0123,0.1692,-112.1706,-0.2159,0.2416,0.5731,-0.0065,-1.8887,-5.2079,-0.051,0.3073
74168,-107.0554,13.3972,-0.0123,0.1692,-112.1706,-0.2159,0.2416,0.5731,-0.0065,-1.8887,-5.2079,-0.051,0.3073
74184,-107.0554,13.3972,-0.0123,0.1692,-112.1706,-0.2159,0.2416,0.5731,-0.0065,-1.8887,-5.2079,-0.051,0.3073
74200,-107.055,13.3979,-0.0126,0.1721,-112.1814,-0.1273,-0.1355,-0.3444,-0.0012,-3.6691,-8.9274,0.0509,0.1302
74216,-107.055,13.3979,-0.0126,0.1721,-112.1814,-0.1273,-0.1355,-0.3444,-0.0012,-3.6691,-8.9274,0.0509,0.1302
74232,-107.055,13.3979,-0.0126,0.1721,-112.1814,-0.1273,-0.1355,-0.3444,-0.0012,-3.6691,-8.9274,0.0509,0.1302
74248,-107.055,13.3979,-0.0126,0.1721,-112.1814,-0.1273,-0.1355,-0.3444,-0.0012,-3.6691,-8.9274,0.0509,0.1302
74264,-107.055,13.3979,-0.0126,0.1721,-112.1814,-0.1273,-0.1355,-0.3444,-0.0012,-3.6691,-8.9274,0.0509,0.1302
74280,-107.055,13.3979,-0.0126,0.1721,-112.1814,-0.1273,-0.1355,-0.3444,-0.0012,-3.6691,-8.9274,0.0509,0.1302
74296,-107.055,13.3979,-0.0126,0.1721,-112.1814,-0.1273,-0.1355,-0.3444,-0.0012,-3.6691,-8.9274,0.0509,0.1302
74312,-107.0792,13.3384,-0.0125,0.1431,-112.1958,-0.0715,-0.2957,-0.73,0.0001,-1.465,-3.5253,0.0117,-0.3182
74328,-107.0792,13.3384,-0.0125,0.1431,-112.1958,-0.0715,-0.2957,-0.73,0.0001,-1.465,-3.5253,0.0117,-0.3182
74344,-107.0792,13.3384,-0.0125,0.1431,-112.1958,-0.0715,-0.2957,-0.73,0.0001,-1.465,-3.5253,0.0117,-0.3182
74360,-107.0792,13.3384,-0.0125,0.1431,-112.1958,-0.0715,-0.2957,-0.73,0.0001,-1.465,-3.5253,0.0117,-0.3182
74376,-107.0792,13.3384,-0.0125,0.1431,-112.1958,-0.0715,-0.2957,-0.73,0.0001,-1.465,-3.5253,0.0117,-0.3182
74392,-107.0792,13.3384,-0.0125,0.1431,-112.1958,-0.0715,-0.2957,-0.73,0.0001,-1.465,-3.5253,0.0117,-0.3182
74408,-107.0792,13.3384,-0.0125,0.1431,-112.1958,-0.0715,-0.2957,-0.73,0.0001,-1.465,-3.5253,0.0117,-0.3182
74424,-107.0792,13.3384,-0.0125,0.1431,-112.1958,-0.0715,-0.2957,-0.73,0.0001,-1.465,-3.5253,0.0117,-0.3182
74440,-107.0792,13.3384,-0.0125,0.1431,-112.1958,-0.0715,-0.2957,-0.73,0.0001,-1.465,-3.5253,0.0117,-0.3182
74456,-107.0792,13.3384,-0.0125,0.1431,-112.1958,-0.0715,-0.2957,-0.73,0.0001,-1.465,-3.5253,0.0117,-0.3182
74472,-107.0792,13.3384,-0.0125,0.1431,-112.1958,-0.0715,-0.2957,-0.73,0.0001,-1.465,-3.5253,0.0117,-0.3182
74488,-107.0792,13.3384,-0.0125,0.1431,-112.1958,-0.0715,-0.2957,-0.73,0.0001,-1.465,-3.5253,0.0117,-0.3182
74504,-107.0792,13.3384,-0.0125,0.1431,-112.1958,-0.0715,-0.2957,-0.73,0.0001,-1.465,-3.5253,0.0117,-0.3182
74520,-107.0792,13.3384,-0.0125,0.1431,-112.1958,-0.0715,-0.2957,-0.73,0.0001,-1.465,-3.5253,0.0117,-0.3182
74537,-107.1118,13.2584,-0.0121,0.0995,-112.1867,-0.0404,-0.3752,-0.9263,0.0003,-0.4494,-1.1097,0.0012,-0.1494
74552,-107.1118,13.2584,-0.0121,0.0995,-112.1867,-0.0404,-0.3752,-0.9263,0.0003,-0.4494,-1.1097,0.0012,-0.1494
74577,-107.147,13.1719,-0.0116,0.0638,-112.193,-0.0228,-0.3575,-0.8811,0.0041,0.1893,0.4819,0.0412,0.1515
74584,-107.147,13.1719,-0.0116,0.0638,-112.193,-0.0228,-0.3575,-0.8811,0.0041,0.1893,0.4819,0.0412,0.1515
74600,-107.147,13.1719,-0.0116,0.0638,-112.193,-0.0228,-0.3575,-0.8811,0.0041,0.1893,0.4819,0.0412,0.1515
74616,-107.147,13.1719,-0.0116,0.0638,-112.193,-0.0228,-0.3575,-0.8811,0.0041,0.1893,0.4819,0.0412,0.1515
74632,-107.147,13.1719,-0.0116,0.0638,-112.193,-0.0228,-0.3575,-0.8811,0.0041,0.1893,0.4819,0.0412,0.1515
74648,-107.147,13.1719,-0.0116,0.0638,-112.193,-0.0228,-0.3575,-0.8811,0.0041,0.1893,0.4819,0.0412,0.1515
74664,-107.147,13.1719,-0.0116,0.0638,-112.193,-0.0228,-0.3575,-0.8811,0.0041,0.1893,0.4819,0.0412,0.1515
74687,-107.147,13.1719,-0.0116,0.0638,-112.193,-0.0228,-0.3575,-0.8811,0.0041,0.1893,0.4819,0.0412,0.1515
74696,-107.147,13.1719,-0.0116,0.0638,-112.193,-0.0228,-0.3575,-0.8811,0.0041,0.1893,0.4819,0.0412,0.1515
74712,-107.147,13.1719,-0.0116,0.0638,-112.193,-0.0228,-0.3575,-0.8811,0.0041,0.1893,0.4819,0.0412,0.1515
74728,-107.1875,13.0718,-0.0114,0.0435,-112.2218,-0.0129,-0.4089,-1.0116,0.0014,-0.4651,-1.1799,-0.0244,-0.4171
74744,-107.1875,13.0718,-0.0114,0.0435,-112.2218,-0.0129,-0.4089,-1.0116,0.0014,-0.4651,-1.1799,-0.0244,-0.4171
74760,-107.1875,13.0718,-0.0114,0.0435,-112.2218,-0.0129,-0.4089,-1.0116,0.0014,-0.4651,-1.1799,-0.0244,-0.4171
74776,-107.1875,13.0718,-0.0114,0.0435,-112.2218,-0.0129,-0.4089,-1.0116,0.0014,-0.4651,-1.1799,-0.0244,-0.4171
74792,-107.1875,13.0718,-0.0114,0.0435,-112.2218,-0.0129,-0.4089,-1.0116,0.0014,-0.4651,-1.1799,-0.0244,-0.4171
74809,-107.23,12.9672,-0.0112,0.025,-112.227,-0.0069,-0.4055,-0.9945,-0.0003,0.0283,0.143,-0.0143,0.1239
74825,-107.23,12.9672,-0.0112,0.025,-112.227,-0.0069,-0.4055,-0.9945,-0.0003,0.0283,0.143,-0.0143,0.1239
74841,-107.23,12.9672,-0.0112,0.025,-112.227,-0.0069,-0.4055,-0.9945,-0.0003,0.0283,0.143,-0.0143,0.1239
74857,-107.23,12.9672,-0.0112,0.025,-112.227,-0.0069,-0.4055,-0.9945,-0.0003,0.0283,0.143,-0.0143,0.1239
74873,-107.23,12.9672,-0.0112,0.025,-112.227,-0.0069,-0.4055,-0.9945,-0.0003,0.0283,0.143,-0.0143,0.1239
74889,-107.23,12.9672,-0.0112,0.025,-112.227,-0.0069,-0.4055,-0.9945,-0.0003,0.0283,0.143,-0.0143,0.1239
74905,-107.23,12.9672,-0.0112,0.025,-112.227,-0.0069,-0.4055,-0.9945,-0.0003,0.0283,0.143,-0.0143,0.1239
74921,-107.2725,12.8636,-0.0112,0.013,-112.21,-0.0037,-0.4038,-0.9872,-0.0004,0.0166,0.0677,-0.001,0.1988
74939,-107.2725,12.8636,-0.0112,0.013,-112.21,-0.0037,-0.4038,-0.9872,-0.0004,0.0166,0.0677,-0.001,0.1988
74955,-107.2725,12.8636,-0.0112,0.013,-112.21,-0.0037,-0.4038,-0.9872,-0.0004,0.0166,0.0677,-0.001,0.1988
74971,-107.2725,12.8636,-0.0112,0.013,-112.21,-0.0037,-0.4038,-0.9872,-0.0004,0.0166,0.0677,-0.001,0.1988
