timestamp,x,y,z,pitch,yaw,roll,vx,vy,vz,ax,ay,az,yaw_rate
33498,-106.6867,-4.8475,0.5145,0.0,-89.3578,0.0,0.0,0.0,-1.233,0.0,0.0,-9.8,0.0
33514,-106.6867,-4.8475,0.5005,0.0,-89.3578,0.0,0.0,0.0,-1.3375,0.0,0.0,-9.8,0.0
33530,-106.6867,-4.8475,0.5005,0.0,-89.3578,0.0,0.0,0.0,-1.3375,0.0,0.0,-9.8,0.0
33546,-106.6867,-4.8475,0.5005,0.0,-89.3578,0.0,0.0,0.0,-1.3375,0.0,0.0,-9.8,0.0
33562,-106.6867,-4.8475,0.5005,0.0,-89.3578,0.0,0.0,0.0,-1.3375,0.0,0.0,-9.8,0.0
33578,-106.6867,-4.8475,0.5005,0.0,-89.3578,0.0,0.0,0.0,-1.3375,0.0,0.0,-9.8,0.0
33594,-106.6867,-4.8475,0.5005,0.0,-89.3578,0.0,0.0,0.0,-1.3375,0.0,0.0,-9.8,0.0
33612,-106.6867,-4.8475,0.3129,0.0,-89.3578,0.0,0.0,0.0,-2.3175,0.0,0.0,-9.6147,0.0
33626,-106.6867,-4.8475,0.3129,0.0,-89.3578,0.0,0.0,0.0,-2.3175,0.0,0.0,-9.6147,0.0
33642,-106.6867,-4.8475,0.3129,0.0,-89.3578,0.0,0.0,0.0,-2.3175,0.0,0.0,-9.6147,0.0
33658,-106.6867,-4.8475,0.3129,0.0,-89.3578,0.0,0.0,0.0,-2.3175,0.0,0.0,-9.6147,0.0
33674,-106.6867,-4.8475,0.3129,0.0,-89.3578,0.0,0.0,0.0,-2.3175,0.0,0.0,-9.6147,0.0
33690,-106.6867,-4.8475,0.3129,0.0,-89.3578,0.0,0.0,0.0,-2.3175,0.0,0.0,-9.6147,0.0
33706,-106.6867,-4.8475,0.3129,0.0,-89.3578,0.0,0.0,0.0,-2.3175,0.0,0.0,-9.6147,0.0
33722,-106.6867,-4.8476,0.0365,0.0005,-89.3578,0.0,0.0002,-0.0138,-2.8886,0.0016,-0.1402,-5.8022,0.0
33738,-106.6867,-4.8476,0.0365,0.0005,-89.3578,0.0,0.0002,-0.0138,-2.8886,0.0016,-0.1402,-5.8022,0.0
33754,-106.6867,-4.8476,0.0365,0.0005,-89.3578,0.0,0.0002,-0.0138,-2.8886,0.0016,-0.1402,-5.8022,0.0
33770,-106.6867,-4.8476,0.0365,0.0005,-89.3578,0.0,0.0002,-0.0138,-2.8886,0.0016,-0.1402,-5.8022,0.0
33786,-106.6867,-4.8476,0.0365,0.0005,-89.3578,0.0,0.0002,-0.0138,-2.8886,0.0016,-0.1402,-5.8022,0.0
33802,-106.6867,-4.8476,0.0365,0.0005,-89.3578,0.0,0.0002,-0.0138,-2.8886,0.0016,-0.1402,-5.8022,0.0
33826,-106.6868,-4.8405,-0.0796,-0.0036,-89.3578,0.0,-0.0005,0.0419,-0.2908,-0.0059,0.5233,24.3893,-0.0
33834,-106.6868,-4.8405,-0.0796,-0.0036,-89.3578,0.0,-0.0005,0.0419,-0.2908,-0.0059,0.5233,24.3893,-0.0
33850,-106.6868,-4.8405,-0.0796,-0.0036,-89.3578,0.0,-0.0005,0.0419,-0.2908,-0.0059,0.5233,24.3893,-0.0
33866,-106.6868,-4.8405,-0.0796,-0.0036,-89.3578,0.0,-0.0005,0.0419,-0.2908,-0.0059,0.5233,24.3893,-0.0
33882,-106.6868,-4.8405,-0.0796,-0.0036,-89.3578,0.0,-0.0005,0.0419,-0.2908,-0.0059,0.5233,24.3893,-0.0
33898,-106.6868,-4.8405,-0.0796,-0.0036,-89.3578,0.0,-0.0005,0.0419,-0.2908,-0.0059,0.5233,24.3893,-0.0
33914,-106.6868,-4.8405,-0.0796,-0.0036,-89.3578,0.0,-0.0005,0.0419,-0.2908,-0.0059,0.5233,24.3893,-0.0
33932,-106.6872,-4.8017,-0.0724,-0.0342,-89.3582,0.0,-0.0086,0.7726,0.2211,-0.0702,6.3342,4.437,-0.0269
33946,-106.6872,-4.8017,-0.0724,-0.0342,-89.3582,0.0,-0.0086,0.7726,0.2211,-0.0702,6.3342,4.437,-0.0269
33962,-106.6872,-4.8017,-0.0724,-0.0342,-89.3582,0.0,-0.0086,0.7726,0.2211,-0.0702,6.3342,4.437,-0.0269
33978,-106.6872,-4.8017,-0.0724,-0.0342,-89.3582,0.0,-0.0086,0.7726,0.2211,-0.0702,6.3342,4.437,-0.0269
33994,-106.6872,-4.8017,-0.0724,-0.0342,-89.3582,0.0,-0.0086,0.7726,0.2211,-0.0702,6.3342,4.437,-0.0269
34010,-106.6872,-4.8017,-0.0724,-0.0342,-89.3582,0.0,-0.0086,0.7726,0.2211,-0.0702,6.3342,4.437,-0.0269
34026,-106.6872,-4.8017,-0.0724,-0.0342,-89.3582,0.0,-0.0086,0.7726,0.2211,-0.0702,6.3342,4.437,-0.0269
34042,-106.6895,-4.6949,-0.0471,-0.0618,-89.2626,0.0009,-0.0158,1.1235,0.2308,-0.0726,3.5025,0.0976,-2.4202
34058,-106.6895,-4.6949,-0.0471,-0.0618,-89.2626,0.0009,-0.0158,1.1235,0.2308,-0.0726,3.5025,0.0976,-2.4202
34074,-106.6895,-4.6949,-0.0471,-0.0618,-89.2626,0.0009,-0.0158,1.1235,0.2308,-0.0726,3.5025,0.0976,-2.4202
34090,-106.6895,-4.6949,-0.0471,-0.0618,-89.2626,0.0009,-0.0158,1.1235,0.2308,-0.0726,3.5025,0.0976,-2.4202
34106,-106.6895,-4.6949,-0.0471,-0.0618,-89.2626,0.0009,-0.0158,1.1235,0.2308,-0.0726,3.5025,0.0976,-2.4202
34129,-106.6908,-4.5772,-0.0313,-0.058,-89.3091,0.0008,-0.0212,1.3931,0.1419,-0.0609,3.0555,-1.0084,1.5186
34138,-106.6908,-4.5772,-0.0313,-0.058,-89.3091,0.0008,-0.0212,1.3931,0.1419,-0.0609,3.0555,-1.0084,1.5186
34157,-106.6914,-4.5293,-0.0272,-0.0507,-89.3115,0.0,-0.0161,1.3909,0.113,0.1494,-0.0653,-0.8397,1.3847
34170,-106.6914,-4.5293,-0.0272,-0.0507,-89.3115,0.0,-0.0161,1.3909,0.113,0.1494,-0.0653,-0.8397,1.3847
34186,-106.6916,-4.4945,-0.0247,-0.046,-89.3381,-0.0006,-0.0145,1.4358,0.0965,0.0652,1.8207,-0.6642,-2.6047
34202,-106.6916,-4.4945,-0.0247,-0.046,-89.3381,-0.0006,-0.0145,1.4358,0.0965,0.0652,1.8207,-0.6642,-2.6047
34218,-106.6921,-4.4544,-0.0223,-0.041,-89.336,-0.0008,-0.0157,1.4344,0.0823,-0.0436,-0.0506,-0.5074,1.3996
34237,-106.6924,-4.4179,-0.0206,-0.0405,-89.3498,-0.0007,-0.0172,1.5537,0.0687,-0.0625,5.0083,-0.5745,-0.2249
34250,-106.6924,-4.4179,-0.0206,-0.0405,-89.3498,-0.0007,-0.0172,1.5537,0.0687,-0.0625,5.0083,-0.5745,-0.2249
34266,-106.693,-4.3693,-0.0187,-0.0414,-89.3381,-0.0006,-0.0191,1.6637,0.0582,-0.0642,3.6963,-0.3497,0.3236
34282,-106.693,-4.3693,-0.0187,-0.0414,-89.3381,-0.0006,-0.0191,1.6637,0.0582,-0.0642,3.6963,-0.3497,0.3236
34298,-106.6937,-4.3245,-0.0173,-0.0382,-89.312,-0.0005,-0.0176,1.5614,0.0474,0.0552,-3.7027,-0.3941,0.0002
34314,-106.6937,-4.3245,-0.0173,-0.0382,-89.312,-0.0005,-0.0176,1.5614,0.0474,0.0552,-3.7027,-0.3941,0.0002
34330,-106.6944,-4.2702,-0.0161,-0.0392,-89.3083,-0.0003,-0.0212,1.7048,0.0374,-0.1169,4.6214,-0.32,-0.6425
34349,-106.6947,-4.2202,-0.0151,-0.042,-89.3421,-0.0003,-0.0216,1.946,0.0318,-0.0149,9.0119,-0.2091,0.5477
34362,-106.6947,-4.2202,-0.0151,-0.042,-89.3421,-0.0003,-0.0216,1.946,0.0318,-0.0149,9.0119,-0.2091,0.5477
34378,-106.6954,-4.1703,-0.0144,-0.0507,-89.3328,-0.0002,-0.0257,2.1559,0.0265,-0.1776,9.0158,-0.2285,0.1512
34396,-106.6961,-4.1155,-0.0138,-0.0576,-89.3283,-0.0001,-0.0277,2.356,0.0226,-0.0817,8.2653,-0.1631,-0.4324
34410,-106.6961,-4.1155,-0.0138,-0.0576,-89.3283,-0.0001,-0.0277,2.356,0.0226,-0.0817,8.2653,-0.1631,-0.4324
34426,-106.6968,-4.0477,-0.0132,-0.0589,-89.3411,-0.0002,-0.0262,2.2758,0.0188,0.0521,-2.7335,-0.127,-0.4731
34442,-106.6968,-4.0477,-0.0132,-0.0589,-89.3411,-0.0002,-0.0262,2.2758,0.0188,0.0521,-2.7335,-0.127,-0.4731
34458,-106.6975,-3.9888,-0.0128,-0.0618,-89.3396,-0.0,-0.0313,2.5594,0.0153,-0.213,11.7891,-0.1471,-0.5581
34478,-106.698,-3.9259,-0.0124,-0.0647,-89.3705,-0.0002,-0.0295,2.5856,0.0129,0.075,1.0777,-0.0978,-1.2565
34490,-106.698,-3.9259,-0.0124,-0.0647,-89.3705,-0.0002,-0.0295,2.5856,0.0129,0.075,1.0777,-0.0978,-1.2565
34509,-106.6989,-3.8459,-0.0121,-0.068,-89.3685,-0.0006,-0.0308,2.8096,0.0108,-0.0455,7.659,-0.0744,-1.8915
34522,-106.6989,-3.8459,-0.0121,-0.068,-89.3685,-0.0006,-0.0308,2.8096,0.0108,-0.0455,7.659,-0.0744,-1.8915
34538,-106.6996,-3.7618,-0.0118,-0.0729,-89.3858,-0.0009,-0.0306,2.9331,0.0087,0.0072,4.3068,-0.0733,-0.2482
34554,-106.6996,-3.7618,-0.0118,-0.0729,-89.3858,-0.0009,-0.0306,2.9331,0.0087,0.0072,4.3068,-0.0733,-0.2482
34570,-106.7004,-3.6635,-0.0115,-0.0802,-89.406,-0.0012,-0.0324,3.2792,0.0067,-0.0579,11.1453,-0.0634,-0.5069
34589,-106.7014,-3.5704,-0.0112,-0.0888,-89.3981,-0.001,-0.0372,3.5385,0.0056,-0.1795,9.6389,-0.0388,-1.2436
34602,-106.7014,-3.5704,-0.0112,-0.0888,-89.3981,-0.001,-0.0372,3.5385,0.0056,-0.1795,9.6389,-0.0388,-1.2436
34620,-106.7026,-3.4762,-0.0111,-0.0901,-89.3803,-0.0007,-0.0381,3.5747,0.0046,-0.0339,1.3591,-0.0375,0.6553
34634,-106.7026,-3.4762,-0.0111,-0.0901,-89.3803,-0.0007,-0.0381,3.5747,0.0046,-0.0339,1.3591,-0.0375,0.6553
34652,-106.704,-3.359,-0.011,-0.0932,-89.3611,-0.0,-0.0424,3.7812,0.0036,-0.1371,6.6077,-0.0329,-0.0318
34666,-106.704,-3.359,-0.011,-0.0932,-89.3611,-0.0,-0.0424,3.7812,0.0036,-0.1371,6.6077,-0.0329,-0.0318
34682,-106.7052,-3.2618,-0.0109,-0.0952,-89.3474,0.0003,-0.0467,4.0037,0.0031,-0.1729,8.9915,-0.0218,-1.2063
34698,-106.7067,-3.1426,-0.0108,-0.0928,-89.3301,0.0005,-0.0465,3.983,0.0025,0.0066,-0.6982,-0.0182,-0.9773
34714,-106.7067,-3.1426,-0.0108,-0.0928,-89.3301,0.0005,-0.0465,3.983,0.0025,0.0066,-0.6982,-0.0182,-0.9773
34733,-106.7076,-3.0383,-0.0107,-0.0946,-89.3712,0.0002,-0.0487,4.3375,0.002,-0.0918,14.3808,-0.02,-2.3202
34748,-106.7086,-2.9335,-0.0107,-0.0962,-89.386,-0.0002,-0.0475,4.423,0.0017,0.0511,3.5867,-0.0139,-0.3234
34762,-106.7086,-2.9335,-0.0107,-0.0962,-89.386,-0.0002,-0.0475,4.423,0.0017,0.0511,3.5867,-0.0139,-0.3234
34780,-106.71,-2.7877,-0.0106,-0.0991,-89.4097,-0.0007,-0.0481,4.6516,0.0014,-0.0174,7.2193,-0.0109,-0.0908
34794,-106.71,-2.7877,-0.0106,-0.0991,-89.4097,-0.0007,-0.0481,4.6516,0.0014,-0.0174,7.2193,-0.0109,-0.0908
34812,-106.711,-2.6691,-0.0106,-0.1017,-89.425,-0.001,-0.0486,4.8885,0.0012,-0.0227,9.6049,-0.0086,0.9978
34826,-106.7121,-2.5507,-0.0105,-0.1027,-89.442,-0.0012,-0.049,4.9924,0.001,-0.016,4.344,-0.0079,-0.6255
34842,-106.7121,-2.5507,-0.0105,-0.1027,-89.442,-0.0012,-0.049,4.9924,0.001,-0.016,4.344,-0.0079,-0.6255
34860,-106.7135,-2.4017,-0.0105,-0.1045,-89.4476,-0.0012,-0.0521,5.2339,0.0008,-0.1056,8.3557,-0.0055,-2.1034
34874,-106.7135,-2.4017,-0.0105,-0.1045,-89.4476,-0.0012,-0.0521,5.2339,0.0008,-0.1056,8.3557,-0.0055,-2.1034
34892,-106.715,-2.2649,-0.0105,-0.1028,-89.4372,-0.0011,-0.0527,5.3071,0.0006,-0.0237,2.8127,-0.0063,0.5777
34906,-106.715,-2.2649,-0.0105,-0.1028,-89.4372,-0.0011,-0.0527,5.3071,0.0006,-0.0237,2.8127,-0.0063,0.5777
34922,-106.7164,-2.1217,-0.0105,-0.1038,-89.437,-0.001,-0.054,5.5533,0.0005,-0.0484,9.4038,-0.0044,1.5472
34940,-106.7178,-1.9648,-0.0105,-0.1032,-89.4488,-0.0009,-0.0551,5.646,0.0004,-0.0401,3.3231,-0.003,-0.2752
34954,-106.7178,-1.9648,-0.0105,-0.1032,-89.4488,-0.0009,-0.0551,5.646,0.0004,-0.0401,3.3231,-0.003,-0.2752
34975,-106.7194,-1.8108,-0.0104,-0.1041,-89.441,-0.0007,-0.0585,5.9013,0.0004,-0.1302,9.6379,-0.0032,-1.1933
34986,-106.7209,-1.6685,-0.0104,-0.1052,-89.4341,-0.0006,-0.0599,6.054,0.0003,-0.056,6.4287,-0.0033,0.2823
35002,-106.7209,-1.6685,-0.0104,-0.1052,-89.4341,-0.0006,-0.0599,6.054,0.0003,-0.056,6.4287,-0.0033,0.2823
35020,-106.7225,-1.5048,-0.0104,-0.1104,-89.436,-0.0005,-0.0626,6.3673,0.0002,-0.1034,11.9973,-0.0012,0.3355
35034,-106.7225,-1.5048,-0.0104,-0.1104,-89.436,-0.0005,-0.0626,6.3673,0.0002,-0.1034,11.9973,-0.0012,0.3355
35050,-106.7243,-1.3125,-0.0103,-0.1138,-89.4415,-0.0005,-0.0638,6.5063,0.0002,-0.0431,4.6845,-0.0016,-0.2758
35068,-106.7259,-1.1536,-0.0103,-0.1151,-89.4377,-0.0004,-0.0665,6.7386,0.0002,-0.1099,9.7305,-0.0017,-0.4272
35082,-106.7259,-1.1536,-0.0103,-0.1151,-89.4377,-0.0004,-0.0665,6.7386,0.0002,-0.1099,9.7305,-0.0017,-0.4272
35098,-106.7274,-0.9969,-0.0103,-0.1176,-89.4374,-0.0004,-0.0682,6.9387,0.0001,-0.0755,8.7702,-0.0012,0.0389
35117,-106.7291,-0.8334,-0.0103,-0.1213,-89.4373,-0.0003,-0.0705,7.1736,0.0001,-0.0996,10.2011,-0.0008,0.0061
35130,-106.7291,-0.8334,-0.0103,-0.1213,-89.4373,-0.0003,-0.0705,7.1736,0.0001,-0.0996,10.2011,-0.0008,0.0061
35146,-106.7307,-0.6652,-0.0103,-0.1245,-89.4371,-0.0003,-0.0724,7.3695,0.0001,-0.0834,8.5125,-0.0006,0.0109
35165,-106.7327,-0.467,-0.0102,-0.1274,-89.4371,-0.0003,-0.0746,7.5952,0.0001,-0.0845,8.5633,-0.0004,-0.0107
35178,-106.7327,-0.467,-0.0102,-0.1274,-89.4371,-0.0003,-0.0746,7.5952,0.0001,-0.0845,8.5633,-0.0004,-0.0107
35194,-106.7344,-0.2917,-0.0102,-0.1285,-89.4368,-0.0003,-0.0762,7.7604,0.0001,-0.0713,7.2596,-0.0014,0.0261
35210,-106.7344,-0.2917,-0.0102,-0.1285,-89.4368,-0.0003,-0.0762,7.7604,0.0001,-0.0713,7.2596,-0.0014,0.0261
35226,-106.7366,-0.0604,-0.0102,-0.1288,-89.4372,-0.0002,-0.0784,7.9802,0.0001,-0.0738,7.5133,0.0001,-0.0916
35244,-106.7388,0.1581,-0.0102,-0.1266,-89.4355,-0.0002,-0.0796,8.1126,0.0001,-0.0455,4.8912,-0.0005,0.1346
35258,-106.7388,0.1581,-0.0102,-0.1266,-89.4355,-0.0002,-0.0796,8.1126,0.0001,-0.0455,4.8912,-0.0005,0.1346
35274,-106.7406,0.3458,-0.0102,-0.1241,-89.4361,-0.0002,-0.0812,8.2655,0.0,-0.068,6.6894,-0.0005,-0.0225
35290,-106.743,0.5861,-0.0103,-0.1203,-89.4365,-0.0001,-0.0826,8.4065,0.0,-0.0497,4.9074,-0.0003,-0.0092
35306,-106.743,0.5861,-0.0103,-0.1203,-89.4365,-0.0001,-0.0826,8.4065,0.0,-0.0497,4.9074,-0.0003,-0.0092
35324,-106.745,0.7888,-0.0103,-0.1171,-89.4367,-0.0001,-0.0841,8.5549,0.0,-0.0618,6.2261,-0.0002,-0.0097
35338,-106.747,0.9921,-0.0103,-0.1142,-89.4369,-0.0001,-0.0854,8.6844,0.0,-0.0539,5.5001,-0.0003,-0.0067
35354,-106.747,0.9921,-0.0103,-0.1142,-89.4369,-0.0001,-0.0854,8.6844,0.0,-0.0539,5.5001,-0.0003,-0.0067
35370,-106.749,1.195,-0.0103,-0.1123,-89.437,-0.0001,-0.0869,8.8372,0.0,-0.0648,6.6216,-0.0002,-0.0046
35388,-106.7511,1.4076,-0.0103,-0.1105,-89.4371,-0.0001,-0.0882,8.9752,0.0,-0.0566,5.7949,-0.0004,-0.0031
35402,-106.7511,1.4076,-0.0103,-0.1105,-89.4371,-0.0001,-0.0882,8.9752,0.0,-0.0566,5.7949,-0.0004,-0.0031
35418,-106.7532,1.6193,-0.0104,-0.1089,-89.4372,-0.0001,-0.0896,9.1156,0.0,-0.0587,6.0144,0.0,-0.0021
35434,-106.7532,1.6193,-0.0104,-0.1089,-89.4372,-0.0001,-0.0896,9.1156,0.0,-0.0587,6.0144,0.0,-0.0021
35450,-106.7558,1.885,-0.0104,-0.1067,-89.4372,-0.0001,-0.0911,9.2735,0.0,-0.0534,5.4809,0.0001,-0.0014
35466,-106.7558,1.885,-0.0104,-0.1067,-89.4372,-0.0001,-0.0911,9.2735,0.0,-0.0534,5.4809,0.0001,-0.0014
35482,-106.7588,2.1919,-0.0105,-0.0999,-89.4374,0.0051,-0.0924,9.4498,0.0009,-0.0402,5.39,0.0282,-0.0471
35500,-106.761,2.4201,-0.0105,-0.0997,-89.4369,0.0026,-0.0941,9.5778,0.0006,-0.0684,5.3498,-0.0129,0.0245
35514,-106.761,2.4201,-0.0105,-0.0997,-89.4369,0.0026,-0.0941,9.5778,0.0006,-0.0684,5.3498,-0.0129,0.0245
35530,-106.7632,2.6455,-0.0105,-0.0989,-89.4369,0.0014,-0.0954,9.6964,0.0004,-0.056,5.078,-0.0084,-0.0042
35548,-106.7654,2.8701,-0.0105,-0.0977,-89.4368,0.0008,-0.0965,9.8121,0.0003,-0.0513,5.0363,-0.0051,0.0075
35562,-106.7654,2.8701,-0.0105,-0.0977,-89.4368,0.0008,-0.0965,9.8121,0.0003,-0.0513,5.0363,-0.0051,0.0075
35578,-106.7682,3.1538,-0.0105,-0.0958,-89.4368,0.0004,-0.0979,9.9516,0.0002,-0.0482,4.8717,-0.004,-0.0099
35594,-106.7682,3.1538,-0.0105,-0.0958,-89.4368,0.0004,-0.0979,9.9516,0.0002,-0.0482,4.8717,-0.004,-0.0099
35610,-106.771,3.4393,-0.0105,-0.0937,-89.4366,0.0003,-0.0993,10.0877,0.0001,-0.0465,4.787,-0.0022,0.0277
35629,-106.7733,3.6745,-0.0105,-0.092,-89.4367,0.0002,-0.1003,10.1949,0.0001,-0.0452,4.6304,-0.0014,-0.0175
35642,-106.7733,3.6745,-0.0105,-0.092,-89.4367,0.0002,-0.1003,10.1949,0.0001,-0.0452,4.6304,-0.0014,-0.0175
35658,-106.7757,3.919,-0.0105,-0.0903,-89.4366,0.0002,-0.1014,10.3041,0.0,-0.0445,4.5827,-0.0027,0.0151
35674,-106.7781,4.1565,-0.0105,-0.0887,-89.4366,0.0001,-0.1024,10.4067,0.0,-0.0438,4.4808,-0.0002,-0.0078
35690,-106.7781,4.1565,-0.0105,-0.0887,-89.4366,0.0001,-0.1024,10.4067,0.0,-0.0438,4.4808,-0.0002,-0.0078
35706,-106.7808,4.4375,-0.0105,-0.0867,-89.4365,0.0001,-0.1035,10.5247,0.0,-0.043,4.4056,0.0005,0.0125
35722,-106.7839,4.744,-0.0105,-0.0846,-89.4367,0.0001,-0.1047,10.6493,0.0,-0.0424,4.3099,-0.0007,-0.0252
35738,-106.7839,4.744,-0.0105,-0.0846,-89.4367,0.0001,-0.1047,10.6493,0.0,-0.0424,4.3099,-0.0007,-0.0252
35756,-106.7863,4.9951,-0.0105,-0.083,-89.4366,0.0001,-0.1057,10.7485,0.0,-0.0413,4.2323,-0.0001,0.015
35770,-106.7863,4.9951,-0.0105,-0.083,-89.4366,0.0001,-0.1057,10.7485,0.0,-0.0413,4.2323,-0.0001,0.015
35786,-106.7896,5.3234,-0.0106,-0.0811,-89.4366,0.0001,-0.1069,10.8743,0.0,-0.0407,4.1499,-0.0002,0.0053
35805,-106.7922,5.5887,-0.0106,-0.0796,-89.4366,0.0,-0.1079,10.973,0.0,-0.0399,4.0718,-0.0006,-0.0033
35818,-106.7922,5.5887,-0.0106,-0.0796,-89.4366,0.0,-0.1079,10.973,0.0,-0.0399,4.0718,-0.0006,-0.0033
35837,-106.795,5.8796,-0.0106,-0.0779,-89.4366,0.0,-0.1089,11.0785,-0.0,-0.0392,4.0017,-0.0003,0.0037
35850,-106.795,5.8796,-0.0106,-0.0779,-89.4366,0.0,-0.1089,11.0785,-0.0,-0.0392,4.0017,-0.0003,0.0037
35866,-106.7984,6.2197,-0.0106,-0.0762,-89.4366,0.0001,-0.1101,11.1981,-0.0,-0.0385,3.9235,-0.0,0.0011
35882,-106.7984,6.2197,-0.0106,-0.0762,-89.4366,0.0001,-0.1101,11.1981,-0.0,-0.0385,3.9235,-0.0,0.0011
35898,-106.8013,6.5179,-0.0106,-0.0746,-89.4366,0.0,-0.1111,11.3,0.0,-0.0378,3.8491,0.0007,-0.0011
35917,-106.8041,6.8011,-0.0106,-0.0733,-89.4366,0.0,-0.112,11.3942,0.0,-0.0372,3.7823,-0.0003,0.0007
35930,-106.8041,6.8011,-0.0106,-0.0733,-89.4366,0.0,-0.112,11.3942,0.0,-0.0372,3.7823,-0.0003,0.0007
35946,-106.807,7.0944,-0.0106,-0.0719,-89.4366,0.0,-0.113,11.4895,-0.0,-0.0366,3.719,-0.0004,-0.0005
35965,-106.8097,7.3716,-0.0106,-0.0707,-89.4366,0.0,-0.1138,11.5773,0.0,-0.0359,3.6574,0.0003,0.0003
35978,-106.8097,7.3716,-0.0106,-0.0707,-89.4366,0.0,-0.1138,11.5773,0.0,-0.0359,3.6574,0.0003,0.0003
35994,-106.8123,7.6397,-0.0106,-0.0696,-89.4366,0.0,-0.1147,11.6602,-0.0,-0.0354,3.6004,-0.0003,-0.0001
36013,-106.8151,7.925,-0.0107,-0.0684,-89.4366,0.0,-0.1155,11.7465,-0.0,-0.0348,3.5443,-0.0008,0.0001
36026,-106.8151,7.925,-0.0107,-0.0684,-89.4366,0.0,-0.1155,11.7465,-0.0,-0.0348,3.5443,-0.0008,0.0001
36045,-106.8184,8.2595,-0.0107,-0.0671,-89.4366,0.0,-0.1165,11.8452,0.0,-0.0342,3.4835,0.0012,-0.0001
36058,-106.8213,8.5539,-0.0107,-0.0659,-89.4366,0.0,-0.1173,11.9298,0.0,-0.0336,3.4219,-0.0001,0.0
36074,-106.8213,8.5539,-0.0107,-0.0659,-89.4366,0.0,-0.1173,11.9298,0.0,-0.0336,3.4219,-0.0001,0.0
36090,-106.824,8.8267,-0.0107,-0.0649,-89.4366,0.0,-0.1181,12.0065,-0.0,-0.0331,3.3683,-0.0004,-0.0
36109,-106.827,9.131,-0.0107,-0.0638,-89.4366,0.0,-0.1189,12.0902,0.0,-0.0326,3.3159,0.0002,-0.0
36122,-106.827,9.131,-0.0107,-0.0638,-89.4366,0.0,-0.1189,12.0902,0.0,-0.0326,3.3159,0.0002,-0.0
36141,-106.8306,9.494,-0.0107,-0.0626,-89.4366,0.0,-0.1198,12.1874,-0.0,-0.032,3.2567,-0.0004,-0.0
36154,-106.8306,9.494,-0.0107,-0.0626,-89.4366,0.0,-0.1198,12.1874,-0.0,-0.032,3.2567,-0.0004,-0.0
36173,-106.8337,9.8075,-0.0107,-0.0615,-89.4366,0.0,-0.1206,12.2693,-0.0,-0.0314,3.1966,0.0002,-0.0
36189,-106.8364,10.0868,-0.0107,-0.0606,-89.4366,0.0,-0.1213,12.3406,0.0,-0.031,3.1459,0.0005,-0.0
36202,-106.8364,10.0868,-0.0107,-0.0606,-89.4366,0.0,-0.1213,12.3406,0.0,-0.031,3.1459,0.0005,-0.0
36218,-106.8394,10.3884,-0.0107,-0.0596,-89.4366,0.0,-0.1221,12.416,0.0,-0.0304,3.0979,-0.0,-0.0
36236,-106.8422,10.6737,-0.0107,-0.0588,-89.4366,0.0,-0.1228,12.4859,0.0,-0.03,3.0497,-0.0001,-0.0
36250,-106.8422,10.6737,-0.0107,-0.0588,-89.4366,0.0,-0.1228,12.4859,0.0,-0.03,3.0497,-0.0001,-0.0
36266,-106.845,10.9633,-0.0107,-0.0579,-89.4366,0.0,-0.1235,12.5553,0.0,-0.0295,3.0039,-0.0001,-0.0
36286,-106.848,11.2653,-0.0107,-0.057,-89.4366,0.0,-0.1242,12.6262,-0.0,-0.0291,2.9576,-0.0005,-0.0
36298,-106.848,11.2653,-0.0107,-0.057,-89.4366,0.0,-0.1242,12.6262,-0.0,-0.0291,2.9576,-0.0005,-0.0
36314,-106.8509,11.5562,-0.0107,-0.0561,-89.4366,0.0,-0.1248,12.6897,-0.0,-0.0273,2.7661,0.0002,-0.0
36330,-106.8509,11.5562,-0.0107,-0.0561,-89.4366,0.0,-0.1248,12.6897,-0.0,-0.0273,2.7661,0.0002,-0.0
36346,-106.8546,11.9411,-0.0108,-0.0546,-89.4366,-0.0,-0.1255,12.7649,-0.0,-0.0245,2.4906,-0.0004,-0.0
36365,-106.8577,12.2491,-0.0108,-0.0531,-89.4366,0.0,-0.126,12.8189,0.0,-0.022,2.2418,0.0007,-0.0
36378,-106.8577,12.2491,-0.0108,-0.0531,-89.4366,0.0,-0.126,12.8189,0.0,-0.022,2.2418,0.0007,-0.0
36394,-106.861,12.585,-0.0108,-0.0512,-89.4366,0.0,-0.1266,12.8721,-0.0,-0.02,2.0388,-0.0002,-0.0
36413,-106.8639,12.8788,-0.0108,-0.0494,-89.4366,0.0,-0.127,12.914,0.0,-0.0181,1.8398,0.0003,-0.0
36426,-106.8639,12.8788,-0.0108,-0.0494,-89.4366,0.0,-0.127,12.914,0.0,-0.0181,1.8398,0.0003,-0.0
36444,-106.8678,13.2797,-0.0108,-0.0467,-89.4366,0.0,-0.1275,12.9652,0.0,-0.0162,1.6524,0.0001,-0.0
36458,-106.8678,13.2797,-0.0108,-0.0467,-89.4366,0.0,-0.1275,12.9652,0.0,-0.0162,1.6524,0.0001,-0.0
36474,-106.8713,13.6302,-0.0108,-0.0442,-89.4366,-0.0,-0.1279,13.0053,-0.0,-0.0146,1.4873,-0.0004,-0.0
36493,-106.8743,13.938,-0.0108,-0.042,-89.4366,-0.0,-0.1282,13.0369,-0.0,-0.0131,1.3351,0.0002,-0.0
36522,-106.8774,14.2571,-0.0109,-0.0397,-89.4366,-0.0,-0.1285,13.0665,-0.0,-0.0119,1.2121,-0.0009,-0.0
36538,-106.8774,14.2571,-0.0109,-0.0397,-89.4366,-0.0,-0.1285,13.0665,-0.0,-0.0119,1.2121,-0.0009,-0.0
36554,-106.8829,14.6355,-0.0109,-0.0366,-89.5123,0.0124,-0.2564,13.0865,0.0001,-4.4206,0.691,0.0032,-4.3922
36573,-106.8904,14.9458,-0.0109,-0.0335,-89.7131,0.0361,-0.4352,13.0815,0.0003,-7.5393,-0.2122,0.0102,-10.6976
36586,-106.901,15.2437,-0.0109,-0.0295,-90.0726,0.0681,-0.6449,13.0584,0.0006,-9.1983,-1.0141,0.0128,-18.4323
36602,-106.901,15.2437,-0.0109,-0.0295,-90.0726,0.0681,-0.6449,13.0584,0.0006,-9.1983,-1.0141,0.0128,-18.4323
36620,-106.9183,15.5893,-0.0109,-0.0233,-90.7491,0.1135,-0.9169,13.0097,0.0009,-10.2501,-1.8331,0.0125,-29.1484
36634,-106.9183,15.5893,-0.0109,-0.0233,-90.7491,0.1135,-0.9169,13.0097,0.0009,-10.2501,-1.8331,0.0125,-29.1484
36652,-106.9455,16.0013,-0.011,-0.0142,-91.9613,0.1667,-1.2471,12.9281,0.0012,-10.3815,-2.5644,0.0084,-43.6712
36666,-106.9455,16.0013,-0.011,-0.0142,-91.9613,0.1667,-1.2471,12.9281,0.0012,-10.3815,-2.5644,0.0084,-43.6712
36684,-106.9773,16.3843,-0.011,-0.0038,-93.5617,0.2132,-1.5459,12.8339,0.0013,-10.0243,-3.1615,0.0028,-58.7672
36698,-106.9773,16.3843,-0.011,-0.0038,-93.5617,0.2132,-1.5459,12.8339,0.0013,-10.0243,-3.1615,0.0028,-58.7672
36714,-107.0071,16.6982,-0.011,0.0048,-95.2234,0.2411,-1.7632,12.7523,0.0012,-8.8195,-3.3137,-0.0043,-71.8528
36733,-107.0386,17.0032,-0.0111,0.0131,-97.173,0.2601,-1.9483,12.6708,0.001,-7.6688,-3.3741,-0.0076,-85.2347
36746,-107.0386,17.0032,-0.0111,0.0131,-97.173,0.2601,-1.9483,12.6708,0.001,-7.6688,-3.3741,-0.0076,-85.2347
36762,-107.0706,17.2956,-0.0111,0.0205,-99.3711,0.2699,-2.0953,12.5941,0.0008,-6.2923,-3.2855,-0.0101,-98.5792
36781,-107.1104,17.6473,-0.0112,0.0284,-102.49,0.2704,-2.2335,12.5034,0.0004,-4.8678,-3.1931,-0.0115,-115.4343
36794,-107.1104,17.6473,-0.0112,0.0284,-102.49,0.2704,-2.2335,12.5034,0.0004,-4.8678,-3.1931,-0.0115,-115.4343
36810,-107.1427,17.9323,-0.0112,0.0328,-105.3921,0.2611,-2.2958,12.4401,0.0001,-2.6726,-2.7196,-0.0131,-129.272
36828,-107.176,18.2352,-0.0112,0.0352,-108.8809,0.2414,-2.3192,12.3796,-0.0002,-0.9344,-2.4138,-0.0133,-144.3583
36842,-107.176,18.2352,-0.0112,0.0352,-108.8809,0.2414,-2.3192,12.3796,-0.0002,-0.9344,-2.4138,-0.0133,-144.3583
36862,-107.2139,18.604,-0.0112,0.0342,-113.7043,0.2058,-2.2765,12.3194,-0.0006,1.3782,-1.9484,-0.0127,-162.9772
36874,-107.2139,18.604,-0.0112,0.0342,-113.7043,0.2058,-2.2765,12.3194,-0.0006,1.3782,-1.9484,-0.0127,-162.9772
36890,-107.2398,18.8887,-0.0112,0.0297,-117.8879,0.1692,-2.1783,12.2862,-0.0009,4.051,-1.369,-0.0122,-177.1411
36909,-107.2619,19.1972,-0.0111,0.0184,-122.8228,0.1158,-1.926,12.2882,-0.0012,9.4872,0.0743,-0.0101,-189.2605
36922,-107.2619,19.1972,-0.0111,0.0184,-122.8228,0.1158,-1.926,12.2882,-0.0012,9.4872,0.0743,-0.0101,-189.2605
36941,-107.2765,19.5545,-0.011,-0.0044,-128.9359,0.0387,-1.4634,12.3026,-0.0016,14.8247,0.4639,-0.0141,-199.5298
36954,-107.2765,19.5545,-0.011,-0.0044,-128.9359,0.0387,-1.4634,12.3026,-0.0016,14.8247,0.4639,-0.0141,-199.5298
36972,-107.2771,19.8337,-0.0109,-0.0294,-133.9698,-0.0319,-1.0087,12.2958,-0.0014,18.404,-0.278,0.0069,-205.6912
36986,-107.2771,19.8337,-0.0109,-0.0294,-133.9698,-0.0319,-1.0087,12.2958,-0.0014,18.404,-0.278,0.0069,-205.6912
37002,-107.2663,20.1226,-0.0107,-0.0601,-139.3925,-0.109,-0.4712,12.2546,0.0001,20.7358,-1.5874,0.0578,-210.7766
37020,-107.2439,20.4002,-0.0104,-0.0922,-144.8001,-0.1825,0.0947,12.1704,0.0011,22.3333,-3.3228,0.0392,-214.6316
37034,-107.2439,20.4002,-0.0104,-0.0922,-144.8001,-0.1825,0.0947,12.1704,0.0011,22.3333,-3.3228,0.0392,-214.6316
37050,-107.2124,20.6539,-0.0101,-0.1223,-149.9182,-0.2475,0.6455,12.0455,0.0016,23.3084,-5.2869,0.0241,-217.5413
37069,-107.1705,20.9021,-0.0099,-0.1519,-155.1065,-0.3096,1.2081,11.8719,0.002,23.7722,-7.3347,0.0135,-220.0551
37082,-107.1705,20.9021,-0.0099,-0.1519,-155.1065,-0.3096,1.2081,11.8719,0.002,23.7722,-7.3347,0.0135,-220.0551
37101,-107.1031,21.2016,-0.0096,-0.1881,-161.6552,-0.3846,1.91,11.5873,0.0021,23.7951,-9.6477,0.0065,-222.9119
37130,-107.0368,21.439,-0.0093,-0.2144,-167.0965,-0.437,2.4749,11.2931,0.0021,23.2913,-12.1293,-0.002,-225.1131
37146,-106.9644,21.6586,-0.0091,-0.2363,-172.3788,-0.4873,2.9522,10.8972,0.0021,20.4092,-16.9337,0.0023,-226.1873
37165,-106.8926,21.8509,-0.0089,-0.2516,-177.2783,-0.5384,3.2944,10.4361,0.0022,15.8586,-21.3666,0.0028,-227.4513
37178,-106.8926,21.8509,-0.0089,-0.2516,-177.2783,-0.5384,3.2944,10.4361,0.0022,15.8586,-21.3666,0.0028,-227.4513
37194,-106.7959,22.08,-0.0088,-0.2658,176.4274,-0.6118,3.6317,9.7743,0.0023,12.2292,-23.9889,0.0026,-228.4505
37210,-106.7959,22.08,-0.0088,-0.2658,176.4274,-0.6118,3.6317,9.7743,0.0023,12.2292,-23.9889,0.0026,-228.4505
37226,-106.697,22.2908,-0.0086,-0.2739,170.0873,-0.6856,3.8415,9.0476,0.0023,7.5659,-26.2106,-0.0002,-228.6552
37245,-106.6187,22.4558,-0.0086,-0.2688,164.8438,-0.7389,3.5947,8.5471,0.0021,-10.5679,-21.4228,-0.0058,-220.3068
37258,-106.5563,22.6065,-0.0088,-0.2471,160.1449,-0.7719,3.178,8.1869,-0.0013,-18.8361,-16.2876,-0.1564,-208.5741
37274,-106.5563,22.6065,-0.0088,-0.2471,160.1449,-0.7719,3.178,8.1869,-0.0013,-18.8361,-16.2876,-0.1564,-208.5741
37293,-106.5067,22.7492,-0.009,-0.2173,155.7697,-0.8001,2.7253,7.8497,-0.0006,-20.8979,-15.5652,0.0326,-199.0324
37309,-106.4682,22.8898,-0.0092,-0.1805,151.4586,-0.8346,2.2375,7.5121,0.0028,-22.0007,-15.2262,0.1542,-192.4956
37322,-106.4682,22.8898,-0.0092,-0.1805,151.4586,-0.8346,2.2375,7.5121,0.0028,-22.0007,-15.2262,0.1542,-192.4956
37341,-106.4379,23.0661,-0.0095,-0.1307,145.9905,-0.8818,1.567,7.1466,0.0021,-23.1221,-12.6048,-0.0247,-186.6864
37357,-106.4296,23.2015,-0.0098,-0.0942,141.8862,-0.9059,0.9905,7.0156,0.0015,-25.4828,-5.7911,-0.025,-178.3287
37370,-106.4296,23.2015,-0.0098,-0.0942,141.8862,-0.9059,0.9905,7.0156,0.0015,-25.4828,-5.7911,-0.025,-178.3287
37386,-106.4349,23.3394,-0.01,-0.055,137.9955,-0.915,0.4009,7.0081,0.001,-25.9094,-0.3262,-0.0229,-167.0801
37404,-106.4533,23.4809,-0.0103,-0.0142,134.3948,-0.9094,-0.172,7.0919,0.0005,-25.2639,3.6919,-0.022,-154.5277
37418,-106.4533,23.4809,-0.0103,-0.0142,134.3948,-0.9094,-0.172,7.0919,0.0005,-25.2639,3.6919,-0.022,-154.5277
37434,-106.4815,23.6196,-0.0106,0.0238,131.2622,-0.8947,-0.683,7.214,0.0,-23.8174,5.691,-0.022,-141.597
37452,-106.5323,23.8075,-0.0109,0.0716,127.6557,-0.8629,-1.2716,7.4255,-0.0004,-21.205,7.6189,-0.015,-124.1242
37466,-106.5323,23.8075,-0.0109,0.0716,127.6557,-0.8629,-1.2716,7.4255,-0.0004,-21.205,7.6189,-0.015,-124.1242
37485,-106.5849,23.976,-0.0112,0.1057,124.9161,-0.8235,-1.6399,7.6536,-0.0008,-15.5135,9.6109,-0.0165,-111.4811
37498,-106.6446,24.1592,-0.0114,0.134,122.307,-0.7597,-1.8317,7.9111,-0.0012,-7.7724,10.4321,-0.0169,-103.2968
37514,-106.6446,24.1592,-0.0114,0.134,122.307,-0.7597,-1.8317,7.9111,-0.0012,-7.7724,10.4321,-0.0169,-103.2968
37532,-106.7081,24.3568,-0.0116,0.1548,119.7554,-0.6707,-1.8757,8.1685,-0.0017,-1.7189,10.0759,-0.0188,-98.5099
37546,-106.7081,24.3568,-0.0116,0.1548,119.7554,-0.6707,-1.8757,8.1685,-0.0017,-1.7189,10.0759,-0.0188,-98.5099
37565,-106.7791,24.5922,-0.0118,0.1692,116.9271,-0.5467,-1.7831,8.4461,-0.0023,3.1621,9.4812,-0.0227,-95.8646
37578,-106.837,24.8028,-0.0119,0.1747,114.5094,-0.438,-1.6197,8.6595,-0.0028,6.4438,8.4167,-0.0173,-95.2446
37594,-106.837,24.8028,-0.0119,0.1747,114.5094,-0.438,-1.6197,8.6595,-0.0028,6.4438,8.4167,-0.0173,-95.2446
37612,-106.888,25.0106,-0.012,0.1757,112.2,-0.3329,-1.4097,8.8565,-0.0031,8.621,8.089,-0.013,-94.6937
37647,-106.9458,25.2862,-0.0121,0.1725,109.2144,-0.2025,-1.0874,9.0776,-0.0033,10.2493,7.0278,-0.0068,-94.9687
37658,-106.9458,25.2862,-0.0121,0.1725,109.2144,-0.2025,-1.0874,9.0776,-0.0033,10.2493,7.0278,-0.0068,-94.9687
37677,-106.9955,25.5691,-0.0122,0.168,106.3346,-0.0977,-0.9227,9.3025,-0.0033,5.2512,7.1722,-0.0007,-88.5809
37690,-107.0329,25.7994,-0.0122,0.1644,104.3035,-0.051,-0.9556,9.4466,-0.003,-1.322,5.7835,0.0132,-77.6797
37706,-107.0329,25.7994,-0.0122,0.1644,104.3035,-0.051,-0.9556,9.4466,-0.003,-1.322,5.7835,0.0132,-77.6797
37724,-107.0838,26.1121,-0.0123,0.157,102.1453,-0.0402,-1.1646,9.5681,-0.0021,-6.2972,3.661,0.0277,-57.181
37738,-107.0838,26.1121,-0.0123,0.157,102.1453,-0.0402,-1.1646,9.5681,-0.0021,-6.2972,3.661,0.0277,-57.181
37757,-107.1267,26.3607,-0.0122,0.1478,100.9575,-0.0606,-1.3742,9.6139,-0.0011,-8.0312,1.7578,0.0375,-40.1484
37770,-107.1267,26.3607,-0.0122,0.1478,100.9575,-0.0606,-1.3742,9.6139,-0.0011,-8.0312,1.7578,0.0375,-40.1484
37786,-107.1745,26.6313,-0.0122,0.1356,100.0828,-0.0828,-1.5086,9.6595,-0.0002,-4.7707,1.6176,0.0311,-27.1054
37802,-107.1745,26.6313,-0.0122,0.1356,100.0828,-0.0828,-1.5086,9.6595,-0.0002,-4.7707,1.6176,0.0311,-27.1054
37824,-107.2299,26.9461,-0.012,0.1213,99.4297,-0.0928,-1.5735,9.7164,0.0002,-1.9913,1.7455,0.0138,-16.8979
37834,-107.2299,26.9461,-0.012,0.1213,99.4297,-0.0928,-1.5735,9.7164,0.0002,-1.9913,1.7455,0.0138,-16.8979
37853,-107.283,27.2553,-0.0119,0.1077,99.0362,-0.0884,-1.5854,9.7688,0.0003,-0.3754,1.6492,0.0012,-10.6211
37866,-107.283,27.2553,-0.0119,0.1077,99.0362,-0.0884,-1.5854,9.7688,0.0003,-0.3754,1.6492,0.0012,-10.6211
37882,-107.3268,27.5175,-0.0119,0.0965,98.8317,-0.078,-1.5764,9.804,0.0002,0.3354,1.3162,-0.0035,-6.064
37901,-107.369,27.7756,-0.0118,0.0863,98.6865,-0.0657,-1.5632,9.8391,0.0,0.5029,1.333,-0.0051,-5.4581
37914,-107.369,27.7756,-0.0118,0.0863,98.6865,-0.0657,-1.5632,9.8391,0.0,0.5029,1.333,-0.0051,-5.4581
37933,-107.4097,28.0348,-0.0112,0.1071,98.6021,0.0408,-1.5496,9.8523,0.0437,0.5148,0.5023,1.6626,-2.0645
37946,-107.4097,28.0348,-0.0112,0.1071,98.6021,0.0408,-1.5496,9.8523,0.0437,0.5148,0.5023,1.6626,-2.0645
37962,-107.4501,28.2916,-0.0107,0.1159,98.5364,0.0854,-1.5473,9.898,-0.0226,0.0895,1.76,-2.5541,-2.5806
37981,-107.4897,28.5437,-0.0109,0.0876,98.5039,0.0224,-1.523,9.9105,-0.0165,0.9521,0.4896,0.2401,-0.479
37994,-107.4897,28.5437,-0.0109,0.0876,98.5039,0.0224,-1.523,9.9105,-0.0165,0.9521,0.4896,0.2401,-0.479
38010,-107.5295,28.8016,-0.0111,0.0686,98.4689,-0.0025,-1.5107,9.9339,-0.0115,0.4759,0.8992,0.1917,-1.9863
38026,-107.5295,28.8016,-0.0111,0.0686,98.4689,-0.0025,-1.5107,9.9339,-0.0115,0.4759,0.8992,0.1917,-1.9863
38042,-107.5295,28.8016,-0.0111,0.0686,98.4689,-0.0025,-1.5107,9.9339,-0.0115,0.4759,0.8992,0.1917,-1.9863
38058,-107.5295,28.8016,-0.0111,0.0686,98.4689,-0.0025,-1.5107,9.9339,-0.0115,0.4759,0.8992,0.1917,-1.9863
38074,-107.6337,29.4915,-0.0114,0.0403,98.4534,-0.0115,-1.4934,9.9547,-0.0036,0.2488,0.3004,0.1145,2.1295
38090,-107.6337,29.4915,-0.0114,0.0403,98.4534,-0.0115,-1.4934,9.9547,-0.0036,0.2488,0.3004,0.1145,2.1295
38109,-107.6809,29.8065,-0.0114,0.0338,98.4426,-0.0095,-1.4922,9.981,-0.0019,0.0385,0.8322,0.0528,0.7792
38122,-107.6809,29.8065,-0.0114,0.0338,98.4426,-0.0095,-1.4922,9.981,-0.0019,0.0385,0.8322,0.0528,0.7792
38138,-107.7215,30.0776,-0.0114,0.0297,98.4258,-0.0075,-1.4914,9.9979,-0.0011,0.0303,0.6222,0.0291,-1.7173
38154,-107.7215,30.0776,-0.0114,0.0297,98.4258,-0.0075,-1.4914,9.9979,-0.0011,0.0303,0.6222,0.0291,-1.7173
38170,-107.7681,30.3909,-0.0114,0.0261,98.4243,-0.0056,-1.4916,10.0204,-0.0005,-0.0076,0.7195,0.0198,-0.9974
38189,-107.8088,30.6669,-0.0108,-0.0079,98.434,0.0366,-1.4937,10.0349,0.02,-0.0774,0.5273,0.7465,1.5245
38202,-107.8088,30.6669,-0.0108,-0.0079,98.434,0.0366,-1.4937,10.0349,0.02,-0.0774,0.5273,0.7465,1.5245
38221,-107.8476,30.9271,-0.0104,-0.0266,98.4212,0.0512,-1.4977,10.0547,-0.0101,-0.1542,0.7634,-1.1636,-1.2714
38234,-107.8476,30.9271,-0.0104,-0.0266,98.4212,0.0512,-1.4977,10.0547,-0.0101,-0.1542,0.7634,-1.1636,-1.2714
38250,-107.8876,31.1957,-0.0108,-0.006,98.4335,0.0203,-1.4934,10.0634,-0.0073,0.1607,0.3249,0.1068,1.5071
38266,-107.8876,31.1957,-0.0108,-0.006,98.4335,0.0203,-1.4934,10.0634,-0.0073,0.1607,0.3249,0.1068,1.5071
38282,-107.9423,31.5641,-0.011,0.0075,98.4343,0.0046,-1.4932,10.0781,-0.0043,0.0055,0.4008,0.0815,1.7995
38298,-107.9423,31.5641,-0.011,0.0075,98.4343,0.0046,-1.4932,10.0781,-0.0043,0.0055,0.4008,0.0815,1.7995
38314,-107.9886,31.876,-0.0112,0.0122,98.4319,0.0004,-1.496,10.0988,-0.0025,-0.0886,0.6707,0.0565,0.8356
38330,-107.9886,31.876,-0.0112,0.0122,98.4319,0.0004,-1.496,10.0988,-0.0025,-0.0886,0.6707,0.0565,0.8356
38349,-108.0414,32.2327,-0.0113,0.0143,98.4341,-0.0011,-1.4987,10.1175,-0.0013,-0.0765,0.5301,0.0338,1.3962
38362,-108.0414,32.2327,-0.0113,0.0143,98.4341,-0.0011,-1.4987,10.1175,-0.0013,-0.0765,0.5301,0.0338,1.3962
38382,-108.0889,32.5533,-0.0113,0.0146,98.4327,-0.0014,-1.5016,10.1361,-0.0007,-0.0924,0.5888,0.0212,0.908
38394,-108.0889,32.5533,-0.0113,0.0146,98.4327,-0.0014,-1.5016,10.1361,-0.0007,-0.0924,0.5888,0.0212,0.908
38410,-108.1295,32.8268,-0.0113,0.0144,98.4214,-0.0013,-1.5037,10.149,-0.0003,-0.0773,0.4786,0.012,-1.4342
38426,-108.1715,33.1108,-0.0113,0.0138,98.4375,-0.0013,-1.5049,10.1576,-0.0001,-0.0433,0.3069,0.0086,1.8529
38442,-108.1715,33.1108,-0.0113,0.0138,98.4375,-0.0013,-1.5049,10.1576,-0.0001,-0.0433,0.3069,0.0086,1.8529
38458,-108.1715,33.1108,-0.0113,0.0138,98.4375,-0.0013,-1.5049,10.1576,-0.0001,-0.0433,0.3069,0.0086,1.8529
38474,-108.2196,33.4356,-0.0113,0.013,98.4353,-0.0011,-1.5079,10.176,0.0,-0.0928,0.5749,0.0041,0.9688
38490,-108.2662,33.75,-0.0113,0.0126,98.4345,-0.001,-1.5109,10.1951,0.0001,-0.098,0.6192,0.0027,0.7045
38506,-108.2662,33.75,-0.0113,0.0126,98.4345,-0.001,-1.5109,10.1951,0.0001,-0.098,0.6192,0.0027,0.7045
38524,-108.3186,34.1032,-0.0113,0.0121,98.4364,-0.0009,-1.5136,10.2127,0.0001,-0.0775,0.5084,0.0006,1.1755
38538,-108.3186,34.1032,-0.0113,0.0121,98.4364,-0.0009,-1.5136,10.2127,0.0001,-0.0775,0.5084,0.0006,1.1755
38554,-108.3186,34.1032,-0.0113,0.0121,98.4364,-0.0009,-1.5136,10.2127,0.0001,-0.0775,0.5084,0.0006,1.1755
38570,-108.367,34.4297,-0.0113,0.0117,98.4355,-0.0008,-1.5161,10.2293,0.0001,-0.0807,0.5207,0.0003,0.8878
38589,-108.4092,34.7141,-0.0113,0.0112,98.4233,-0.0006,-1.5179,10.2402,0.0001,-0.0622,0.392,-0.0002,-1.5604
38602,-108.4092,34.7141,-0.0113,0.0112,98.4233,-0.0006,-1.5179,10.2402,0.0001,-0.0622,0.392,-0.0002,-1.5604
38621,-108.4555,35.0266,-0.0113,0.0108,98.4254,-0.0005,-1.5201,10.2568,0.0001,-0.0745,0.5438,-0.0006,-0.7146
38634,-108.4555,35.0266,-0.0113,0.0108,98.4254,-0.0005,-1.5201,10.2568,0.0001,-0.0745,0.5438,-0.0006,-0.7146
38654,-108.4979,35.3129,-0.0112,0.0105,98.4364,-0.0005,-1.5218,10.2687,0.0001,-0.0579,0.4282,-0.0007,1.4465
38666,-108.4979,35.3129,-0.0112,0.0105,98.4364,-0.0005,-1.5218,10.2687,0.0001,-0.0579,0.4282,-0.0007,1.4465
38685,-108.5485,35.6546,-0.0112,0.0101,98.4354,-0.0004,-1.524,10.2831,0.0001,-0.0662,0.4323,-0.0001,1.1118
38698,-108.5485,35.6546,-0.0112,0.0101,98.4354,-0.0004,-1.524,10.2831,0.0001,-0.0662,0.4323,-0.0001,1.1118
38722,-108.5944,35.9632,-0.0112,0.0096,98.4175,-0.0003,-1.525,10.2898,0.0001,-0.0357,0.2231,-0.001,-2.1695
38730,-108.5944,35.9632,-0.0112,0.0096,98.4175,-0.0003,-1.525,10.2898,0.0001,-0.0357,0.2231,-0.001,-2.1695
38746,-108.5944,35.9632,-0.0112,0.0096,98.4175,-0.0003,-1.525,10.2898,0.0001,-0.0357,0.2231,-0.001,-2.1695
38762,-108.6559,36.3792,-0.0112,0.0091,98.4277,-0.0002,-1.5276,10.3106,0.0,-0.0639,0.5158,-0.0004,0.9379
38778,-108.6559,36.3792,-0.0112,0.0091,98.4277,-0.0002,-1.5276,10.3106,0.0,-0.0639,0.5158,-0.0004,0.9379
38794,-108.7144,36.774,-0.0112,0.0088,98.4318,-0.0001,-1.5291,10.3231,0.0,-0.038,0.3259,0.0001,1.891
38810,-108.7144,36.774,-0.0112,0.0088,98.4318,-0.0001,-1.5291,10.3231,0.0,-0.038,0.3259,0.0001,1.891
