timestamp,x,y,z,pitch,yaw,roll,vx,vy,vz,ax,ay,az,yaw_rate
127973,-106.6867,-4.8475,-0.0798,0.0,-89.3578,0.0,-0.0,0.0,0.0451,-0.0,0.0,7.1933,0.0
127989,-106.6867,-4.8475,-0.0798,0.0,-89.3578,0.0,-0.0,0.0,0.0451,-0.0,0.0,7.1933,0.0
128005,-106.6867,-4.8475,-0.0798,0.0,-89.3578,0.0,-0.0,0.0,0.0451,-0.0,0.0,7.1933,0.0
128021,-106.6867,-4.8475,-0.0798,0.0,-89.3578,0.0,-0.0,0.0,0.0451,-0.0,0.0,7.1933,0.0
128037,-106.6867,-4.8475,-0.0798,0.0,-89.3578,0.0,-0.0,0.0,0.0451,-0.0,0.0,7.1933,0.0
128053,-106.6867,-4.8475,-0.0798,0.0,-89.3578,0.0,-0.0,0.0,0.0451,-0.0,0.0,7.1933,0.0
128069,-106.6867,-4.8475,-0.0798,0.0,-89.3578,0.0,-0.0,0.0,0.0451,-0.0,0.0,7.1933,0.0
128085,-106.6867,-4.8475,-0.0798,0.0,-89.3578,0.0,-0.0,0.0,0.0451,-0.0,0.0,7.1933,0.0
128101,-106.6867,-4.8475,-0.0798,0.0,-89.3578,0.0,-0.0,0.0,0.0451,-0.0,0.0,7.1933,0.0
128117,-106.6867,-4.8475,-0.0798,0.0,-89.3578,0.0,-0.0,0.0,0.0451,-0.0,0.0,7.1933,0.0
128133,-106.6867,-4.8475,-0.0798,0.0,-89.3578,0.0,-0.0,0.0,0.0451,-0.0,0.0,7.1933,0.0
128149,-106.6867,-4.8475,-0.0798,0.0,-89.3578,0.0,-0.0,0.0,0.0451,-0.0,0.0,7.1933,0.0
128165,-106.6867,-4.8475,-0.0798,0.0,-89.3578,0.0,-0.0,0.0,0.0451,-0.0,0.0,7.1933,0.0
128181,-106.6867,-4.8475,-0.0798,0.0,-89.3578,0.0,-0.0,0.0,0.0451,-0.0,0.0,7.1933,0.0
128197,-106.6867,-4.8475,-0.0798,0.0,-89.3578,0.0,-0.0,0.0,0.0451,-0.0,0.0,7.1933,0.0
128213,-106.6867,-4.8475,-0.0798,0.0,-89.3578,0.0,-0.0,0.0,0.0451,-0.0,0.0,7.1933,0.0
128229,-106.6867,-4.8458,-0.0607,-0.0015,-89.3578,0.0,-0.0004,0.0393,0.2364,-0.0018,0.159,0.7743,-0.0002
128245,-106.6867,-4.8458,-0.0607,-0.0015,-89.3578,0.0,-0.0004,0.0393,0.2364,-0.0018,0.159,0.7743,-0.0002
128261,-106.6867,-4.8458,-0.0607,-0.0015,-89.3578,0.0,-0.0004,0.0393,0.2364,-0.0018,0.159,0.7743,-0.0002
128277,-106.6867,-4.8458,-0.0607,-0.0015,-89.3578,0.0,-0.0004,0.0393,0.2364,-0.0018,0.159,0.7743,-0.0002
128293,-106.6867,-4.8458,-0.0607,-0.0015,-89.3578,0.0,-0.0004,0.0393,0.2364,-0.0018,0.159,0.7743,-0.0002
128309,-106.6867,-4.8458,-0.0607,-0.0015,-89.3578,0.0,-0.0004,0.0393,0.2364,-0.0018,0.159,0.7743,-0.0002
128325,-106.6867,-4.8458,-0.0607,-0.0015,-89.3578,0.0,-0.0004,0.0393,0.2364,-0.0018,0.159,0.7743,-0.0002
128343,-106.6868,-4.8411,-0.0395,-0.005,-89.3578,0.0,-0.0012,0.106,0.1794,-0.006,0.5331,-0.4554,-0.0008
128357,-106.6868,-4.8411,-0.0395,-0.005,-89.3578,0.0,-0.0012,0.106,0.1794,-0.006,0.5331,-0.4554,-0.0008
128373,-106.6868,-4.8411,-0.0395,-0.005,-89.3578,0.0,-0.0012,0.106,0.1794,-0.006,0.5331,-0.4554,-0.0008
128389,-106.6868,-4.8411,-0.0395,-0.005,-89.3578,0.0,-0.0012,0.106,0.1794,-0.006,0.5331,-0.4554,-0.0008
128405,-106.6868,-4.8411,-0.0395,-0.005,-89.3578,0.0,-0.0012,0.106,0.1794,-0.006,0.5331,-0.4554,-0.0008
128421,-106.6868,-4.8411,-0.0395,-0.005,-89.3578,0.0,-0.0012,0.106,0.1794,-0.006,0.5331,-0.4554,-0.0008
128439,-106.6871,-4.8091,-0.0267,-0.0266,-89.3578,0.0,-0.0062,0.5561,0.1107,-0.0558,4.978,-0.7598,0.0028
128453,-106.6871,-4.8091,-0.0267,-0.0266,-89.3578,0.0,-0.0062,0.5561,0.1107,-0.0558,4.978,-0.7598,0.0028
128469,-106.6871,-4.8091,-0.0267,-0.0266,-89.3578,0.0,-0.0062,0.5561,0.1107,-0.0558,4.978,-0.7598,0.0028
128485,-106.6871,-4.8091,-0.0267,-0.0266,-89.3578,0.0,-0.0062,0.5561,0.1107,-0.0558,4.978,-0.7598,0.0028
128501,-106.6871,-4.8091,-0.0267,-0.0266,-89.3578,0.0,-0.0062,0.5561,0.1107,-0.0558,4.978,-0.7598,0.0028
128517,-106.6871,-4.8091,-0.0267,-0.0266,-89.3578,0.0,-0.0062,0.5561,0.1107,-0.0558,4.978,-0.7598,0.0028
128533,-106.688,-4.7343,-0.0189,-0.0488,-89.358,0.0,-0.0111,0.9894,0.0609,-0.0524,4.6662,-0.5364,-0.0334
128549,-106.688,-4.7343,-0.0189,-0.0488,-89.358,0.0,-0.0111,0.9894,0.0609,-0.0524,4.6662,-0.5364,-0.0334
128565,-106.688,-4.7343,-0.0189,-0.0488,-89.358,0.0,-0.0111,0.9894,0.0609,-0.0524,4.6662,-0.5364,-0.0334
128581,-106.688,-4.7343,-0.0189,-0.0488,-89.358,0.0,-0.0111,0.9894,0.0609,-0.0524,4.6662,-0.5364,-0.0334
128597,-106.688,-4.7343,-0.0189,-0.0488,-89.358,0.0,-0.0111,0.9894,0.0609,-0.0524,4.6662,-0.5364,-0.0334
128613,-106.688,-4.7343,-0.0189,-0.0488,-89.358,0.0,-0.0111,0.9894,0.0609,-0.0524,4.6662,-0.5364,-0.0334
128629,-106.689,-4.6277,-0.0144,-0.0522,-89.3551,-0.0001,-0.0135,1.2235,0.0325,-0.0255,2.5243,-0.3062,0.2605
128645,-106.689,-4.6277,-0.0144,-0.0522,-89.3551,-0.0001,-0.0135,1.2235,0.0325,-0.0255,2.5243,-0.3062,0.2605
128661,-106.689,-4.6277,-0.0144,-0.0522,-89.3551,-0.0001,-0.0135,1.2235,0.0325,-0.0255,2.5243,-0.3062,0.2605
128677,-106.689,-4.6277,-0.0144,-0.0522,-89.3551,-0.0001,-0.0135,1.2235,0.0325,-0.0255,2.5243,-0.3062,0.2605
128693,-106.689,-4.6277,-0.0144,-0.0522,-89.3551,-0.0001,-0.0135,1.2235,0.0325,-0.0255,2.5243,-0.3062,0.2605
128709,-106.689,-4.6277,-0.0144,-0.0522,-89.3551,-0.0001,-0.0135,1.2235,0.0325,-0.0255,2.5243,-0.3062,0.2605
128725,-106.6903,-4.5182,-0.0126,-0.0321,-89.3445,0.0003,-0.014,1.2006,0.014,-0.0061,-0.2423,-0.196,0.0481
128741,-106.6903,-4.5182,-0.0126,-0.0321,-89.3445,0.0003,-0.014,1.2006,0.014,-0.0061,-0.2423,-0.196,0.0481
128757,-106.6903,-4.5182,-0.0126,-0.0321,-89.3445,0.0003,-0.014,1.2006,0.014,-0.0061,-0.2423,-0.196,0.0481
128773,-106.6903,-4.5182,-0.0126,-0.0321,-89.3445,0.0003,-0.014,1.2006,0.014,-0.0061,-0.2423,-0.196,0.0481
128789,-106.6903,-4.5182,-0.0126,-0.0321,-89.3445,0.0003,-0.014,1.2006,0.014,-0.0061,-0.2423,-0.196,0.0481
128806,-106.6903,-4.5182,-0.0126,-0.0321,-89.3445,0.0003,-0.014,1.2006,0.014,-0.0061,-0.2423,-0.196,0.0481
128821,-106.6917,-4.4074,-0.0118,-0.0176,-89.3358,0.0002,-0.0141,1.2292,0.0063,-0.001,0.2947,-0.0799,0.6877
128837,-106.6917,-4.4074,-0.0118,-0.0176,-89.3358,0.0002,-0.0141,1.2292,0.0063,-0.001,0.2947,-0.0799,0.6877
128853,-106.6917,-4.4074,-0.0118,-0.0176,-89.3358,0.0002,-0.0141,1.2292,0.0063,-0.001,0.2947,-0.0799,0.6877
128869,-106.6917,-4.4074,-0.0118,-0.0176,-89.3358,0.0002,-0.0141,1.2292,0.0063,-0.001,0.2947,-0.0799,0.6877
128885,-106.6917,-4.4074,-0.0118,-0.0176,-89.3358,0.0002,-0.0141,1.2292,0.0063,-0.001,0.2947,-0.0799,0.6877
128901,-106.6917,-4.4074,-0.0118,-0.0176,-89.3358,0.0002,-0.0141,1.2292,0.0063,-0.001,0.2947,-0.0799,0.6877
128917,-106.694,-4.2765,-0.0113,-0.0284,-89.2484,0.0008,-0.0237,1.5972,0.0029,-0.0966,3.7275,-0.0343,0.6692
128933,-106.694,-4.2765,-0.0113,-0.0284,-89.2484,0.0008,-0.0237,1.5972,0.0029,-0.0966,3.7275,-0.0343,0.6692
128949,-106.694,-4.2765,-0.0113,-0.0284,-89.2484,0.0008,-0.0237,1.5972,0.0029,-0.0966,3.7275,-0.0343,0.6692
128965,-106.694,-4.2765,-0.0113,-0.0284,-89.2484,0.0008,-0.0237,1.5972,0.0029,-0.0966,3.7275,-0.0343,0.6692
128981,-106.694,-4.2765,-0.0113,-0.0284,-89.2484,0.0008,-0.0237,1.5972,0.0029,-0.0966,3.7275,-0.0343,0.6692
128997,-106.694,-4.2765,-0.0113,-0.0284,-89.2484,0.0008,-0.0237,1.5972,0.0029,-0.0966,3.7275,-0.0343,0.6692
129013,-106.696,-4.1015,-0.0109,-0.0595,-89.2818,-0.0001,-0.0275,2.2681,0.0014,-0.0407,7.1688,-0.0159,-2.6517
129029,-106.696,-4.1015,-0.0109,-0.0595,-89.2818,-0.0001,-0.0275,2.2681,0.0014,-0.0407,7.1688,-0.0159,-2.6517
129045,-106.696,-4.1015,-0.0109,-0.0595,-89.2818,-0.0001,-0.0275,2.2681,0.0014,-0.0407,7.1688,-0.0159,-2.6517
129061,-106.696,-4.1015,-0.0109,-0.0595,-89.2818,-0.0001,-0.0275,2.2681,0.0014,-0.0407,7.1688,-0.0159,-2.6517
129077,-106.696,-4.1015,-0.0109,-0.0595,-89.2818,-0.0001,-0.0275,2.2681,0.0014,-0.0407,7.1688,-0.0159,-2.6517
129095,-106.6984,-3.8675,-0.0106,-0.0825,-89.309,-0.0006,-0.0314,2.7657,0.0007,-0.0433,5.4989,-0.0076,2.56
129109,-106.6984,-3.8675,-0.0106,-0.0825,-89.309,-0.0006,-0.0314,2.7657,0.0007,-0.0433,5.4989,-0.0076,2.56
129125,-106.6984,-3.8675,-0.0106,-0.0825,-89.309,-0.0006,-0.0314,2.7657,0.0007,-0.0433,5.4989,-0.0076,2.56
129141,-106.6984,-3.8675,-0.0106,-0.0825,-89.309,-0.0006,-0.0314,2.7657,0.0007,-0.0433,5.4989,-0.0076,2.56
129157,-106.6984,-3.8675,-0.0106,-0.0825,-89.309,-0.0006,-0.0314,2.7657,0.0007,-0.0433,5.4989,-0.0076,2.56
129173,-106.6984,-3.8675,-0.0106,-0.0825,-89.309,-0.0006,-0.0314,2.7657,0.0007,-0.0433,5.4989,-0.0076,2.56
129191,-106.701,-3.5872,-0.0106,-0.0854,-89.3687,-0.0006,-0.0355,3.1946,0.0004,-0.0455,4.7266,-0.0038,-1.7229
129205,-106.701,-3.5872,-0.0106,-0.0854,-89.3687,-0.0006,-0.0355,3.1946,0.0004,-0.0455,4.7266,-0.0038,-1.7229
129221,-106.701,-3.5872,-0.0106,-0.0854,-89.3687,-0.0006,-0.0355,3.1946,0.0004,-0.0455,4.7266,-0.0038,-1.7229
129237,-106.701,-3.5872,-0.0106,-0.0854,-89.3687,-0.0006,-0.0355,3.1946,0.0004,-0.0455,4.7266,-0.0038,-1.7229
129253,-106.701,-3.5872,-0.0106,-0.0854,-89.3687,-0.0006,-0.0355,3.1946,0.0004,-0.0455,4.7266,-0.0038,-1.7229
129270,-106.701,-3.5872,-0.0106,-0.0854,-89.3687,-0.0006,-0.0355,3.1946,0.0004,-0.0455,4.7266,-0.0038,-1.7229
129285,-106.704,-3.2709,-0.0106,-0.0799,-89.4106,-0.0012,-0.0359,3.6215,0.0002,-0.0039,4.6907,-0.0017,0.2591
129301,-106.704,-3.2709,-0.0106,-0.0799,-89.4106,-0.0012,-0.0359,3.6215,0.0002,-0.0039,4.6907,-0.0017,0.2591
129317,-106.704,-3.2709,-0.0106,-0.0799,-89.4106,-0.0012,-0.0359,3.6215,0.0002,-0.0039,4.6907,-0.0017,0.2591
129333,-106.704,-3.2709,-0.0106,-0.0799,-89.4106,-0.0012,-0.0359,3.6215,0.0002,-0.0039,4.6907,-0.0017,0.2591
129349,-106.704,-3.2709,-0.0106,-0.0799,-89.4106,-0.0012,-0.0359,3.6215,0.0002,-0.0039,4.6907,-0.0017,0.2591
129365,-106.704,-3.2709,-0.0106,-0.0799,-89.4106,-0.0012,-0.0359,3.6215,0.0002,-0.0039,4.6907,-0.0017,0.2591
129381,-106.7073,-2.8887,-0.0106,-0.0793,-89.4667,-0.0013,-0.0383,4.1095,0.0001,-0.0248,5.0251,-0.0011,-0.6416
129397,-106.7073,-2.8887,-0.0106,-0.0793,-89.4667,-0.0013,-0.0383,4.1095,0.0001,-0.0248,5.0251,-0.0011,-0.6416
129413,-106.7073,-2.8887,-0.0106,-0.0793,-89.4667,-0.0013,-0.0383,4.1095,0.0001,-0.0248,5.0251,-0.0011,-0.6416
129429,-106.7073,-2.8887,-0.0106,-0.0793,-89.4667,-0.0013,-0.0383,4.1095,0.0001,-0.0248,5.0251,-0.0011,-0.6416
129445,-106.7073,-2.8887,-0.0106,-0.0793,-89.4667,-0.0013,-0.0383,4.1095,0.0001,-0.0248,5.0251,-0.0011,-0.6416
129461,-106.7073,-2.8887,-0.0106,-0.0793,-89.4667,-0.0013,-0.0383,4.1095,0.0001,-0.0248,5.0251,-0.0011,-0.6416
129477,-106.7112,-2.4689,-0.0105,-0.0908,-89.4595,-0.0009,-0.0452,4.7964,0.0,-0.0742,7.4031,-0.0005,0.1028
129493,-106.7112,-2.4689,-0.0105,-0.0908,-89.4595,-0.0009,-0.0452,4.7964,0.0,-0.0742,7.4031,-0.0005,0.1028
129509,-106.7112,-2.4689,-0.0105,-0.0908,-89.4595,-0.0009,-0.0452,4.7964,0.0,-0.0742,7.4031,-0.0005,0.1028
129525,-106.7112,-2.4689,-0.0105,-0.0908,-89.4595,-0.0009,-0.0452,4.7964,0.0,-0.0742,7.4031,-0.0005,0.1028
129541,-106.7112,-2.4689,-0.0105,-0.0908,-89.4595,-0.0009,-0.0452,4.7964,0.0,-0.0742,7.4031,-0.0005,0.1028
129558,-106.7157,-1.9821,-0.0104,-0.1013,-89.4714,-0.0006,-0.0503,5.4524,-0.0,-0.0543,6.9962,-0.0005,0.0257
129573,-106.7157,-1.9821,-0.0104,-0.1013,-89.4714,-0.0006,-0.0503,5.4524,-0.0,-0.0543,6.9962,-0.0005,0.0257
129589,-106.7157,-1.9821,-0.0104,-0.1013,-89.4714,-0.0006,-0.0503,5.4524,-0.0,-0.0543,6.9962,-0.0005,0.0257
129605,-106.7157,-1.9821,-0.0104,-0.1013,-89.4714,-0.0006,-0.0503,5.4524,-0.0,-0.0543,6.9962,-0.0005,0.0257
129621,-106.7157,-1.9821,-0.0104,-0.1013,-89.4714,-0.0006,-0.0503,5.4524,-0.0,-0.0543,6.9962,-0.0005,0.0257
129637,-106.7157,-1.9821,-0.0104,-0.1013,-89.4714,-0.0006,-0.0503,5.4524,-0.0,-0.0543,6.9962,-0.0005,0.0257
129653,-106.7157,-1.9821,-0.0104,-0.1013,-89.4714,-0.0006,-0.0503,5.4524,-0.0,-0.0543,6.9962,-0.0005,0.0257
129669,-106.7209,-1.4347,-0.0103,-0.1104,-89.4553,-0.0002,-0.0585,6.1772,0.0,-0.0884,7.7839,0.0002,0.0978
129685,-106.7209,-1.4347,-0.0103,-0.1104,-89.4553,-0.0002,-0.0585,6.1772,0.0,-0.0884,7.7839,0.0002,0.0978
129701,-106.7209,-1.4347,-0.0103,-0.1104,-89.4553,-0.0002,-0.0585,6.1772,0.0,-0.0884,7.7839,0.0002,0.0978
129717,-106.7209,-1.4347,-0.0103,-0.1104,-89.4553,-0.0002,-0.0585,6.1772,0.0,-0.0884,7.7839,0.0002,0.0978
129733,-106.7209,-1.4347,-0.0103,-0.1104,-89.4553,-0.0002,-0.0585,6.1772,0.0,-0.0884,7.7839,0.0002,0.0978
129751,-106.7265,-0.8314,-0.0103,-0.1226,-89.4661,-0.0002,-0.0654,6.9856,-0.0,-0.0758,8.9144,-0.0003,-0.2803
129765,-106.7265,-0.8314,-0.0103,-0.1226,-89.4661,-0.0002,-0.0654,6.9856,-0.0,-0.0758,8.9144,-0.0003,-0.2803
129781,-106.7265,-0.8314,-0.0103,-0.1226,-89.4661,-0.0002,-0.0654,6.9856,-0.0,-0.0758,8.9144,-0.0003,-0.2803
129797,-106.7265,-0.8314,-0.0103,-0.1226,-89.4661,-0.0002,-0.0654,6.9856,-0.0,-0.0758,8.9144,-0.0003,-0.2803
129813,-106.7265,-0.8314,-0.0103,-0.1226,-89.4661,-0.0002,-0.0654,6.9856,-0.0,-0.0758,8.9144,-0.0003,-0.2803
129829,-106.7265,-0.8314,-0.0103,-0.1226,-89.4661,-0.0002,-0.0654,6.9856,-0.0,-0.0758,8.9144,-0.0003,-0.2803
129845,-106.733,-0.145,-0.0103,-0.1231,-89.4569,-0.0001,-0.0719,7.6305,-0.0,-0.07,6.9279,0.0001,0.3138
129861,-106.733,-0.145,-0.0103,-0.1231,-89.4569,-0.0001,-0.0719,7.6305,-0.0,-0.07,6.9279,0.0001,0.3138
129877,-106.733,-0.145,-0.0103,-0.1231,-89.4569,-0.0001,-0.0719,7.6305,-0.0,-0.07,6.9279,0.0001,0.3138
129893,-106.733,-0.145,-0.0103,-0.1231,-89.4569,-0.0001,-0.0719,7.6305,-0.0,-0.07,6.9279,0.0001,0.3138
129909,-106.733,-0.145,-0.0103,-0.1231,-89.4569,-0.0001,-0.0719,7.6305,-0.0,-0.07,6.9279,0.0001,0.3138
129926,-106.7399,0.5871,-0.0103,-0.1195,-89.4625,-0.0001,-0.0777,8.2779,-0.0,-0.064,7.08,-0.0,-0.0486
129941,-106.7399,0.5871,-0.0103,-0.1195,-89.4625,-0.0001,-0.0777,8.2779,-0.0,-0.064,7.08,-0.0,-0.0486
129957,-106.7399,0.5871,-0.0103,-0.1195,-89.4625,-0.0001,-0.0777,8.2779,-0.0,-0.064,7.08,-0.0,-0.0486
129973,-106.7399,0.5871,-0.0103,-0.1195,-89.4625,-0.0001,-0.0777,8.2779,-0.0,-0.064,7.08,-0.0,-0.0486
129989,-106.7399,0.5871,-0.0103,-0.1195,-89.4625,-0.0001,-0.0777,8.2779,-0.0,-0.064,7.08,-0.0,-0.0486
130005,-106.7399,0.5871,-0.0103,-0.1195,-89.4625,-0.0001,-0.0777,8.2779,-0.0,-0.064,7.08,-0.0,-0.0486
130022,-106.7474,1.3848,-0.0103,-0.114,-89.4615,-0.0,-0.0832,8.8494,-0.0,-0.0586,6.1719,-0.0002,0.0027
130037,-106.7474,1.3848,-0.0103,-0.114,-89.4615,-0.0,-0.0832,8.8494,-0.0,-0.0586,6.1719,-0.0002,0.0027
130053,-106.7474,1.3848,-0.0103,-0.114,-89.4615,-0.0,-0.0832,8.8494,-0.0,-0.0586,6.1719,-0.0002,0.0027
130069,-106.7474,1.3848,-0.0103,-0.114,-89.4615,-0.0,-0.0832,8.8494,-0.0,-0.0586,6.1719,-0.0002,0.0027
130085,-106.7474,1.3848,-0.0103,-0.114,-89.4615,-0.0,-0.0832,8.8494,-0.0,-0.0586,6.1719,-0.0002,0.0027
130101,-106.7474,1.3848,-0.0103,-0.114,-89.4615,-0.0,-0.0832,8.8494,-0.0,-0.0586,6.1719,-0.0002,0.0027
130119,-106.7554,2.2388,-0.0104,-0.1051,-89.4615,-0.0,-0.088,9.3602,0.0,-0.0514,5.4699,0.0003,-0.0001
130133,-106.7554,2.2388,-0.0104,-0.1051,-89.4615,-0.0,-0.088,9.3602,0.0,-0.0514,5.4699,0.0003,-0.0001
130149,-106.7554,2.2388,-0.0104,-0.1051,-89.4615,-0.0,-0.088,9.3602,0.0,-0.0514,5.4699,0.0003,-0.0001
130165,-106.7554,2.2388,-0.0104,-0.1051,-89.4615,-0.0,-0.088,9.3602,0.0,-0.0514,5.4699,0.0003,-0.0001
130181,-106.7554,2.2388,-0.0104,-0.1051,-89.4615,-0.0,-0.088,9.3602,0.0,-0.0514,5.4699,0.0003,-0.0001
130197,-106.7554,2.2388,-0.0104,-0.1051,-89.4615,-0.0,-0.088,9.3602,0.0,-0.0514,5.4699,0.0003,-0.0001
130213,-106.7637,3.125,-0.0104,-0.0987,-89.4616,0.0,-0.0927,9.8625,-0.0,-0.0514,5.4689,-0.0002,0.0001
130229,-106.7637,3.125,-0.0104,-0.0987,-89.4616,0.0,-0.0927,9.8625,-0.0,-0.0514,5.4689,-0.0002,0.0001
130245,-106.7637,3.125,-0.0104,-0.0987,-89.4616,0.0,-0.0927,9.8625,-0.0,-0.0514,5.4689,-0.0002,0.0001
130261,-106.7637,3.125,-0.0104,-0.0987,-89.4616,0.0,-0.0927,9.8625,-0.0,-0.0514,5.4689,-0.0002,0.0001
130277,-106.7637,3.125,-0.0104,-0.0987,-89.4616,0.0,-0.0927,9.8625,-0.0,-0.0514,5.4689,-0.0002,0.0001
130293,-106.7637,3.125,-0.0104,-0.0987,-89.4616,0.0,-0.0927,9.8625,-0.0,-0.0514,5.4689,-0.0002,0.0001
130309,-106.7729,4.1057,-0.0105,-0.0909,-89.4615,0.0,-0.0969,10.3069,-0.0,-0.0431,4.5868,0.0,0.0001
130325,-106.7729,4.1057,-0.0105,-0.0909,-89.4615,0.0,-0.0969,10.3069,-0.0,-0.0431,4.5868,0.0,0.0001
130341,-106.7729,4.1057,-0.0105,-0.0909,-89.4615,0.0,-0.0969,10.3069,-0.0,-0.0431,4.5868,0.0,0.0001
130357,-106.7729,4.1057,-0.0105,-0.0909,-89.4615,0.0,-0.0969,10.3069,-0.0,-0.0431,4.5868,0.0,0.0001
130373,-106.7729,4.1057,-0.0105,-0.0909,-89.4615,0.0,-0.0969,10.3069,-0.0,-0.0431,4.5868,0.0,0.0001
130389,-106.7729,4.1057,-0.0105,-0.0909,-89.4615,0.0,-0.0969,10.3069,-0.0,-0.0431,4.5868,0.0,0.0001
130405,-106.782,5.0644,-0.0105,-0.0849,-89.4615,-0.0,-0.1009,10.7347,-0.0,-0.0442,4.707,0.0001,0.0001
130421,-106.782,5.0644,-0.0105,-0.0849,-89.4615,-0.0,-0.1009,10.7347,-0.0,-0.0442,4.707,0.0001,0.0001
130437,-106.782,5.0644,-0.0105,-0.0849,-89.4615,-0.0,-0.1009,10.7347,-0.0,-0.0442,4.707,0.0001,0.0001
130453,-106.782,5.0644,-0.0105,-0.0849,-89.4615,-0.0,-0.1009,10.7347,-0.0,-0.0442,4.707,0.0001,0.0001
130469,-106.782,5.0644,-0.0105,-0.0849,-89.4615,-0.0,-0.1009,10.7347,-0.0,-0.0442,4.707,0.0001,0.0001
130487,-106.7913,6.0521,-0.0106,-0.0808,-89.4615,0.0,-0.1046,11.1348,0.0,-0.0417,4.4396,0.0,-0.0001
130501,-106.7913,6.0521,-0.0106,-0.0808,-89.4615,0.0,-0.1046,11.1348,0.0,-0.0417,4.4396,0.0,-0.0001
130517,-106.7913,6.0521,-0.0106,-0.0808,-89.4615,0.0,-0.1046,11.1348,0.0,-0.0417,4.4396,0.0,-0.0001
130533,-106.7913,6.0521,-0.0106,-0.0808,-89.4615,0.0,-0.1046,11.1348,0.0,-0.0417,4.4396,0.0,-0.0001
130549,-106.7913,6.0521,-0.0106,-0.0808,-89.4615,0.0,-0.1046,11.1348,0.0,-0.0417,4.4396,0.0,-0.0001
130565,-106.7913,6.0521,-0.0106,-0.0808,-89.4615,0.0,-0.1046,11.1348,0.0,-0.0417,4.4396,0.0,-0.0001
130581,-106.7913,6.0521,-0.0106,-0.0808,-89.4615,0.0,-0.1046,11.1348,0.0,-0.0417,4.4396,0.0,-0.0001
130597,-106.8019,7.1878,-0.0106,-0.075,-89.4616,0.0,-0.1083,11.5252,0.0,-0.0361,3.8425,0.0001,-0.0002
130613,-106.8019,7.1878,-0.0106,-0.075,-89.4616,0.0,-0.1083,11.5252,0.0,-0.0361,3.8425,0.0001,-0.0002
130629,-106.8019,7.1878,-0.0106,-0.075,-89.4616,0.0,-0.1083,11.5252,0.0,-0.0361,3.8425,0.0001,-0.0002
130645,-106.8019,7.1878,-0.0106,-0.075,-89.4616,0.0,-0.1083,11.5252,0.0,-0.0361,3.8425,0.0001,-0.0002
130661,-106.8019,7.1878,-0.0106,-0.075,-89.4616,0.0,-0.1083,11.5252,0.0,-0.0361,3.8425,0.0001,-0.0002
130677,-106.8019,7.1878,-0.0106,-0.075,-89.4616,0.0,-0.1083,11.5252,0.0,-0.0361,3.8425,0.0001,-0.0002
130693,-106.812,8.2544,-0.0106,-0.0697,-89.4615,0.0,-0.1114,11.8576,0.0,-0.0343,3.6495,-0.0,-0.0001
130709,-106.812,8.2544,-0.0106,-0.0697,-89.4615,0.0,-0.1114,11.8576,0.0,-0.0343,3.6495,-0.0,-0.0001
130725,-106.812,8.2544,-0.0106,-0.0697,-89.4615,0.0,-0.1114,11.8576,0.0,-0.0343,3.6495,-0.0,-0.0001
130741,-106.812,8.2544,-0.0106,-0.0697,-89.4615,0.0,-0.1114,11.8576,0.0,-0.0343,3.6495,-0.0,-0.0001
130757,-106.812,8.2544,-0.0106,-0.0697,-89.4615,0.0,-0.1114,11.8576,0.0,-0.0343,3.6495,-0.0,-0.0001
130775,-106.812,8.2544,-0.0106,-0.0697,-89.4615,0.0,-0.1114,11.8576,0.0,-0.0343,3.6495,-0.0,-0.0001
130789,-106.8226,9.3904,-0.0107,-0.0649,-89.4615,0.0,-0.1145,12.1791,-0.0,-0.032,3.4067,-0.0002,-0.0002
130805,-106.8226,9.3904,-0.0107,-0.0649,-89.4615,0.0,-0.1145,12.1791,-0.0,-0.032,3.4067,-0.0002,-0.0002
130821,-106.8226,9.3904,-0.0107,-0.0649,-89.4615,0.0,-0.1145,12.1791,-0.0,-0.032,3.4067,-0.0002,-0.0002
130837,-106.8226,9.3904,-0.0107,-0.0649,-89.4615,0.0,-0.1145,12.1791,-0.0,-0.032,3.4067,-0.0002,-0.0002
130853,-106.8226,9.3904,-0.0107,-0.0649,-89.4615,0.0,-0.1145,12.1791,-0.0,-0.032,3.4067,-0.0002,-0.0002
130869,-106.8331,10.5058,-0.0107,-0.0606,-89.4616,0.0,-0.1172,12.4659,-0.0,-0.0298,3.1725,0.0001,-0.0001
130885,-106.8331,10.5058,-0.0107,-0.0606,-89.4616,0.0,-0.1172,12.4659,-0.0,-0.0298,3.1725,0.0001,-0.0001
130901,-106.8331,10.5058,-0.0107,-0.0606,-89.4616,0.0,-0.1172,12.4659,-0.0,-0.0298,3.1725,0.0001,-0.0001
130917,-106.8331,10.5058,-0.0107,-0.0606,-89.4616,0.0,-0.1172,12.4659,-0.0,-0.0298,3.1725,0.0001,-0.0001
130933,-106.8331,10.5058,-0.0107,-0.0606,-89.4616,0.0,-0.1172,12.4659,-0.0,-0.0298,3.1725,0.0001,-0.0001
130949,-106.8331,10.5058,-0.0107,-0.0606,-89.4616,0.0,-0.1172,12.4659,-0.0,-0.0298,3.1725,0.0001,-0.0001
130966,-106.8447,11.7398,-0.0107,-0.0561,-89.4616,-0.0,-0.1198,12.7452,-0.0,-0.0269,2.8571,-0.0001,-0.0002
130997,-106.8447,11.7398,-0.0107,-0.0561,-89.4616,-0.0,-0.1198,12.7452,-0.0,-0.0269,2.8571,-0.0001,-0.0002
131013,-106.8447,11.7398,-0.0107,-0.0561,-89.4616,-0.0,-0.1198,12.7452,-0.0,-0.0269,2.8571,-0.0001,-0.0002
131029,-106.8447,11.7398,-0.0107,-0.0561,-89.4616,-0.0,-0.1198,12.7452,-0.0,-0.0269,2.8571,-0.0001,-0.0002
131045,-106.8447,11.7398,-0.0107,-0.0561,-89.4616,-0.0,-0.1198,12.7452,-0.0,-0.0269,2.8571,-0.0001,-0.0002
131061,-106.8804,12.9174,-0.0108,-0.0422,-90.6134,0.1088,-0.8706,12.7796,0.0009,-8.1571,0.3732,0.0101,-27.3785
131077,-106.8804,12.9174,-0.0108,-0.0422,-90.6134,0.1088,-0.8706,12.7796,0.0009,-8.1571,0.3732,0.0101,-27.3785
131093,-106.8804,12.9174,-0.0108,-0.0422,-90.6134,0.1088,-0.8706,12.7796,0.0009,-8.1571,0.3732,0.0101,-27.3785
131109,-106.8804,12.9174,-0.0108,-0.0422,-90.6134,0.1088,-0.8706,12.7796,0.0009,-8.1571,0.3732,0.0101,-27.3785
131125,-106.8804,12.9174,-0.0108,-0.0422,-90.6134,0.1088,-0.8706,12.7796,0.0009,-8.1571,0.3732,0.0101,-27.3785
131143,-106.9704,14.0422,-0.0109,-0.0105,-95.113,0.2438,-1.7522,12.5639,0.0012,-9.9171,-2.4262,0.0035,-70.9771
131157,-106.9704,14.0422,-0.0109,-0.0105,-95.113,0.2438,-1.7522,12.5639,0.0012,-9.9171,-2.4262,0.0035,-70.9771
131173,-106.9704,14.0422,-0.0109,-0.0105,-95.113,0.2438,-1.7522,12.5639,0.0012,-9.9171,-2.4262,0.0035,-70.9771
131189,-106.9704,14.0422,-0.0109,-0.0105,-95.113,0.2438,-1.7522,12.5639,0.0012,-9.9171,-2.4262,0.0035,-70.9771
131205,-106.9704,14.0422,-0.0109,-0.0105,-95.113,0.2438,-1.7522,12.5639,0.0012,-9.9171,-2.4262,0.0035,-70.9771
131221,-106.9704,14.0422,-0.0109,-0.0105,-95.113,0.2438,-1.7522,12.5639,0.0012,-9.9171,-2.4262,0.0035,-70.9771
131238,-107.0984,15.1928,-0.0111,0.0206,-104.4784,0.2677,-2.2825,12.2932,0.0002,-5.6633,-2.8909,-0.0107,-124.7443
131253,-107.0984,15.1928,-0.0111,0.0206,-104.4784,0.2677,-2.2825,12.2932,0.0002,-5.6633,-2.8909,-0.0107,-124.7443
131269,-107.0984,15.1928,-0.0111,0.0206,-104.4784,0.2677,-2.2825,12.2932,0.0002,-5.6633,-2.8909,-0.0107,-124.7443
131285,-107.0984,15.1928,-0.0111,0.0206,-104.4784,0.2677,-2.2825,12.2932,0.0002,-5.6633,-2.8909,-0.0107,-124.7443
131301,-107.0984,15.1928,-0.0111,0.0206,-104.4784,0.2677,-2.2825,12.2932,0.0002,-5.6633,-2.8909,-0.0107,-124.7443
131317,-107.0984,15.1928,-0.0111,0.0206,-104.4784,0.2677,-2.2825,12.2932,0.0002,-5.6633,-2.8909,-0.0107,-124.7443
131333,-107.0984,15.1928,-0.0111,0.0206,-104.4784,0.2677,-2.2825,12.2932,0.0002,-5.6633,-2.8909,-0.0107,-124.7443
131349,-107.2122,16.314,-0.0111,0.0188,-119.2993,0.1556,-2.1215,12.1387,-0.001,1.6902,-1.6227,-0.0125,-180.387
131365,-107.2122,16.314,-0.0111,0.0188,-119.2993,0.1556,-2.1215,12.1387,-0.001,1.6902,-1.6227,-0.0125,-180.387
131381,-107.2122,16.314,-0.0111,0.0188,-119.2993,0.1556,-2.1215,12.1387,-0.001,1.6902,-1.6227,-0.0125,-180.387
131397,-107.2122,16.314,-0.0111,0.0188,-119.2993,0.1556,-2.1215,12.1387,-0.001,1.6902,-1.6227,-0.0125,-180.387
131413,-107.2122,16.314,-0.0111,0.0188,-119.2993,0.1556,-2.1215,12.1387,-0.001,1.6902,-1.6227,-0.0125,-180.387
131429,-107.2372,17.315,-0.0107,-0.0525,-136.8555,-0.0742,-0.7262,12.1499,-0.0005,15.6986,0.127,0.0051,-207.5943
131445,-107.2372,17.315,-0.0107,-0.0525,-136.8555,-0.0742,-0.7262,12.1499,-0.0005,15.6986,0.127,0.0051,-207.5943
131461,-107.2372,17.315,-0.0107,-0.0525,-136.8555,-0.0742,-0.7262,12.1499,-0.0005,15.6986,0.127,0.0051,-207.5943
131477,-107.2372,17.315,-0.0107,-0.0525,-136.8555,-0.0742,-0.7262,12.1499,-0.0005,15.6986,0.127,0.0051,-207.5943
131493,-107.2372,17.315,-0.0107,-0.0525,-136.8555,-0.0742,-0.7262,12.1499,-0.0005,15.6986,0.127,0.0051,-207.5943
131509,-107.2372,17.315,-0.0107,-0.0525,-136.8555,-0.0742,-0.7262,12.1499,-0.0005,15.6986,0.127,0.0051,-207.5943
131525,-107.107,18.3455,-0.0097,-0.1719,-157.7832,-0.3411,1.5059,11.6471,0.0021,22.9559,-5.1711,0.0264,-220.1137
131541,-107.107,18.3455,-0.0097,-0.1719,-157.7832,-0.3411,1.5059,11.6471,0.0021,22.9559,-5.1711,0.0264,-220.1137
131557,-107.107,18.3455,-0.0097,-0.1719,-157.7832,-0.3411,1.5059,11.6471,0.0021,22.9559,-5.1711,0.0264,-220.1137
131573,-107.107,18.3455,-0.0097,-0.1719,-157.7832,-0.3411,1.5059,11.6471,0.0021,22.9559,-5.1711,0.0264,-220.1137
131607,-106.8288,19.213,-0.0088,-0.2639,-178.5307,-0.5306,3.5938,10.411,0.0018,22.6278,-13.3977,-0.0028,-229.0594
131621,-106.8288,19.213,-0.0088,-0.2639,-178.5307,-0.5306,3.5938,10.411,0.0018,22.6278,-13.3977,-0.0028,-229.0594
131637,-106.8288,19.213,-0.0088,-0.2639,-178.5307,-0.5306,3.5938,10.411,0.0018,22.6278,-13.3977,-0.0028,-229.0594
131653,-106.8288,19.213,-0.0088,-0.2639,-178.5307,-0.5306,3.5938,10.411,0.0018,22.6278,-13.3977,-0.0028,-229.0594
131669,-106.8288,19.213,-0.0088,-0.2639,-178.5307,-0.5306,3.5938,10.411,0.0018,22.6278,-13.3977,-0.0028,-229.0594
131685,-106.8288,19.213,-0.0088,-0.2639,-178.5307,-0.5306,3.5938,10.411,0.0018,22.6278,-13.3977,-0.0028,-229.0594
131702,-106.4821,19.8808,-0.0084,-0.2998,161.2144,-0.7141,4.4964,8.2902,0.0019,10.2895,-24.1742,0.0012,-231.5046
131717,-106.4821,19.8808,-0.0084,-0.2998,161.2144,-0.7141,4.4964,8.2902,0.0019,10.2895,-24.1742,0.0012,-231.5046
131733,-106.4821,19.8808,-0.0084,-0.2998,161.2144,-0.7141,4.4964,8.2902,0.0019,10.2895,-24.1742,0.0012,-231.5046
131749,-106.4821,19.8808,-0.0084,-0.2998,161.2144,-0.7141,4.4964,8.2902,0.0019,10.2895,-24.1742,0.0012,-231.5046
131765,-106.4821,19.8808,-0.0084,-0.2998,161.2144,-0.7141,4.4964,8.2902,0.0019,10.2895,-24.1742,0.0012,-231.5046
131782,-106.202,20.4045,-0.009,-0.2269,142.2909,-0.8507,3.1293,6.875,0.0049,-15.5677,-16.1158,0.0339,-196.8595
131797,-106.202,20.4045,-0.009,-0.2269,142.2909,-0.8507,3.1293,6.875,0.0049,-15.5677,-16.1158,0.0339,-196.8595
131813,-106.202,20.4045,-0.009,-0.2269,142.2909,-0.8507,3.1293,6.875,0.0049,-15.5677,-16.1158,0.0339,-196.8595
131829,-106.202,20.4045,-0.009,-0.2269,142.2909,-0.8507,3.1293,6.875,0.0049,-15.5677,-16.1158,0.0339,-196.8595
131845,-106.202,20.4045,-0.009,-0.2269,142.2909,-0.8507,3.1293,6.875,0.0049,-15.5677,-16.1158,0.0339,-196.8595
131861,-106.202,20.4045,-0.009,-0.2269,142.2909,-0.8507,3.1293,6.875,0.0049,-15.5677,-16.1158,0.0339,-196.8595
131877,-106.1163,20.9047,-0.0099,-0.0663,126.9194,-0.9092,0.9948,6.7933,0.001,-24.7094,-0.9456,-0.0449,-157.4727
131893,-106.1163,20.9047,-0.0099,-0.0663,126.9194,-0.9092,0.9948,6.7933,0.001,-24.7094,-0.9456,-0.0449,-157.4727
131909,-106.1163,20.9047,-0.0099,-0.0663,126.9194,-0.9092,0.9948,6.7933,0.001,-24.7094,-0.9456,-0.0449,-157.4727
131925,-106.1163,20.9047,-0.0099,-0.0663,126.9194,-0.9092,0.9948,6.7933,0.001,-24.7094,-0.9456,-0.0449,-157.4727
131941,-106.1163,20.9047,-0.0099,-0.0663,126.9194,-0.9092,0.9948,6.7933,0.001,-24.7094,-0.9456,-0.0449,-157.4727
131958,-106.1853,21.4926,-0.0111,0.0877,115.9042,-0.8019,-0.5947,7.7238,-0.001,-18.4288,10.7881,-0.0227,-106.3261
131973,-106.1853,21.4926,-0.0111,0.0877,115.9042,-0.8019,-0.5947,7.7238,-0.001,-18.4288,10.7881,-0.0227,-106.3261
131989,-106.1853,21.4926,-0.0111,0.0877,115.9042,-0.8019,-0.5947,7.7238,-0.001,-18.4288,10.7881,-0.0227,-106.3261
132005,-106.1853,21.4926,-0.0111,0.0877,115.9042,-0.8019,-0.5947,7.7238,-0.001,-18.4288,10.7881,-0.0227,-106.3261
132021,-106.1853,21.4926,-0.0111,0.0877,115.9042,-0.8019,-0.5947,7.7238,-0.001,-18.4288,10.7881,-0.0227,-106.3261
132037,-106.1853,21.4926,-0.0111,0.0877,115.9042,-0.8019,-0.5947,7.7238,-0.001,-18.4288,10.7881,-0.0227,-106.3261
132053,-106.2947,22.1802,-0.0118,0.1565,107.5572,-0.4839,-0.4675,8.5768,-0.0026,1.4782,9.9102,-0.0193,-93.8133
132069,-106.2947,22.1802,-0.0118,0.1565,107.5572,-0.4839,-0.4675,8.5768,-0.0026,1.4782,9.9102,-0.0193,-93.8133
132085,-106.2947,22.1802,-0.0118,0.1565,107.5572,-0.4839,-0.4675,8.5768,-0.0026,1.4782,9.9102,-0.0193,-93.8133
132117,-106.2947,22.1802,-0.0118,0.1565,107.5572,-0.4839,-0.4675,8.5768,-0.0026,1.4782,9.9102,-0.0193,-93.8133
132135,-106.3955,22.998,-0.0121,0.1645,100.7475,-0.2881,-0.8842,9.1211,-0.0021,-4.4881,5.862,0.0057,-49.3315
132149,-106.3955,22.998,-0.0121,0.1645,100.7475,-0.2881,-0.8842,9.1211,-0.0021,-4.4881,5.862,0.0057,-49.3315
132165,-106.3955,22.998,-0.0121,0.1645,100.7475,-0.2881,-0.8842,9.1211,-0.0021,-4.4881,5.862,0.0057,-49.3315
132181,-106.3955,22.998,-0.0121,0.1645,100.7475,-0.2881,-0.8842,9.1211,-0.0021,-4.4881,5.862,0.0057,-49.3315
132197,-106.3955,22.998,-0.0121,0.1645,100.7475,-0.2881,-0.8842,9.1211,-0.0021,-4.4881,5.862,0.0057,-49.3315
132213,-106.3955,22.998,-0.0121,0.1645,100.7475,-0.2881,-0.8842,9.1211,-0.0021,-4.4881,5.862,0.0057,-49.3315
132229,-106.3955,22.998,-0.0121,0.1645,100.7475,-0.2881,-0.8842,9.1211,-0.0021,-4.4881,5.862,0.0057,-49.3315
132245,-106.5267,23.8777,-0.0119,0.1251,98.3568,-0.257,-1.3129,9.2942,-0.0005,-4.4769,1.8077,0.0164,-13.3742
132261,-106.5267,23.8777,-0.0119,0.1251,98.3568,-0.257,-1.3129,9.2942,-0.0005,-4.4769,1.8077,0.0164,-13.3742
132277,-106.5267,23.8777,-0.0119,0.1251,98.3568,-0.257,-1.3129,9.2942,-0.0005,-4.4769,1.8077,0.0164,-13.3742
132293,-106.5267,23.8777,-0.0119,0.1251,98.3568,-0.257,-1.3129,9.2942,-0.0005,-4.4769,1.8077,0.0164,-13.3742
132309,-106.5267,23.8777,-0.0119,0.1251,98.3568,-0.257,-1.3129,9.2942,-0.0005,-4.4769,1.8077,0.0164,-13.3742
132327,-106.6517,24.7331,-0.0117,0.086,97.7802,-0.1657,-1.3257,9.4076,-0.0007,-0.1406,1.2403,-0.002,-4.023
132341,-106.6517,24.7331,-0.0117,0.086,97.7802,-0.1657,-1.3257,9.4076,-0.0007,-0.1406,1.2403,-0.002,-4.023
132357,-106.6517,24.7331,-0.0117,0.086,97.7802,-0.1657,-1.3257,9.4076,-0.0007,-0.1406,1.2403,-0.002,-4.023
132373,-106.6517,24.7331,-0.0117,0.086,97.7802,-0.1657,-1.3257,9.4076,-0.0007,-0.1406,1.2403,-0.002,-4.023
132389,-106.6517,24.7331,-0.0117,0.086,97.7802,-0.1657,-1.3257,9.4076,-0.0007,-0.1406,1.2403,-0.002,-4.023
132405,-106.6517,24.7331,-0.0117,0.086,97.7802,-0.1657,-1.3257,9.4076,-0.0007,-0.1406,1.2403,-0.002,-4.023
132421,-106.7741,25.61,-0.0115,0.0572,97.6183,-0.0928,-1.3015,9.4926,-0.0006,0.2615,0.9161,0.0013,-1.6505
132437,-106.7741,25.61,-0.0115,0.0572,97.6183,-0.0928,-1.3015,9.4926,-0.0006,0.2615,0.9161,0.0013,-1.6505
132453,-106.7741,25.61,-0.0115,0.0572,97.6183,-0.0928,-1.3015,9.4926,-0.0006,0.2615,0.9161,0.0013,-1.6505
132469,-106.7741,25.61,-0.0115,0.0572,97.6183,-0.0928,-1.3015,9.4926,-0.0006,0.2615,0.9161,0.0013,-1.6505
132485,-106.7741,25.61,-0.0115,0.0572,97.6183,-0.0928,-1.3015,9.4926,-0.0006,0.2615,0.9161,0.0013,-1.6505
132501,-106.7741,25.61,-0.0115,0.0572,97.6183,-0.0928,-1.3015,9.4926,-0.0006,0.2615,0.9161,0.0013,-1.6505
132517,-106.8927,26.4844,-0.0114,0.039,97.5732,-0.0505,-1.2885,9.5645,-0.0003,0.1418,0.7839,0.0027,-0.9532
132533,-106.8927,26.4844,-0.0114,0.039,97.5732,-0.0505,-1.2885,9.5645,-0.0003,0.1418,0.7839,0.0027,-0.9532
132549,-106.8927,26.4844,-0.0114,0.039,97.5732,-0.0505,-1.2885,9.5645,-0.0003,0.1418,0.7839,0.0027,-0.9532
132565,-106.8927,26.4844,-0.0114,0.039,97.5732,-0.0505,-1.2885,9.5645,-0.0003,0.1418,0.7839,0.0027,-0.9532
132581,-106.8927,26.4844,-0.0114,0.039,97.5732,-0.0505,-1.2885,9.5645,-0.0003,0.1418,0.7839,0.0027,-0.9532
132599,-107.0156,27.4018,-0.0113,0.0267,97.5595,-0.0268,-1.2847,9.6196,-0.0001,0.0393,0.5757,0.0019,-0.8407
132613,-107.0156,27.4018,-0.0113,0.0267,97.5595,-0.0268,-1.2847,9.6196,-0.0001,0.0393,0.5757,0.0019,-0.8407
132629,-107.0156,27.4018,-0.0113,0.0267,97.5595,-0.0268,-1.2847,9.6196,-0.0001,0.0393,0.5757,0.0019,-0.8407
132645,-107.0156,27.4018,-0.0113,0.0267,97.5595,-0.0268,-1.2847,9.6196,-0.0001,0.0393,0.5757,0.0019,-0.8407
132661,-107.0156,27.4018,-0.0113,0.0267,97.5595,-0.0268,-1.2847,9.6196,-0.0001,0.0393,0.5757,0.0019,-0.8407
132677,-107.0156,27.4018,-0.0113,0.0267,97.5595,-0.0268,-1.2847,9.6196,-0.0001,0.0393,0.5757,0.0019,-0.8407
132694,-107.133,28.2867,-0.0106,0.0551,97.559,0.0802,-1.2952,9.6843,0.0139,-0.1145,0.7062,0.1528,-0.5063
132709,-107.133,28.2867,-0.0106,0.0551,97.559,0.0802,-1.2952,9.6843,0.0139,-0.1145,0.7062,0.1528,-0.5063
132725,-107.133,28.2867,-0.0106,0.0551,97.559,0.0802,-1.2952,9.6843,0.0139,-0.1145,0.7062,0.1528,-0.5063
132741,-107.133,28.2867,-0.0106,0.0551,97.559,0.0802,-1.2952,9.6843,0.0139,-0.1145,0.7062,0.1528,-0.5063
132757,-107.133,28.2867,-0.0106,0.0551,97.559,0.0802,-1.2952,9.6843,0.0139,-0.1145,0.7062,0.1528,-0.5063
132773,-107.133,28.2867,-0.0106,0.0551,97.559,0.0802,-1.2952,9.6843,0.0139,-0.1145,0.7062,0.1528,-0.5063
132791,-107.2535,29.1882,-0.0109,0.027,97.5545,0.014,-1.2928,9.7372,-0.0042,0.0261,0.5704,-0.1943,-0.7166
132805,-107.2535,29.1882,-0.0109,0.027,97.5545,0.014,-1.2928,9.7372,-0.0042,0.0261,0.5704,-0.1943,-0.7166
132821,-107.2535,29.1882,-0.0109,0.027,97.5545,0.014,-1.2928,9.7372,-0.0042,0.0261,0.5704,-0.1943,-0.7166
132837,-107.2535,29.1882,-0.0109,0.027,97.5545,0.014,-1.2928,9.7372,-0.0042,0.0261,0.5704,-0.1943,-0.7166
132853,-107.2535,29.1882,-0.0109,0.027,97.5545,0.014,-1.2928,9.7372,-0.0042,0.0261,0.5704,-0.1943,-0.7166
132869,-107.2535,29.1882,-0.0109,0.027,97.5545,0.014,-1.2928,9.7372,-0.0042,0.0261,0.5704,-0.1943,-0.7166
132885,-107.3689,30.0581,-0.0111,0.0178,97.5608,0.0068,-1.2964,9.7723,-0.0017,-0.0405,0.3932,0.0275,0.811
132901,-107.3689,30.0581,-0.0111,0.0178,97.5608,0.0068,-1.2964,9.7723,-0.0017,-0.0405,0.3932,0.0275,0.811
132917,-107.3689,30.0581,-0.0111,0.0178,97.5608,0.0068,-1.2964,9.7723,-0.0017,-0.0405,0.3932,0.0275,0.811
132933,-107.3689,30.0581,-0.0111,0.0178,97.5608,0.0068,-1.2964,9.7723,-0.0017,-0.0405,0.3932,0.0275,0.811
132949,-107.3689,30.0581,-0.0111,0.0178,97.5608,0.0068,-1.2964,9.7723,-0.0017,-0.0405,0.3932,0.0275,0.811
132967,-107.488,30.9574,-0.0101,-0.0357,97.5575,0.058,-1.3076,9.8328,-0.0081,-0.1219,0.6592,-0.07,1.119
132981,-107.488,30.9574,-0.0101,-0.0357,97.5575,0.058,-1.3076,9.8328,-0.0081,-0.1219,0.6592,-0.07,1.119
132997,-107.488,30.9574,-0.0101,-0.0357,97.5575,0.058,-1.3076,9.8328,-0.0081,-0.1219,0.6592,-0.07,1.119
133013,-107.488,30.9574,-0.0101,-0.0357,97.5575,0.058,-1.3076,9.8328,-0.0081,-0.1219,0.6592,-0.07,1.119
133029,-107.488,30.9574,-0.0101,-0.0357,97.5575,0.058,-1.3076,9.8328,-0.0081,-0.1219,0.6592,-0.07,1.119
133045,-107.488,30.9574,-0.0101,-0.0357,97.5575,0.058,-1.3076,9.8328,-0.0081,-0.1219,0.6592,-0.07,1.119
133063,-107.6051,31.8374,-0.0109,-0.0009,97.5407,0.0135,-1.3074,9.8711,-0.0033,0.0027,0.4284,0.0541,-1.0289
133077,-107.6051,31.8374,-0.0109,-0.0009,97.5407,0.0135,-1.3074,9.8711,-0.0033,0.0027,0.4284,0.0541,-1.0289
133093,-107.6051,31.8374,-0.0109,-0.0009,97.5407,0.0135,-1.3074,9.8711,-0.0033,0.0027,0.4284,0.0541,-1.0289
133109,-107.6051,31.8374,-0.0109,-0.0009,97.5407,0.0135,-1.3074,9.8711,-0.0033,0.0027,0.4284,0.0541,-1.0289
133125,-107.6051,31.8374,-0.0109,-0.0009,97.5407,0.0135,-1.3074,9.8711,-0.0033,0.0027,0.4284,0.0541,-1.0289
133141,-107.6051,31.8374,-0.0109,-0.0009,97.5407,0.0135,-1.3074,9.8711,-0.0033,0.0027,0.4284,0.0541,-1.0289
133157,-107.7222,32.7216,-0.0111,0.0051,97.5416,0.007,-1.3115,9.9087,-0.0012,-0.0462,0.4206,0.0232,0.7544
133173,-107.7222,32.7216,-0.0111,0.0051,97.5416,0.007,-1.3115,9.9087,-0.0012,-0.0462,0.4206,0.0232,0.7544
133189,-107.7222,32.7216,-0.0111,0.0051,97.5416,0.007,-1.3115,9.9087,-0.0012,-0.0462,0.4206,0.0232,0.7544
133205,-107.7222,32.7216,-0.0111,0.0051,97.5416,0.007,-1.3115,9.9087,-0.0012,-0.0462,0.4206,0.0232,0.7544
133221,-107.7222,32.7216,-0.0111,0.0051,97.5416,0.007,-1.3115,9.9087,-0.0012,-0.0462,0.4206,0.0232,0.7544
133238,-107.8414,33.6222,-0.0112,0.0078,97.5385,0.0043,-1.3192,9.9708,-0.0005,-0.0852,0.6865,0.0083,0.5787
133253,-107.8414,33.6222,-0.0112,0.0078,97.5385,0.0043,-1.3192,9.9708,-0.0005,-0.0852,0.6865,0.0083,0.5787
133269,-107.8414,33.6222,-0.0112,0.0078,97.5385,0.0043,-1.3192,9.9708,-0.0005,-0.0852,0.6865,0.0083,0.5787
133285,-107.8414,33.6222,-0.0112,0.0078,97.5385,0.0043,-1.3192,9.9708,-0.0005,-0.0852,0.6865,0.0083,0.5787
