timestamp,x,y,z,pitch,yaw,roll,vx,vy,vz,ax,ay,az,yaw_rate
129972,-106.6867,-4.8475,-0.0785,0.0,-89.3578,0.0,0.0,0.0,0.1163,0.0,-0.0,5.4101,0.0
129988,-106.6867,-4.8475,-0.0785,0.0,-89.3578,0.0,0.0,0.0,0.1163,0.0,-0.0,5.4101,0.0
130004,-106.6867,-4.8475,-0.0785,0.0,-89.3578,0.0,0.0,0.0,0.1163,0.0,-0.0,5.4101,0.0
130020,-106.6867,-4.8475,-0.0785,0.0,-89.3578,0.0,0.0,0.0,0.1163,0.0,-0.0,5.4101,0.0
130036,-106.6867,-4.8475,-0.0785,0.0,-89.3578,0.0,0.0,0.0,0.1163,0.0,-0.0,5.4101,0.0
130052,-106.6867,-4.8475,-0.0785,0.0,-89.3578,0.0,0.0,0.0,0.1163,0.0,-0.0,5.4101,0.0
130068,-106.6867,-4.8475,-0.0785,0.0,-89.3578,0.0,0.0,0.0,0.1163,0.0,-0.0,5.4101,0.0
130084,-106.6867,-4.8475,-0.0785,0.0,-89.3578,0.0,0.0,0.0,0.1163,0.0,-0.0,5.4101,0.0
130100,-106.6867,-4.8475,-0.0785,0.0,-89.3578,0.0,0.0,0.0,0.1163,0.0,-0.0,5.4101,0.0
130116,-106.6867,-4.8475,-0.0785,0.0,-89.3578,0.0,0.0,0.0,0.1163,0.0,-0.0,5.4101,0.0
130132,-106.6867,-4.8475,-0.0785,0.0,-89.3578,0.0,0.0,0.0,0.1163,0.0,-0.0,5.4101,0.0
130148,-106.6867,-4.8475,-0.0785,0.0,-89.3578,0.0,0.0,0.0,0.1163,0.0,-0.0,5.4101,0.0
130164,-106.6867,-4.8475,-0.0785,0.0,-89.3578,0.0,0.0,0.0,0.1163,0.0,-0.0,5.4101,0.0
130180,-106.6867,-4.8475,-0.0785,0.0,-89.3578,0.0,0.0,0.0,0.1163,0.0,-0.0,5.4101,0.0
130196,-106.6867,-4.8475,-0.0785,0.0,-89.3578,0.0,0.0,0.0,0.1163,0.0,-0.0,5.4101,0.0
130212,-106.6867,-4.8475,-0.0785,0.0,-89.3578,0.0,0.0,0.0,0.1163,0.0,-0.0,5.4101,0.0
130228,-106.6867,-4.8475,-0.0785,0.0,-89.3578,0.0,0.0,0.0,0.1163,0.0,-0.0,5.4101,0.0
130244,-106.6867,-4.8475,-0.0785,0.0,-89.3578,0.0,0.0,0.0,0.1163,0.0,-0.0,5.4101,0.0
130260,-106.6867,-4.8475,-0.0785,0.0,-89.3578,0.0,0.0,0.0,0.1163,0.0,-0.0,5.4101,0.0
130276,-106.6867,-4.8475,-0.0785,0.0,-89.3578,0.0,0.0,0.0,0.1163,0.0,-0.0,5.4101,0.0
130292,-106.6867,-4.8475,-0.0785,0.0,-89.3578,0.0,0.0,0.0,0.1163,0.0,-0.0,5.4101,0.0
130308,-106.6867,-4.8475,-0.0785,0.0,-89.3578,0.0,0.0,0.0,0.1163,0.0,-0.0,5.4101,0.0
130324,-106.6867,-4.8475,-0.0785,0.0,-89.3578,0.0,0.0,0.0,0.1163,0.0,-0.0,5.4101,0.0
130340,-106.6867,-4.8475,-0.0785,0.0,-89.3578,0.0,0.0,0.0,0.1163,0.0,-0.0,5.4101,0.0
130356,-106.6867,-4.8475,-0.0785,0.0,-89.3578,0.0,0.0,0.0,0.1163,0.0,-0.0,5.4101,0.0
130372,-106.6868,-4.8454,-0.0571,-0.0018,-89.3578,0.0,-0.0005,0.0441,0.2352,-0.0012,0.1102,0.2971,0.0001
130388,-106.6868,-4.8454,-0.0571,-0.0018,-89.3578,0.0,-0.0005,0.0441,0.2352,-0.0012,0.1102,0.2971,0.0001
130404,-106.6868,-4.8454,-0.0571,-0.0018,-89.3578,0.0,-0.0005,0.0441,0.2352,-0.0012,0.1102,0.2971,0.0001
130420,-106.6868,-4.8454,-0.0571,-0.0018,-89.3578,0.0,-0.0005,0.0441,0.2352,-0.0012,0.1102,0.2971,0.0001
130436,-106.6868,-4.8454,-0.0571,-0.0018,-89.3578,0.0,-0.0005,0.0441,0.2352,-0.0012,0.1102,0.2971,0.0001
130452,-106.6868,-4.8454,-0.0571,-0.0018,-89.3578,0.0,-0.0005,0.0441,0.2352,-0.0012,0.1102,0.2971,0.0001
130468,-106.6868,-4.8454,-0.0571,-0.0018,-89.3578,0.0,-0.0005,0.0441,0.2352,-0.0012,0.1102,0.2971,0.0001
130484,-106.6868,-4.8454,-0.0571,-0.0018,-89.3578,0.0,-0.0005,0.0441,0.2352,-0.0012,0.1102,0.2971,0.0001
130500,-106.6868,-4.8401,-0.0369,-0.0053,-89.3578,0.0,-0.0014,0.1214,0.1673,-0.0078,0.6981,-0.6128,-0.0055
130516,-106.6868,-4.8401,-0.0369,-0.0053,-89.3578,0.0,-0.0014,0.1214,0.1673,-0.0078,0.6981,-0.6128,-0.0055
130532,-106.6868,-4.8401,-0.0369,-0.0053,-89.3578,0.0,-0.0014,0.1214,0.1673,-0.0078,0.6981,-0.6128,-0.0055
130548,-106.6868,-4.8401,-0.0369,-0.0053,-89.3578,0.0,-0.0014,0.1214,0.1673,-0.0078,0.6981,-0.6128,-0.0055
130564,-106.6868,-4.8401,-0.0369,-0.0053,-89.3578,0.0,-0.0014,0.1214,0.1673,-0.0078,0.6981,-0.6128,-0.0055
130580,-106.6868,-4.8401,-0.0369,-0.0053,-89.3578,0.0,-0.0014,0.1214,0.1673,-0.0078,0.6981,-0.6128,-0.0055
130596,-106.6873,-4.7997,-0.0242,-0.0314,-89.3573,0.0,-0.0071,0.6369,0.0952,-0.0518,4.6205,-0.6458,-0.0039
130612,-106.6873,-4.7997,-0.0242,-0.0314,-89.3573,0.0,-0.0071,0.6369,0.0952,-0.0518,4.6205,-0.6458,-0.0039
130628,-106.6873,-4.7997,-0.0242,-0.0314,-89.3573,0.0,-0.0071,0.6369,0.0952,-0.0518,4.6205,-0.6458,-0.0039
130644,-106.6873,-4.7997,-0.0242,-0.0314,-89.3573,0.0,-0.0071,0.6369,0.0952,-0.0518,4.6205,-0.6458,-0.0039
130660,-106.6873,-4.7997,-0.0242,-0.0314,-89.3573,0.0,-0.0071,0.6369,0.0952,-0.0518,4.6205,-0.6458,-0.0039
130676,-106.6873,-4.7997,-0.0242,-0.0314,-89.3573,0.0,-0.0071,0.6369,0.0952,-0.0518,4.6205,-0.6458,-0.0039
130697,-106.6882,-4.7139,-0.0172,-0.0504,-89.3573,0.0,-0.0113,1.0065,0.063,-0.0423,3.7649,-0.3283,0.0096
130708,-106.6882,-4.7139,-0.0172,-0.0504,-89.3573,0.0,-0.0113,1.0065,0.063,-0.0423,3.7649,-0.3283,0.0096
130724,-106.6882,-4.7139,-0.0172,-0.0504,-89.3573,0.0,-0.0113,1.0065,0.063,-0.0423,3.7649,-0.3283,0.0096
130740,-106.6882,-4.7139,-0.0172,-0.0504,-89.3573,0.0,-0.0113,1.0065,0.063,-0.0423,3.7649,-0.3283,0.0096
130756,-106.6882,-4.7139,-0.0172,-0.0504,-89.3573,0.0,-0.0113,1.0065,0.063,-0.0423,3.7649,-0.3283,0.0096
130772,-106.6882,-4.7139,-0.0172,-0.0504,-89.3573,0.0,-0.0113,1.0065,0.063,-0.0423,3.7649,-0.3283,0.0096
130788,-106.6882,-4.7139,-0.0172,-0.0504,-89.3573,0.0,-0.0113,1.0065,0.063,-0.0423,3.7649,-0.3283,0.0096
130808,-106.6895,-4.5975,-0.0134,-0.05,-89.3573,0.0,-0.0144,1.2871,0.0243,-0.0277,2.472,-0.3404,-0.0002
130820,-106.6895,-4.5975,-0.0134,-0.05,-89.3573,0.0,-0.0144,1.2871,0.0243,-0.0277,2.472,-0.3404,-0.0002
130836,-106.6895,-4.5975,-0.0134,-0.05,-89.3573,0.0,-0.0144,1.2871,0.0243,-0.0277,2.472,-0.3404,-0.0002
130852,-106.6895,-4.5975,-0.0134,-0.05,-89.3573,0.0,-0.0144,1.2871,0.0243,-0.0277,2.472,-0.3404,-0.0002
130868,-106.6895,-4.5975,-0.0134,-0.05,-89.3573,0.0,-0.0144,1.2871,0.0243,-0.0277,2.472,-0.3404,-0.0002
130884,-106.6895,-4.5975,-0.0134,-0.05,-89.3573,0.0,-0.0144,1.2871,0.0243,-0.0277,2.472,-0.3404,-0.0002
130905,-106.6908,-4.4793,-0.0121,-0.0313,-89.3573,0.0,-0.0142,1.2667,0.01,0.0024,-0.2116,-0.1482,-0.0003
130916,-106.6908,-4.4793,-0.0121,-0.0313,-89.3573,0.0,-0.0142,1.2667,0.01,0.0024,-0.2116,-0.1482,-0.0003
130932,-106.6908,-4.4793,-0.0121,-0.0313,-89.3573,0.0,-0.0142,1.2667,0.01,0.0024,-0.2116,-0.1482,-0.0003
130948,-106.6908,-4.4793,-0.0121,-0.0313,-89.3573,0.0,-0.0142,1.2667,0.01,0.0024,-0.2116,-0.1482,-0.0003
130964,-106.6908,-4.4793,-0.0121,-0.0313,-89.3573,0.0,-0.0142,1.2667,0.01,0.0024,-0.2116,-0.1482,-0.0003
130980,-106.6908,-4.4793,-0.0121,-0.0313,-89.3573,0.0,-0.0142,1.2667,0.01,0.0024,-0.2116,-0.1482,-0.0003
131007,-106.6922,-4.3583,-0.0116,-0.0181,-89.3573,-0.0,-0.0152,1.3552,0.0043,-0.0098,0.8657,-0.0556,0.0071
131012,-106.6922,-4.3583,-0.0116,-0.0181,-89.3573,-0.0,-0.0152,1.3552,0.0043,-0.0098,0.8657,-0.0556,0.0071
131028,-106.6922,-4.3583,-0.0116,-0.0181,-89.3573,-0.0,-0.0152,1.3552,0.0043,-0.0098,0.8657,-0.0556,0.0071
131044,-106.6922,-4.3583,-0.0116,-0.0181,-89.3573,-0.0,-0.0152,1.3552,0.0043,-0.0098,0.8657,-0.0556,0.0071
131060,-106.6922,-4.3583,-0.0116,-0.0181,-89.3573,-0.0,-0.0152,1.3552,0.0043,-0.0098,0.8657,-0.0556,0.0071
131076,-106.6922,-4.3583,-0.0116,-0.0181,-89.3573,-0.0,-0.0152,1.3552,0.0043,-0.0098,0.8657,-0.0556,0.0071
131092,-106.6922,-4.3583,-0.0116,-0.0181,-89.3573,-0.0,-0.0152,1.3552,0.0043,-0.0098,0.8657,-0.0556,0.0071
131117,-106.6938,-4.211,-0.0112,-0.0321,-89.3574,0.0,-0.0188,1.6756,0.002,-0.0329,2.9463,-0.0217,0.001
131124,-106.6938,-4.211,-0.0112,-0.0321,-89.3574,0.0,-0.0188,1.6756,0.002,-0.0329,2.9463,-0.0217,0.001
131140,-106.6938,-4.211,-0.0112,-0.0321,-89.3574,0.0,-0.0188,1.6756,0.002,-0.0329,2.9463,-0.0217,0.001
131156,-106.6938,-4.211,-0.0112,-0.0321,-89.3574,0.0,-0.0188,1.6756,0.002,-0.0329,2.9463,-0.0217,0.001
131172,-106.6938,-4.211,-0.0112,-0.0321,-89.3574,0.0,-0.0188,1.6756,0.002,-0.0329,2.9463,-0.0217,0.001
131188,-106.6938,-4.211,-0.0112,-0.0321,-89.3574,0.0,-0.0188,1.6756,0.002,-0.0329,2.9463,-0.0217,0.001
131204,-106.6938,-4.211,-0.0112,-0.0321,-89.3574,0.0,-0.0188,1.6756,0.002,-0.0329,2.9463,-0.0217,0.001
131225,-106.6959,-4.0243,-0.0109,-0.0476,-89.3572,0.0,-0.0244,2.1772,0.0009,-0.053,4.717,-0.0098,0.0073
131236,-106.6959,-4.0243,-0.0109,-0.0476,-89.3572,0.0,-0.0244,2.1772,0.0009,-0.053,4.717,-0.0098,0.0073
131252,-106.6959,-4.0243,-0.0109,-0.0476,-89.3572,0.0,-0.0244,2.1772,0.0009,-0.053,4.717,-0.0098,0.0073
131268,-106.6959,-4.0243,-0.0109,-0.0476,-89.3572,0.0,-0.0244,2.1772,0.0009,-0.053,4.717,-0.0098,0.0073
131284,-106.6959,-4.0243,-0.0109,-0.0476,-89.3572,0.0,-0.0244,2.1772,0.0009,-0.053,4.717,-0.0098,0.0073
131300,-106.6959,-4.0243,-0.0109,-0.0476,-89.3572,0.0,-0.0244,2.1772,0.0009,-0.053,4.717,-0.0098,0.0073
131323,-106.6986,-3.7825,-0.0107,-0.0688,-89.3556,0.0,-0.0308,2.7565,0.0004,-0.064,5.8306,-0.0048,0.4741
131332,-106.6986,-3.7825,-0.0107,-0.0688,-89.3556,0.0,-0.0308,2.7565,0.0004,-0.064,5.8306,-0.0048,0.4741
131348,-106.6986,-3.7825,-0.0107,-0.0688,-89.3556,0.0,-0.0308,2.7565,0.0004,-0.064,5.8306,-0.0048,0.4741
131364,-106.6986,-3.7825,-0.0107,-0.0688,-89.3556,0.0,-0.0308,2.7565,0.0004,-0.064,5.8306,-0.0048,0.4741
131380,-106.6986,-3.7825,-0.0107,-0.0688,-89.3556,0.0,-0.0308,2.7565,0.0004,-0.064,5.8306,-0.0048,0.4741
131396,-106.6986,-3.7825,-0.0107,-0.0688,-89.3556,0.0,-0.0308,2.7565,0.0004,-0.064,5.8306,-0.0048,0.4741
131412,-106.6986,-3.7825,-0.0107,-0.0688,-89.3556,0.0,-0.0308,2.7565,0.0004,-0.064,5.8306,-0.0048,0.4741
131428,-106.7019,-3.4837,-0.0106,-0.0759,-89.3654,-0.0002,-0.0359,3.2367,0.0002,-0.0475,4.4747,-0.0021,-2.2232
131444,-106.7019,-3.4837,-0.0106,-0.0759,-89.3654,-0.0002,-0.0359,3.2367,0.0002,-0.0475,4.4747,-0.0021,-2.2232
131460,-106.7019,-3.4837,-0.0106,-0.0759,-89.3654,-0.0002,-0.0359,3.2367,0.0002,-0.0475,4.4747,-0.0021,-2.2232
131476,-106.7019,-3.4837,-0.0106,-0.0759,-89.3654,-0.0002,-0.0359,3.2367,0.0002,-0.0475,4.4747,-0.0021,-2.2232
131492,-106.7019,-3.4837,-0.0106,-0.0759,-89.3654,-0.0002,-0.0359,3.2367,0.0002,-0.0475,4.4747,-0.0021,-2.2232
131508,-106.7019,-3.4837,-0.0106,-0.0759,-89.3654,-0.0002,-0.0359,3.2367,0.0002,-0.0475,4.4747,-0.0021,-2.2232
131530,-106.7048,-3.1317,-0.0105,-0.0907,-89.452,-0.0011,-0.0389,3.9611,0.0001,-0.0303,7.3428,-0.0012,-2.9529
131540,-106.7048,-3.1317,-0.0105,-0.0907,-89.452,-0.0011,-0.0389,3.9611,0.0001,-0.0303,7.3428,-0.0012,-2.9529
131556,-106.7048,-3.1317,-0.0105,-0.0907,-89.452,-0.0011,-0.0389,3.9611,0.0001,-0.0303,7.3428,-0.0012,-2.9529
131572,-106.7048,-3.1317,-0.0105,-0.0907,-89.452,-0.0011,-0.0389,3.9611,0.0001,-0.0303,7.3428,-0.0012,-2.9529
131588,-106.7048,-3.1317,-0.0105,-0.0907,-89.452,-0.0011,-0.0389,3.9611,0.0001,-0.0303,7.3428,-0.0012,-2.9529
131604,-106.7048,-3.1317,-0.0105,-0.0907,-89.452,-0.0011,-0.0389,3.9611,0.0001,-0.0303,7.3428,-0.0012,-2.9529
131620,-106.7048,-3.1317,-0.0105,-0.0907,-89.452,-0.0011,-0.0389,3.9611,0.0001,-0.0303,7.3428,-0.0012,-2.9529
131636,-106.7086,-2.6907,-0.0104,-0.1054,-89.4929,-0.0013,-0.0425,4.669,0.0001,-0.0345,6.6624,-0.0004,0.8646
131652,-106.7086,-2.6907,-0.0104,-0.1054,-89.4929,-0.0013,-0.0425,4.669,0.0001,-0.0345,6.6624,-0.0004,0.8646
131668,-106.7086,-2.6907,-0.0104,-0.1054,-89.4929,-0.0013,-0.0425,4.669,0.0001,-0.0345,6.6624,-0.0004,0.8646
131684,-106.7086,-2.6907,-0.0104,-0.1054,-89.4929,-0.0013,-0.0425,4.669,0.0001,-0.0345,6.6624,-0.0004,0.8646
131700,-106.7086,-2.6907,-0.0104,-0.1054,-89.4929,-0.0013,-0.0425,4.669,0.0001,-0.0345,6.6624,-0.0004,0.8646
131716,-106.7086,-2.6907,-0.0104,-0.1054,-89.4929,-0.0013,-0.0425,4.669,0.0001,-0.0345,6.6624,-0.0004,0.8646
131743,-106.7126,-2.1858,-0.0104,-0.1053,-89.5422,-0.0016,-0.0441,5.2684,0.0,-0.0144,5.5688,-0.0002,-1.9533
131748,-106.7126,-2.1858,-0.0104,-0.1053,-89.5422,-0.0016,-0.0441,5.2684,0.0,-0.0144,5.5688,-0.0002,-1.9533
131764,-106.7126,-2.1858,-0.0104,-0.1053,-89.5422,-0.0016,-0.0441,5.2684,0.0,-0.0144,5.5688,-0.0002,-1.9533
131780,-106.7126,-2.1858,-0.0104,-0.1053,-89.5422,-0.0016,-0.0441,5.2684,0.0,-0.0144,5.5688,-0.0002,-1.9533
131796,-106.7126,-2.1858,-0.0104,-0.1053,-89.5422,-0.0016,-0.0441,5.2684,0.0,-0.0144,5.5688,-0.0002,-1.9533
131812,-106.7126,-2.1858,-0.0104,-0.1053,-89.5422,-0.0016,-0.0441,5.2684,0.0,-0.0144,5.5688,-0.0002,-1.9533
131828,-106.7126,-2.1858,-0.0104,-0.1053,-89.5422,-0.0016,-0.0441,5.2684,0.0,-0.0144,5.5688,-0.0002,-1.9533
131849,-106.7173,-1.6216,-0.0104,-0.1019,-89.529,-0.0013,-0.0473,5.8801,0.0,-0.0299,5.7132,-0.0002,1.591
131860,-106.7173,-1.6216,-0.0104,-0.1019,-89.529,-0.0013,-0.0473,5.8801,0.0,-0.0299,5.7132,-0.0002,1.591
131876,-106.7173,-1.6216,-0.0104,-0.1019,-89.529,-0.0013,-0.0473,5.8801,0.0,-0.0299,5.7132,-0.0002,1.591
131892,-106.7173,-1.6216,-0.0104,-0.1019,-89.529,-0.0013,-0.0473,5.8801,0.0,-0.0299,5.7132,-0.0002,1.591
131908,-106.7173,-1.6216,-0.0104,-0.1019,-89.529,-0.0013,-0.0473,5.8801,0.0,-0.0299,5.7132,-0.0002,1.591
131924,-106.7173,-1.6216,-0.0104,-0.1019,-89.529,-0.0013,-0.0473,5.8801,0.0,-0.0299,5.7132,-0.0002,1.591
131944,-106.722,-0.9922,-0.0104,-0.1046,-89.559,-0.001,-0.0517,6.5682,-0.0,-0.0437,6.8562,-0.0002,-0.9969
131956,-106.722,-0.9922,-0.0104,-0.1046,-89.559,-0.001,-0.0517,6.5682,-0.0,-0.0437,6.8562,-0.0002,-0.9969
131972,-106.722,-0.9922,-0.0104,-0.1046,-89.559,-0.001,-0.0517,6.5682,-0.0,-0.0437,6.8562,-0.0002,-0.9969
131988,-106.722,-0.9922,-0.0104,-0.1046,-89.559,-0.001,-0.0517,6.5682,-0.0,-0.0437,6.8562,-0.0002,-0.9969
132004,-106.722,-0.9922,-0.0104,-0.1046,-89.559,-0.001,-0.0517,6.5682,-0.0,-0.0437,6.8562,-0.0002,-0.9969
132020,-106.722,-0.9922,-0.0104,-0.1046,-89.559,-0.001,-0.0517,6.5682,-0.0,-0.0437,6.8562,-0.0002,-0.9969
132036,-106.722,-0.9922,-0.0104,-0.1046,-89.559,-0.001,-0.0517,6.5682,-0.0,-0.0437,6.8562,-0.0002,-0.9969
132058,-106.7277,-0.2911,-0.0103,-0.1106,-89.5406,-0.0005,-0.058,7.3113,0.0,-0.0583,6.842,0.0001,0.4863
132068,-106.7277,-0.2911,-0.0103,-0.1106,-89.5406,-0.0005,-0.058,7.3113,0.0,-0.0583,6.842,0.0001,0.4863
132084,-106.7277,-0.2911,-0.0103,-0.1106,-89.5406,-0.0005,-0.058,7.3113,0.0,-0.0583,6.842,0.0001,0.4863
132100,-106.7277,-0.2911,-0.0103,-0.1106,-89.5406,-0.0005,-0.058,7.3113,0.0,-0.0583,6.842,0.0001,0.4863
132116,-106.7277,-0.2911,-0.0103,-0.1106,-89.5406,-0.0005,-0.058,7.3113,0.0,-0.0583,6.842,0.0001,0.4863
132132,-106.7277,-0.2911,-0.0103,-0.1106,-89.5406,-0.0005,-0.058,7.3113,0.0,-0.0583,6.842,0.0001,0.4863
132148,-106.7277,-0.2911,-0.0103,-0.1106,-89.5406,-0.0005,-0.058,7.3113,0.0,-0.0583,6.842,0.0001,0.4863
132164,-106.7337,0.4827,-0.0103,-0.1136,-89.5547,-0.0004,-0.0629,8.0177,-0.0,-0.0462,6.6346,-0.0001,-0.374
132180,-106.7337,0.4827,-0.0103,-0.1136,-89.5547,-0.0004,-0.0629,8.0177,-0.0,-0.0462,6.6346,-0.0001,-0.374
132196,-106.7337,0.4827,-0.0103,-0.1136,-89.5547,-0.0004,-0.0629,8.0177,-0.0,-0.0462,6.6346,-0.0001,-0.374
132212,-106.7337,0.4827,-0.0103,-0.1136,-89.5547,-0.0004,-0.0629,8.0177,-0.0,-0.0462,6.6346,-0.0001,-0.374
132228,-106.7337,0.4827,-0.0103,-0.1136,-89.5547,-0.0004,-0.0629,8.0177,-0.0,-0.0462,6.6346,-0.0001,-0.374
132244,-106.7337,0.4827,-0.0103,-0.1136,-89.5547,-0.0004,-0.0629,8.0177,-0.0,-0.0462,6.6346,-0.0001,-0.374
132264,-106.7404,1.3223,-0.0103,-0.1106,-89.5441,-0.0002,-0.0683,8.6518,0.0,-0.0512,5.9912,0.0001,0.2329
132276,-106.7404,1.3223,-0.0103,-0.1106,-89.5441,-0.0002,-0.0683,8.6518,0.0,-0.0512,5.9912,0.0001,0.2329
132292,-106.7404,1.3223,-0.0103,-0.1106,-89.5441,-0.0002,-0.0683,8.6518,0.0,-0.0512,5.9912,0.0001,0.2329
132308,-106.7404,1.3223,-0.0103,-0.1106,-89.5441,-0.0002,-0.0683,8.6518,0.0,-0.0512,5.9912,0.0001,0.2329
132324,-106.7404,1.3223,-0.0103,-0.1106,-89.5441,-0.0002,-0.0683,8.6518,0.0,-0.0512,5.9912,0.0001,0.2329
132340,-106.7404,1.3223,-0.0103,-0.1106,-89.5441,-0.0002,-0.0683,8.6518,0.0,-0.0512,5.9912,0.0001,0.2329
132360,-106.7404,1.3223,-0.0103,-0.1106,-89.5441,-0.0002,-0.0683,8.6518,0.0,-0.0512,5.9912,0.0001,0.2329
132372,-106.7475,2.2215,-0.0104,-0.1043,-89.5499,-0.0001,-0.0727,9.2234,0.0,-0.0425,5.624,0.0,-0.0975
132388,-106.7475,2.2215,-0.0104,-0.1043,-89.5499,-0.0001,-0.0727,9.2234,0.0,-0.0425,5.624,0.0,-0.0975
132404,-106.7475,2.2215,-0.0104,-0.1043,-89.5499,-0.0001,-0.0727,9.2234,0.0,-0.0425,5.624,0.0,-0.0975
132420,-106.7475,2.2215,-0.0104,-0.1043,-89.5499,-0.0001,-0.0727,9.2234,0.0,-0.0425,5.624,0.0,-0.0975
132436,-106.7475,2.2215,-0.0104,-0.1043,-89.5499,-0.0001,-0.0727,9.2234,0.0,-0.0425,5.624,0.0,-0.0975
132452,-106.7475,2.2215,-0.0104,-0.1043,-89.5499,-0.0001,-0.0727,9.2234,0.0,-0.0425,5.624,0.0,-0.0975
132473,-106.755,3.1744,-0.0104,-0.097,-89.548,-0.0001,-0.0769,9.7453,0.0,-0.0411,5.1128,0.0,0.0117
132484,-106.755,3.1744,-0.0104,-0.097,-89.548,-0.0001,-0.0769,9.7453,0.0,-0.0411,5.1128,0.0,0.0117
132500,-106.755,3.1744,-0.0104,-0.097,-89.548,-0.0001,-0.0769,9.7453,0.0,-0.0411,5.1128,0.0,0.0117
132516,-106.755,3.1744,-0.0104,-0.097,-89.548,-0.0001,-0.0769,9.7453,0.0,-0.0411,5.1128,0.0,0.0117
132532,-106.755,3.1744,-0.0104,-0.097,-89.548,-0.0001,-0.0769,9.7453,0.0,-0.0411,5.1128,0.0,0.0117
132548,-106.755,3.1744,-0.0104,-0.097,-89.548,-0.0001,-0.0769,9.7453,0.0,-0.0411,5.1128,0.0,0.0117
132564,-106.755,3.1744,-0.0104,-0.097,-89.548,-0.0001,-0.0769,9.7453,0.0,-0.0411,5.1128,0.0,0.0117
132580,-106.7629,4.1781,-0.0105,-0.091,-89.5482,-0.0,-0.0808,10.2497,-0.0,-0.0381,4.8411,-0.0002,-0.0001
132596,-106.7629,4.1781,-0.0105,-0.091,-89.5482,-0.0,-0.0808,10.2497,-0.0,-0.0381,4.8411,-0.0002,-0.0001
132612,-106.7629,4.1781,-0.0105,-0.091,-89.5482,-0.0,-0.0808,10.2497,-0.0,-0.0381,4.8411,-0.0002,-0.0001
132628,-106.7629,4.1781,-0.0105,-0.091,-89.5482,-0.0,-0.0808,10.2497,-0.0,-0.0381,4.8411,-0.0002,-0.0001
132644,-106.7629,4.1781,-0.0105,-0.091,-89.5482,-0.0,-0.0808,10.2497,-0.0,-0.0381,4.8411,-0.0002,-0.0001
132660,-106.7629,4.1781,-0.0105,-0.091,-89.5482,-0.0,-0.0808,10.2497,-0.0,-0.0381,4.8411,-0.0002,-0.0001
132681,-106.7712,5.2305,-0.0105,-0.0859,-89.5482,-0.0,-0.0845,10.7213,-0.0,-0.0346,4.3831,0.0,-0.0002
132692,-106.7712,5.2305,-0.0105,-0.0859,-89.5482,-0.0,-0.0845,10.7213,-0.0,-0.0346,4.3831,0.0,-0.0002
132708,-106.7712,5.2305,-0.0105,-0.0859,-89.5482,-0.0,-0.0845,10.7213,-0.0,-0.0346,4.3831,0.0,-0.0002
132724,-106.7712,5.2305,-0.0105,-0.0859,-89.5482,-0.0,-0.0845,10.7213,-0.0,-0.0346,4.3831,0.0,-0.0002
132740,-106.7712,5.2305,-0.0105,-0.0859,-89.5482,-0.0,-0.0845,10.7213,-0.0,-0.0346,4.3831,0.0,-0.0002
132756,-106.7712,5.2305,-0.0105,-0.0859,-89.5482,-0.0,-0.0845,10.7213,-0.0,-0.0346,4.3831,0.0,-0.0002
132772,-106.7712,5.2305,-0.0105,-0.0859,-89.5482,-0.0,-0.0845,10.7213,-0.0,-0.0346,4.3831,0.0,-0.0002
132788,-106.7798,6.3148,-0.0106,-0.0806,-89.5482,-0.0,-0.0879,11.1518,0.0,-0.0343,4.355,0.0002,-0.0
132804,-106.7798,6.3148,-0.0106,-0.0806,-89.5482,-0.0,-0.0879,11.1518,0.0,-0.0343,4.355,0.0002,-0.0
132820,-106.7798,6.3148,-0.0106,-0.0806,-89.5482,-0.0,-0.0879,11.1518,0.0,-0.0343,4.355,0.0002,-0.0
132836,-106.7798,6.3148,-0.0106,-0.0806,-89.5482,-0.0,-0.0879,11.1518,0.0,-0.0343,4.355,0.0002,-0.0
132852,-106.7798,6.3148,-0.0106,-0.0806,-89.5482,-0.0,-0.0879,11.1518,0.0,-0.0343,4.355,0.0002,-0.0
132868,-106.7798,6.3148,-0.0106,-0.0806,-89.5482,-0.0,-0.0879,11.1518,0.0,-0.0343,4.355,0.0002,-0.0
132889,-106.7887,7.4525,-0.0106,-0.0747,-89.5482,0.0,-0.091,11.5442,0.0,-0.0285,3.6164,-0.0001,-0.0002
132900,-106.7887,7.4525,-0.0106,-0.0747,-89.5482,0.0,-0.091,11.5442,0.0,-0.0285,3.6164,-0.0001,-0.0002
132916,-106.7887,7.4525,-0.0106,-0.0747,-89.5482,0.0,-0.091,11.5442,0.0,-0.0285,3.6164,-0.0001,-0.0002
132932,-106.7887,7.4525,-0.0106,-0.0747,-89.5482,0.0,-0.091,11.5442,0.0,-0.0285,3.6164,-0.0001,-0.0002
132948,-106.7887,7.4525,-0.0106,-0.0747,-89.5482,0.0,-0.091,11.5442,0.0,-0.0285,3.6164,-0.0001,-0.0002
132980,-106.7887,7.4525,-0.0106,-0.0747,-89.5482,0.0,-0.091,11.5442,0.0,-0.0285,3.6164,-0.0001,-0.0002
132996,-106.8279,8.6196,-0.0107,-0.0593,-90.9568,0.1249,-0.9292,11.7032,0.001,-8.1961,1.5551,0.0097,-30.7302
133012,-106.8279,8.6196,-0.0107,-0.0593,-90.9568,0.1249,-0.9292,11.7032,0.001,-8.1961,1.5551,0.0097,-30.7302
133028,-106.8279,8.6196,-0.0107,-0.0593,-90.9568,0.1249,-0.9292,11.7032,0.001,-8.1961,1.5551,0.0097,-30.7302
133044,-106.8279,8.6196,-0.0107,-0.0593,-90.9568,0.1249,-0.9292,11.7032,0.001,-8.1961,1.5551,0.0097,-30.7302
133060,-106.8279,8.6196,-0.0107,-0.0593,-90.9568,0.1249,-0.9292,11.7032,0.001,-8.1961,1.5551,0.0097,-30.7302
133076,-106.8279,8.6196,-0.0107,-0.0593,-90.9568,0.1249,-0.9292,11.7032,0.001,-8.1961,1.5551,0.0097,-30.7302
133097,-106.9345,9.7795,-0.0108,-0.0211,-96.6782,0.2628,-1.8881,11.5316,0.0011,-8.8997,-1.5924,0.0007,-80.616
133108,-106.9345,9.7795,-0.0108,-0.0211,-96.6782,0.2628,-1.8881,11.5316,0.0011,-8.8997,-1.5924,0.0007,-80.616
133124,-106.9345,9.7795,-0.0108,-0.0211,-96.6782,0.2628,-1.8881,11.5316,0.0011,-8.8997,-1.5924,0.0007,-80.616
133140,-106.9345,9.7795,-0.0108,-0.0211,-96.6782,0.2628,-1.8881,11.5316,0.0011,-8.8997,-1.5924,0.0007,-80.616
133156,-106.9345,9.7795,-0.0108,-0.0211,-96.6782,0.2628,-1.8881,11.5316,0.0011,-8.8997,-1.5924,0.0007,-80.616
133172,-106.9345,9.7795,-0.0108,-0.0211,-96.6782,0.2628,-1.8881,11.5316,0.0011,-8.8997,-1.5924,0.0007,-80.616
133192,-107.0714,10.8796,-0.011,0.0114,-107.5963,0.2626,-2.3478,11.3086,-0.0,-4.6942,-2.2773,-0.0113,-136.3306
133204,-107.0714,10.8796,-0.011,0.0114,-107.5963,0.2626,-2.3478,11.3086,-0.0,-4.6942,-2.2773,-0.0113,-136.3306
133220,-107.0714,10.8796,-0.011,0.0114,-107.5963,0.2626,-2.3478,11.3086,-0.0,-4.6942,-2.2773,-0.0113,-136.3306
133236,-107.0714,10.8796,-0.011,0.0114,-107.5963,0.2626,-2.3478,11.3086,-0.0,-4.6942,-2.2773,-0.0113,-136.3306
133252,-107.0714,10.8796,-0.011,0.0114,-107.5963,0.2626,-2.3478,11.3086,-0.0,-4.6942,-2.2773,-0.0113,-136.3306
133268,-107.0714,10.8796,-0.011,0.0114,-107.5963,0.2626,-2.3478,11.3086,-0.0,-4.6942,-2.2773,-0.0113,-136.3306
133284,-107.0714,10.8796,-0.011,0.0114,-107.5963,0.2626,-2.3478,11.3086,-0.0,-4.6942,-2.2773,-0.0113,-136.3306
133300,-107.1798,11.9396,-0.011,-0.0051,-123.8928,0.1106,-1.8453,11.2923,-0.0012,5.0946,-0.1658,-0.0121,-183.6616
133316,-107.1798,11.9396,-0.011,-0.0051,-123.8928,0.1106,-1.8453,11.2923,-0.0012,5.0946,-0.1658,-0.0121,-183.6616
133332,-107.1798,11.9396,-0.011,-0.0051,-123.8928,0.1106,-1.8453,11.2923,-0.0012,5.0946,-0.1658,-0.0121,-183.6616
133348,-107.1798,11.9396,-0.011,-0.0051,-123.8928,0.1106,-1.8453,11.2923,-0.0012,5.0946,-0.1658,-0.0121,-183.6616
133364,-107.1798,11.9396,-0.011,-0.0051,-123.8928,0.1106,-1.8453,11.2923,-0.0012,5.0946,-0.1658,-0.0121,-183.6616
133380,-107.1798,11.9396,-0.011,-0.0051,-123.8928,0.1106,-1.8453,11.2923,-0.0012,5.0946,-0.1658,-0.0121,-183.6616
133396,-107.1649,12.9485,-0.0103,-0.1033,-143.079,-0.1591,-0.006,11.2889,0.0009,18.8379,-0.0346,0.0218,-203.9818
133412,-107.1649,12.9485,-0.0103,-0.1033,-143.079,-0.1591,-0.006,11.2889,0.0009,18.8379,-0.0346,0.0218,-203.9818
133428,-107.1649,12.9485,-0.0103,-0.1033,-143.079,-0.1591,-0.006,11.2889,0.0009,18.8379,-0.0346,0.0218,-203.9818
133444,-107.1649,12.9485,-0.0103,-0.1033,-143.079,-0.1591,-0.006,11.2889,0.0009,18.8379,-0.0346,0.0218,-203.9818
133460,-107.1649,12.9485,-0.0103,-0.1033,-143.079,-0.1591,-0.006,11.2889,0.0009,18.8379,-0.0346,0.0218,-203.9818
133476,-107.1649,12.9485,-0.0103,-0.1033,-143.079,-0.1591,-0.006,11.2889,0.0009,18.8379,-0.0346,0.0218,-203.9818
133492,-107.1649,12.9485,-0.0103,-0.1033,-143.079,-0.1591,-0.006,11.2889,0.0009,18.8379,-0.0346,0.0218,-203.9818
133508,-106.9689,13.907,-0.0093,-0.2155,-164.0253,-0.4051,2.3257,10.5844,0.002,21.9393,-6.6282,0.0107,-213.2173
133524,-106.9689,13.907,-0.0093,-0.2155,-164.0253,-0.4051,2.3257,10.5844,0.002,21.9393,-6.6282,0.0107,-213.2173
133540,-106.9689,13.907,-0.0093,-0.2155,-164.0253,-0.4051,2.3257,10.5844,0.002,21.9393,-6.6282,0.0107,-213.2173
133556,-106.9689,13.907,-0.0093,-0.2155,-164.0253,-0.4051,2.3257,10.5844,0.002,21.9393,-6.6282,0.0107,-213.2173
133588,-106.9689,13.907,-0.0093,-0.2155,-164.0253,-0.4051,2.3257,10.5844,0.002,21.9393,-6.6282,0.0107,-213.2173
133609,-106.6308,14.6998,-0.0087,-0.2675,174.5835,-0.6631,3.74,8.43,0.0023,13.6819,-20.8425,0.0025,-212.5905
133620,-106.6308,14.6998,-0.0087,-0.2675,174.5835,-0.6631,3.74,8.43,0.0023,13.6819,-20.8425,0.0025,-212.5905
133636,-106.6308,14.6998,-0.0087,-0.2675,174.5835,-0.6631,3.74,8.43,0.0023,13.6819,-20.8425,0.0025,-212.5905
133652,-106.6308,14.6998,-0.0087,-0.2675,174.5835,-0.6631,3.74,8.43,0.0023,13.6819,-20.8425,0.0025,-212.5905
133668,-106.6308,14.6998,-0.0087,-0.2675,174.5835,-0.6631,3.74,8.43,0.0023,13.6819,-20.8425,0.0025,-212.5905
133684,-106.6308,14.6998,-0.0087,-0.2675,174.5835,-0.6631,3.74,8.43,0.0023,13.6819,-20.8425,0.0025,-212.5905
133705,-106.3438,15.2705,-0.0092,-0.1947,154.9193,-0.8629,2.5565,6.3849,-0.0032,-12.0094,-20.7527,-0.0556,-186.8341
133716,-106.3438,15.2705,-0.0092,-0.1947,154.9193,-0.8629,2.5565,6.3849,-0.0032,-12.0094,-20.7527,-0.0556,-186.8341
133732,-106.3438,15.2705,-0.0092,-0.1947,154.9193,-0.8629,2.5565,6.3849,-0.0032,-12.0094,-20.7527,-0.0556,-186.8341
133748,-106.3438,15.2705,-0.0092,-0.1947,154.9193,-0.8629,2.5565,6.3849,-0.0032,-12.0094,-20.7527,-0.0556,-186.8341
133764,-106.3438,15.2705,-0.0092,-0.1947,154.9193,-0.8629,2.5565,6.3849,-0.0032,-12.0094,-20.7527,-0.0556,-186.8341
133780,-106.3438,15.2705,-0.0092,-0.1947,154.9193,-0.8629,2.5565,6.3849,-0.0032,-12.0094,-20.7527,-0.0556,-186.8341
133801,-106.2809,15.7305,-0.0101,-0.0391,138.9266,-0.9247,0.3372,5.8107,0.0013,-23.4862,-6.0767,0.0477,-148.0061
133812,-106.2809,15.7305,-0.0101,-0.0391,138.9266,-0.9247,0.3372,5.8107,0.0013,-23.4862,-6.0767,0.0477,-148.0061
133828,-106.2809,15.7305,-0.0101,-0.0391,138.9266,-0.9247,0.3372,5.8107,0.0013,-23.4862,-6.0767,0.0477,-148.0061
133844,-106.2809,15.7305,-0.0101,-0.0391,138.9266,-0.9247,0.3372,5.8107,0.0013,-23.4862,-6.0767,0.0477,-148.0061
133860,-106.2809,15.7305,-0.0101,-0.0391,138.9266,-0.9247,0.3372,5.8107,0.0013,-23.4862,-6.0767,0.0477,-148.0061
133876,-106.2809,15.7305,-0.0101,-0.0391,138.9266,-0.9247,0.3372,5.8107,0.0013,-23.4862,-6.0767,0.0477,-148.0061
133896,-106.4339,16.2899,-0.0115,0.1376,127.1924,-0.768,-1.7276,6.7308,-0.0009,-20.9858,9.3516,-0.0232,-98.0871
133908,-106.4339,16.2899,-0.0115,0.1376,127.1924,-0.768,-1.7276,6.7308,-0.0009,-20.9858,9.3516,-0.0232,-98.0871
133924,-106.4339,16.2899,-0.0115,0.1376,127.1924,-0.768,-1.7276,6.7308,-0.0009,-20.9858,9.3516,-0.0232,-98.0871
133940,-106.4339,16.2899,-0.0115,0.1376,127.1924,-0.768,-1.7276,6.7308,-0.0009,-20.9858,9.3516,-0.0232,-98.0871
133956,-106.4339,16.2899,-0.0115,0.1376,127.1924,-0.768,-1.7276,6.7308,-0.0009,-20.9858,9.3516,-0.0232,-98.0871
133972,-106.4339,16.2899,-0.0115,0.1376,127.1924,-0.768,-1.7276,6.7308,-0.0009,-20.9858,9.3516,-0.0232,-98.0871
133993,-106.6711,16.9553,-0.0121,0.2005,118.7212,-0.4344,-1.8963,7.7197,-0.0026,-1.7663,10.3542,-0.0172,-86.4686
134004,-106.6711,16.9553,-0.0121,0.2005,118.7212,-0.4344,-1.8963,7.7197,-0.0026,-1.7663,10.3542,-0.0172,-86.4686
134020,-106.6711,16.9553,-0.0121,0.2005,118.7212,-0.4344,-1.8963,7.7197,-0.0026,-1.7663,10.3542,-0.0172,-86.4686
134036,-106.6711,16.9553,-0.0121,0.2005,118.7212,-0.4344,-1.8963,7.7197,-0.0026,-1.7663,10.3542,-0.0172,-86.4686
134052,-106.6711,16.9553,-0.0121,0.2005,118.7212,-0.4344,-1.8963,7.7197,-0.0026,-1.7663,10.3542,-0.0172,-86.4686
134068,-106.6711,16.9553,-0.0121,0.2005,118.7212,-0.4344,-1.8963,7.7197,-0.0026,-1.7663,10.3542,-0.0172,-86.4686
134100,-106.8677,17.7044,-0.0123,0.1824,110.6031,-0.0827,-1.1591,8.4389,-0.0031,7.7601,7.5703,-0.005,-86.7582
134116,-106.8677,17.7044,-0.0123,0.1824,110.6031,-0.0827,-1.1591,8.4389,-0.0031,7.7601,7.5703,-0.005,-86.7582
134132,-106.8677,17.7044,-0.0123,0.1824,110.6031,-0.0827,-1.1591,8.4389,-0.0031,7.7601,7.5703,-0.005,-86.7582
134148,-106.8677,17.7044,-0.0123,0.1824,110.6031,-0.0827,-1.1591,8.4389,-0.0031,7.7601,7.5703,-0.005,-86.7582
134164,-106.8677,17.7044,-0.0123,0.1824,110.6031,-0.0827,-1.1591,8.4389,-0.0031,7.7601,7.5703,-0.005,-86.7582
134184,-107.0292,18.5418,-0.0123,0.1516,104.0681,-0.0116,-1.4949,8.8691,-0.0012,-3.4426,4.4097,0.0189,-43.2978
134196,-107.0292,18.5418,-0.0123,0.1516,104.0681,-0.0116,-1.4949,8.8691,-0.0012,-3.4426,4.4097,0.0189,-43.2978
134212,-107.0292,18.5418,-0.0123,0.1516,104.0681,-0.0116,-1.4949,8.8691,-0.0012,-3.4426,4.4097,0.0189,-43.2978
134228,-107.0292,18.5418,-0.0123,0.1516,104.0681,-0.0116,-1.4949,8.8691,-0.0012,-3.4426,4.4097,0.0189,-43.2978
134244,-107.0292,18.5418,-0.0123,0.1516,104.0681,-0.0116,-1.4949,8.8691,-0.0012,-3.4426,4.4097,0.0189,-43.2978
134260,-107.0292,18.5418,-0.0123,0.1516,104.0681,-0.0116,-1.4949,8.8691,-0.0012,-3.4426,4.4097,0.0189,-43.2978
134281,-107.2162,19.4072,-0.012,0.1081,101.94,-0.0831,-1.8652,8.991,0.0006,-3.8059,1.2536,0.0186,-11.9782
134292,-107.2162,19.4072,-0.012,0.1081,101.94,-0.0831,-1.8652,8.991,0.0006,-3.8059,1.2536,0.0186,-11.9782
134308,-107.2162,19.4072,-0.012,0.1081,101.94,-0.0831,-1.8652,8.991,0.0006,-3.8059,1.2536,0.0186,-11.9782
134324,-107.2162,19.4072,-0.012,0.1081,101.94,-0.0831,-1.8652,8.991,0.0006,-3.8059,1.2536,0.0186,-11.9782
134340,-107.2162,19.4072,-0.012,0.1081,101.94,-0.0831,-1.8652,8.991,0.0006,-3.8059,1.2536,0.0186,-11.9782
134356,-107.2162,19.4072,-0.012,0.1081,101.94,-0.0831,-1.8652,8.991,0.0006,-3.8059,1.2536,0.0186,-11.9782
134372,-107.2162,19.4072,-0.012,0.1081,101.94,-0.0831,-1.8652,8.991,0.0006,-3.8059,1.2536,0.0186,-11.9782
134388,-107.4071,20.3081,-0.0117,0.0706,101.3694,-0.0544,-1.8729,9.1014,0.0,-0.0772,1.1078,-0.0058,-3.8849
134404,-107.4071,20.3081,-0.0117,0.0706,101.3694,-0.0544,-1.8729,9.1014,0.0,-0.0772,1.1078,-0.0058,-3.8849
134420,-107.4071,20.3081,-0.0117,0.0706,101.3694,-0.0544,-1.8729,9.1014,0.0,-0.0772,1.1078,-0.0058,-3.8849
134436,-107.4071,20.3081,-0.0117,0.0706,101.3694,-0.0544,-1.8729,9.1014,0.0,-0.0772,1.1078,-0.0058,-3.8849
134452,-107.4071,20.3081,-0.0117,0.0706,101.3694,-0.0544,-1.8729,9.1014,0.0,-0.0772,1.1078,-0.0058,-3.8849
134468,-107.4071,20.3081,-0.0117,0.0706,101.3694,-0.0544,-1.8729,9.1014,0.0,-0.0772,1.1078,-0.0058,-3.8849
134484,-107.594,21.2229,-0.0115,0.0461,101.2141,-0.024,-1.8513,9.1905,-0.0001,0.2132,0.8808,-0.0016,-1.7296
134500,-107.594,21.2229,-0.0115,0.0461,101.2141,-0.024,-1.8513,9.1905,-0.0001,0.2132,0.8808,-0.0016,-1.7296
134516,-107.594,21.2229,-0.0115,0.0461,101.2141,-0.024,-1.8513,9.1905,-0.0001,0.2132,0.8808,-0.0016,-1.7296
134532,-107.594,21.2229,-0.0115,0.0461,101.2141,-0.024,-1.8513,9.1905,-0.0001,0.2132,0.8808,-0.0016,-1.7296
134548,-107.594,21.2229,-0.0115,0.0461,101.2141,-0.024,-1.8513,9.1905,-0.0001,0.2132,0.8808,-0.0016,-1.7296
134564,-107.594,21.2229,-0.0115,0.0461,101.2141,-0.024,-1.8513,9.1905,-0.0001,0.2132,0.8808,-0.0016,-1.7296
134580,-107.7758,22.1313,-0.0114,0.0317,101.1717,-0.0089,-1.8447,9.2694,-0.0001,0.0666,0.8015,0.0007,-1.0958
134596,-107.7758,22.1313,-0.0114,0.0317,101.1717,-0.0089,-1.8447,9.2694,-0.0001,0.0666,0.8015,0.0007,-1.0958
134612,-107.7758,22.1313,-0.0114,0.0317,101.1717,-0.0089,-1.8447,9.2694,-0.0001,0.0666,0.8015,0.0007,-1.0958
134628,-107.7758,22.1313,-0.0114,0.0317,101.1717,-0.0089,-1.8447,9.2694,-0.0001,0.0666,0.8015,0.0007,-1.0958
134644,-107.7758,22.1313,-0.0114,0.0317,101.1717,-0.0089,-1.8447,9.2694,-0.0001,0.0666,0.8015,0.0007,-1.0958
134660,-107.7758,22.1313,-0.0114,0.0317,101.1717,-0.0089,-1.8447,9.2694,-0.0001,0.0666,0.8015,0.0007,-1.0958
134686,-107.9581,23.0501,-0.0113,0.023,101.1596,-0.0027,-1.8482,9.337,-0.0,-0.0352,0.6851,0.0005,-0.9287
134692,-107.9581,23.0501,-0.0113,0.023,101.1596,-0.0027,-1.8482,9.337,-0.0,-0.0352,0.6851,0.0005,-0.9287
134708,-107.9581,23.0501,-0.0113,0.023,101.1596,-0.0027,-1.8482,9.337,-0.0,-0.0352,0.6851,0.0005,-0.9287
134724,-107.9581,23.0501,-0.0113,0.023,101.1596,-0.0027,-1.8482,9.337,-0.0,-0.0352,0.6851,0.0005,-0.9287
134740,-107.9581,23.0501,-0.0113,0.023,101.1596,-0.0027,-1.8482,9.337,-0.0,-0.0352,0.6851,0.0005,-0.9287
134756,-107.9581,23.0501,-0.0113,0.023,101.1596,-0.0027,-1.8482,9.337,-0.0,-0.0352,0.6851,0.0005,-0.9287
134772,-107.9581,23.0501,-0.0113,0.023,101.1596,-0.0027,-1.8482,9.337,-0.0,-0.0352,0.6851,0.0005,-0.9287
134792,-108.1433,23.9871,-0.0113,0.0176,101.156,-0.0005,-1.856,9.3967,0.0,-0.0721,0.5523,0.0004,-0.9008
134804,-108.1433,23.9871,-0.0113,0.0176,101.156,-0.0005,-1.856,9.3967,0.0,-0.0721,0.5523,0.0004,-0.9008
134820,-108.1433,23.9871,-0.0113,0.0176,101.156,-0.0005,-1.856,9.3967,0.0,-0.0721,0.5523,0.0004,-0.9008
134836,-108.1433,23.9871,-0.0113,0.0176,101.156,-0.0005,-1.856,9.3967,0.0,-0.0721,0.5523,0.0004,-0.9008
134852,-108.1433,23.9871,-0.0113,0.0176,101.156,-0.0005,-1.856,9.3967,0.0,-0.0721,0.5523,0.0004,-0.9008
134868,-108.1433,23.9871,-0.0113,0.0176,101.156,-0.0005,-1.856,9.3967,0.0,-0.0721,0.5523,0.0004,-0.9008
134884,-108.1433,23.9871,-0.0113,0.0176,101.156,-0.0005,-1.856,9.3967,0.0,-0.0721,0.5523,0.0004,-0.9008
134900,-108.3294,24.9299,-0.0113,0.0144,101.1549,0.0001,-1.866,9.4551,0.0,-0.0912,0.532,-0.0,-0.8784
134916,-108.3294,24.9299,-0.0113,0.0144,101.1549,0.0001,-1.866,9.4551,0.0,-0.0912,0.532,-0.0,-0.8784
134932,-108.3294,24.9299,-0.0113,0.0144,101.1549,0.0001,-1.866,9.4551,0.0,-0.0912,0.532,-0.0,-0.8784
134948,-108.3294,24.9299,-0.0113,0.0144,101.1549,0.0001,-1.866,9.4551,0.0,-0.0912,0.532,-0.0,-0.8784
134964,-108.3294,24.9299,-0.0113,0.0144,101.1549,0.0001,-1.866,9.4551,0.0,-0.0912,0.532,-0.0,-0.8784
134980,-108.3294,24.9299,-0.0113,0.0144,101.1549,0.0001,-1.866,9.4551,0.0,-0.0912,0.532,-0.0,-0.8784
134996,-108.3294,24.9299,-0.0113,0.0144,101.1549,0.0001,-1.866,9.4551,0.0,-0.0912,0.532,-0.0,-0.8784
135012,-108.5166,25.8786,-0.0113,0.0132,101.1545,-0.0007,-1.8767,9.5121,-0.0007,-0.0974,0.5181,-0.0068,-0.8791
135028,-108.5166,25.8786,-0.0113,0.0132,101.1545,-0.0007,-1.8767,9.5121,-0.0007,-0.0974,0.5181,-0.0068,-0.8791
135044,-108.5166,25.8786,-0.0113,0.0132,101.1545,-0.0007,-1.8767,9.5121,-0.0007,-0.0974,0.5181,-0.0068,-0.8791
135060,-108.5166,25.8786,-0.0113,0.0132,101.1545,-0.0007,-1.8767,9.5121,-0.0007,-0.0974,0.5181,-0.0068,-0.8791
135076,-108.5166,25.8786,-0.0113,0.0132,101.1545,-0.0007,-1.8767,9.5121,-0.0007,-0.0974,0.5181,-0.0068,-0.8791
135092,-108.5166,25.8786,-0.0113,0.0132,101.1545,-0.0007,-1.8767,9.5121,-0.0007,-0.0974,0.5181,-0.0068,-0.8791
135108,-108.7049,26.8329,-0.0112,0.0116,101.1545,0.0001,-1.8876,9.5686,0.0,-0.1074,0.5565,0.0074,-0.8562
135124,-108.7049,26.8329,-0.0112,0.0116,101.1545,0.0001,-1.8876,9.5686,0.0,-0.1074,0.5565,0.0074,-0.8562
135140,-108.7049,26.8329,-0.0112,0.0116,101.1545,0.0001,-1.8876,9.5686,0.0,-0.1074,0.5565,0.0074,-0.8562
135156,-108.7049,26.8329,-0.0112,0.0116,101.1545,0.0001,-1.8876,9.5686,0.0,-0.1074,0.5565,0.0074,-0.8562
135172,-108.7049,26.8329,-0.0112,0.0116,101.1545,0.0001,-1.8876,9.5686,0.0,-0.1074,0.5565,0.0074,-0.8562
135188,-108.7049,26.8329,-0.0112,0.0116,101.1545,0.0001,-1.8876,9.5686,0.0,-0.1074,0.5565,0.0074,-0.8562
135209,-108.8942,27.7924,-0.0112,0.0108,101.1545,0.0001,-1.8984,9.6237,0.0,-0.1081,0.5516,-0.0001,-0.8467
135220,-108.8942,27.7924,-0.0112,0.0108,101.1545,0.0001,-1.8984,9.6237,0.0,-0.1081,0.5516,-0.0001,-0.8467
135236,-108.8942,27.7924,-0.0112,0.0108,101.1545,0.0001,-1.8984,9.6237,0.0,-0.1081,0.5516,-0.0001,-0.8467
135252,-108.8942,27.7924,-0.0112,0.0108,101.1545,0.0001,-1.8984,9.6237,0.0,-0.1081,0.5516,-0.0001,-0.8467
135268,-108.8942,27.7924,-0.0112,0.0108,101.1545,0.0001,-1.8984,9.6237,0.0,-0.1081,0.5516,-0.0001,-0.8467
135284,-108.8942,27.7924,-0.0112,0.0108,101.1545,0.0001,-1.8984,9.6237,0.0,-0.1081,0.5516,-0.0001,-0.8467
