timestamp,x,y,z,pitch,yaw,roll,vx,vy,vz,ax,ay,az,yaw_rate
86573,-106.6867,-4.8475,-0.048,0.0,-89.3578,0.0,0.0,-0.0,0.2103,0.0,-0.0,0.0313,-0.0
86592,-106.6867,-4.8475,-0.048,0.0,-89.3578,0.0,0.0,-0.0,0.2103,0.0,-0.0,0.0313,-0.0
86608,-106.6867,-4.8475,-0.048,0.0,-89.3578,0.0,0.0,-0.0,0.2103,0.0,-0.0,0.0313,-0.0
86624,-106.6867,-4.8475,-0.048,0.0,-89.3578,0.0,0.0,-0.0,0.2103,0.0,-0.0,0.0313,-0.0
86643,-106.6867,-4.8475,-0.048,0.0,-89.3578,0.0,0.0,-0.0,0.2103,0.0,-0.0,0.0313,-0.0
86656,-106.6867,-4.8475,-0.048,0.0,-89.3578,0.0,0.0,-0.0,0.2103,0.0,-0.0,0.0313,-0.0
86672,-106.6867,-4.8475,-0.0311,0.0,-89.3578,0.0,-0.0,0.0,0.1349,-0.0,0.0,-0.4308,0.0
86688,-106.6867,-4.8475,-0.0311,0.0,-89.3578,0.0,-0.0,0.0,0.1349,-0.0,0.0,-0.4308,0.0
86704,-106.6867,-4.8475,-0.0311,0.0,-89.3578,0.0,-0.0,0.0,0.1349,-0.0,0.0,-0.4308,0.0
86720,-106.6867,-4.8475,-0.0212,0.0,-89.3578,0.0,0.0,0.0,0.0736,0.0,0.0,-0.4,0.0
86736,-106.6867,-4.8475,-0.0212,0.0,-89.3578,0.0,0.0,0.0,0.0736,0.0,0.0,-0.4,0.0
86752,-106.6867,-4.8475,-0.0212,0.0,-89.3578,0.0,0.0,0.0,0.0736,0.0,0.0,-0.4,0.0
86768,-106.6867,-4.8475,-0.0212,0.0,-89.3578,0.0,0.0,0.0,0.0736,0.0,0.0,-0.4,0.0
86784,-106.6867,-4.8475,-0.0212,0.0,-89.3578,0.0,0.0,0.0,0.0736,0.0,0.0,-0.4,0.0
86803,-106.6867,-4.8456,-0.0163,-0.0016,-89.3578,0.0,-0.0005,0.0403,0.0393,-0.0049,0.4394,-0.3739,0.0001
86816,-106.6867,-4.8456,-0.0163,-0.0016,-89.3578,0.0,-0.0005,0.0403,0.0393,-0.0049,0.4394,-0.3739,0.0001
86832,-106.6867,-4.8456,-0.0163,-0.0016,-89.3578,0.0,-0.0005,0.0403,0.0393,-0.0049,0.4394,-0.3739,0.0001
86848,-106.6867,-4.8456,-0.0163,-0.0016,-89.3578,0.0,-0.0005,0.0403,0.0393,-0.0049,0.4394,-0.3739,0.0001
86864,-106.6867,-4.8456,-0.0163,-0.0016,-89.3578,0.0,-0.0005,0.0403,0.0393,-0.0049,0.4394,-0.3739,0.0001
86880,-106.6867,-4.8456,-0.0163,-0.0016,-89.3578,0.0,-0.0005,0.0403,0.0393,-0.0049,0.4394,-0.3739,0.0001
86896,-106.6867,-4.8429,-0.0137,-0.0023,-89.3578,0.0,-0.001,0.0937,0.0193,-0.0062,0.5588,-0.2094,-0.0016
86912,-106.6867,-4.8429,-0.0137,-0.0023,-89.3578,0.0,-0.001,0.0937,0.0193,-0.0062,0.5588,-0.2094,-0.0016
86928,-106.6867,-4.8429,-0.0137,-0.0023,-89.3578,0.0,-0.001,0.0937,0.0193,-0.0062,0.5588,-0.2094,-0.0016
86944,-106.6867,-4.8429,-0.0137,-0.0023,-89.3578,0.0,-0.001,0.0937,0.0193,-0.0062,0.5588,-0.2094,-0.0016
86960,-106.6867,-4.8429,-0.0137,-0.0023,-89.3578,0.0,-0.001,0.0937,0.0193,-0.0062,0.5588,-0.2094,-0.0016
86976,-106.6867,-4.8429,-0.0137,-0.0023,-89.3578,0.0,-0.001,0.0937,0.0193,-0.0062,0.5588,-0.2094,-0.0016
86995,-106.6871,-4.8136,-0.0122,-0.0238,-89.3557,0.0,-0.0058,0.507,0.0089,-0.0463,4.0142,-0.101,0.0433
87008,-106.6871,-4.8136,-0.0122,-0.0238,-89.3557,0.0,-0.0058,0.507,0.0089,-0.0463,4.0142,-0.101,0.0433
87024,-106.6871,-4.8136,-0.0122,-0.0238,-89.3557,0.0,-0.0058,0.507,0.0089,-0.0463,4.0142,-0.101,0.0433
87040,-106.6871,-4.8136,-0.0122,-0.0238,-89.3557,0.0,-0.0058,0.507,0.0089,-0.0463,4.0142,-0.101,0.0433
87056,-106.6871,-4.8136,-0.0122,-0.0238,-89.3557,0.0,-0.0058,0.507,0.0089,-0.0463,4.0142,-0.101,0.0433
87072,-106.6871,-4.8136,-0.0122,-0.0238,-89.3557,0.0,-0.0058,0.507,0.0089,-0.0463,4.0142,-0.101,0.0433
87088,-106.6871,-4.8136,-0.0122,-0.0238,-89.3557,0.0,-0.0058,0.507,0.0089,-0.0463,4.0142,-0.101,0.0433
87104,-106.6879,-4.7364,-0.0115,-0.0481,-89.3564,0.0,-0.0111,0.982,0.0042,-0.0532,4.8178,-0.048,-0.0054
87120,-106.6879,-4.7364,-0.0115,-0.0481,-89.3564,0.0,-0.0111,0.982,0.0042,-0.0532,4.8178,-0.048,-0.0054
87136,-106.6879,-4.7364,-0.0115,-0.0481,-89.3564,0.0,-0.0111,0.982,0.0042,-0.0532,4.8178,-0.048,-0.0054
87152,-106.6879,-4.7364,-0.0115,-0.0481,-89.3564,0.0,-0.0111,0.982,0.0042,-0.0532,4.8178,-0.048,-0.0054
87168,-106.6879,-4.7364,-0.0115,-0.0481,-89.3564,0.0,-0.0111,0.982,0.0042,-0.0532,4.8178,-0.048,-0.0054
87188,-106.6879,-4.7364,-0.0115,-0.0481,-89.3564,0.0,-0.0111,0.982,0.0042,-0.0532,4.8178,-0.048,-0.0054
87200,-106.6884,-4.6291,-0.0109,-0.0495,-89.4114,-0.0016,0.0008,1.2177,0.0046,0.1144,2.278,0.0038,-4.5382
87216,-106.6884,-4.6291,-0.0109,-0.0495,-89.4114,-0.0016,0.0008,1.2177,0.0046,0.1144,2.278,0.0038,-4.5382
87232,-106.6884,-4.6291,-0.0109,-0.0495,-89.4114,-0.0016,0.0008,1.2177,0.0046,0.1144,2.278,0.0038,-4.5382
87248,-106.6884,-4.6291,-0.0109,-0.0495,-89.4114,-0.0016,0.0008,1.2177,0.0046,0.1144,2.278,0.0038,-4.5382
87264,-106.6884,-4.6291,-0.0109,-0.0495,-89.4114,-0.0016,0.0008,1.2177,0.0046,0.1144,2.278,0.0038,-4.5382
87280,-106.6884,-4.6291,-0.0109,-0.0495,-89.4114,-0.0016,0.0008,1.2177,0.0046,0.1144,2.278,0.0038,-4.5382
87296,-106.6884,-4.6291,-0.0109,-0.0495,-89.4114,-0.0016,0.0008,1.2177,0.0046,0.1144,2.278,0.0038,-4.5382
87312,-106.6895,-4.5095,-0.0109,-0.0335,-89.4471,0.0005,-0.0165,1.1888,0.0005,-0.1727,-0.2897,-0.0411,-1.7075
87328,-106.6895,-4.5095,-0.0109,-0.0335,-89.4471,0.0005,-0.0165,1.1888,0.0005,-0.1727,-0.2897,-0.0411,-1.7075
87344,-106.6895,-4.5095,-0.0109,-0.0335,-89.4471,0.0005,-0.0165,1.1888,0.0005,-0.1727,-0.2897,-0.0411,-1.7075
87360,-106.6895,-4.5095,-0.0109,-0.0335,-89.4471,0.0005,-0.0165,1.1888,0.0005,-0.1727,-0.2897,-0.0411,-1.7075
87376,-106.6895,-4.5095,-0.0109,-0.0335,-89.4471,0.0005,-0.0165,1.1888,0.0005,-0.1727,-0.2897,-0.0411,-1.7075
87392,-106.6895,-4.5095,-0.0109,-0.0335,-89.4471,0.0005,-0.0165,1.1888,0.0005,-0.1727,-0.2897,-0.0411,-1.7075
87415,-106.692,-4.389,-0.0109,-0.022,-89.3548,0.0012,-0.0225,1.3162,-0.0002,-0.0526,1.1043,-0.0059,1.4413
87424,-106.692,-4.389,-0.0109,-0.022,-89.3548,0.0012,-0.0225,1.3162,-0.0002,-0.0526,1.1043,-0.0059,1.4413
87440,-106.692,-4.389,-0.0109,-0.022,-89.3548,0.0012,-0.0225,1.3162,-0.0002,-0.0526,1.1043,-0.0059,1.4413
87456,-106.692,-4.389,-0.0109,-0.022,-89.3548,0.0012,-0.0225,1.3162,-0.0002,-0.0526,1.1043,-0.0059,1.4413
87472,-106.692,-4.389,-0.0109,-0.022,-89.3548,0.0012,-0.0225,1.3162,-0.0002,-0.0526,1.1043,-0.0059,1.4413
87488,-106.692,-4.389,-0.0109,-0.022,-89.3548,0.0012,-0.0225,1.3162,-0.0002,-0.0526,1.1043,-0.0059,1.4413
87504,-106.692,-4.389,-0.0109,-0.022,-89.3548,0.0012,-0.0225,1.3162,-0.0002,-0.0526,1.1043,-0.0059,1.4413
87520,-106.692,-4.389,-0.0109,-0.022,-89.3548,0.0012,-0.0225,1.3162,-0.0002,-0.0526,1.1043,-0.0059,1.4413
87539,-106.692,-4.389,-0.0109,-0.022,-89.3548,0.0012,-0.0225,1.3162,-0.0002,-0.0526,1.1043,-0.0059,1.4413
87552,-106.6931,-4.2353,-0.0108,-0.041,-89.3931,-0.0016,-0.0125,1.8162,-0.0002,0.0742,3.7125,-0.0001,4.2507
87568,-106.6931,-4.2353,-0.0108,-0.041,-89.3931,-0.0016,-0.0125,1.8162,-0.0002,0.0742,3.7125,-0.0001,4.2507
87584,-106.6931,-4.2353,-0.0108,-0.041,-89.3931,-0.0016,-0.0125,1.8162,-0.0002,0.0742,3.7125,-0.0001,4.2507
87600,-106.6931,-4.2353,-0.0108,-0.041,-89.3931,-0.0016,-0.0125,1.8162,-0.0002,0.0742,3.7125,-0.0001,4.2507
87616,-106.6931,-4.2353,-0.0108,-0.041,-89.3931,-0.0016,-0.0125,1.8162,-0.0002,0.0742,3.7125,-0.0001,4.2507
87632,-106.6931,-4.2353,-0.0108,-0.041,-89.3931,-0.0016,-0.0125,1.8162,-0.0002,0.0742,3.7125,-0.0001,4.2507
87648,-106.6947,-4.0308,-0.0106,-0.0697,-89.4155,-0.0009,-0.0217,2.4394,-0.0001,-0.0973,6.6437,0.0008,0.1675
87664,-106.6947,-4.0308,-0.0106,-0.0697,-89.4155,-0.0009,-0.0217,2.4394,-0.0001,-0.0973,6.6437,0.0008,0.1675
87680,-106.6947,-4.0308,-0.0106,-0.0697,-89.4155,-0.0009,-0.0217,2.4394,-0.0001,-0.0973,6.6437,0.0008,0.1675
87696,-106.6947,-4.0308,-0.0106,-0.0697,-89.4155,-0.0009,-0.0217,2.4394,-0.0001,-0.0973,6.6437,0.0008,0.1675
87712,-106.6947,-4.0308,-0.0106,-0.0697,-89.4155,-0.0009,-0.0217,2.4394,-0.0001,-0.0973,6.6437,0.0008,0.1675
87728,-106.6947,-4.0308,-0.0106,-0.0697,-89.4155,-0.0009,-0.0217,2.4394,-0.0001,-0.0973,6.6437,0.0008,0.1675
87747,-106.6973,-3.7682,-0.0106,-0.0715,-89.4183,0.0,-0.0292,2.922,-0.0001,-0.0737,4.7063,0.0004,-0.0245
87760,-106.6973,-3.7682,-0.0106,-0.0715,-89.4183,0.0,-0.0292,2.922,-0.0001,-0.0737,4.7063,0.0004,-0.0245
87776,-106.6973,-3.7682,-0.0106,-0.0715,-89.4183,0.0,-0.0292,2.922,-0.0001,-0.0737,4.7063,0.0004,-0.0245
87792,-106.6973,-3.7682,-0.0106,-0.0715,-89.4183,0.0,-0.0292,2.922,-0.0001,-0.0737,4.7063,0.0004,-0.0245
87808,-106.6973,-3.7682,-0.0106,-0.0715,-89.4183,0.0,-0.0292,2.922,-0.0001,-0.0737,4.7063,0.0004,-0.0245
87824,-106.6973,-3.7682,-0.0106,-0.0715,-89.4183,0.0,-0.0292,2.922,-0.0001,-0.0737,4.7063,0.0004,-0.0245
87840,-106.6973,-3.7682,-0.0106,-0.0715,-89.4183,0.0,-0.0292,2.922,-0.0001,-0.0737,4.7063,0.0004,-0.0245
87856,-106.7004,-3.4575,-0.0106,-0.0762,-89.4193,0.0001,-0.0344,3.4029,-0.0,-0.0514,4.7514,0.0005,-0.0017
87872,-106.7004,-3.4575,-0.0106,-0.0762,-89.4193,0.0001,-0.0344,3.4029,-0.0,-0.0514,4.7514,0.0005,-0.0017
87888,-106.7004,-3.4575,-0.0106,-0.0762,-89.4193,0.0001,-0.0344,3.4029,-0.0,-0.0514,4.7514,0.0005,-0.0017
87904,-106.7004,-3.4575,-0.0106,-0.0762,-89.4193,0.0001,-0.0344,3.4029,-0.0,-0.0514,4.7514,0.0005,-0.0017
87920,-106.7004,-3.4575,-0.0106,-0.0762,-89.4193,0.0001,-0.0344,3.4029,-0.0,-0.0514,4.7514,0.0005,-0.0017
87939,-106.7004,-3.4575,-0.0106,-0.0762,-89.4193,0.0001,-0.0344,3.4029,-0.0,-0.0514,4.7514,0.0005,-0.0017
87952,-106.7041,-3.088,-0.0105,-0.0873,-89.4194,0.0001,-0.0414,4.0901,-0.0,-0.0705,6.9089,0.0002,-0.0035
87968,-106.7041,-3.088,-0.0105,-0.0873,-89.4194,0.0001,-0.0414,4.0901,-0.0,-0.0705,6.9089,0.0002,-0.0035
87984,-106.7041,-3.088,-0.0105,-0.0873,-89.4194,0.0001,-0.0414,4.0901,-0.0,-0.0705,6.9089,0.0002,-0.0035
88000,-106.7041,-3.088,-0.0105,-0.0873,-89.4194,0.0001,-0.0414,4.0901,-0.0,-0.0705,6.9089,0.0002,-0.0035
88016,-106.7041,-3.088,-0.0105,-0.0873,-89.4194,0.0001,-0.0414,4.0901,-0.0,-0.0705,6.9089,0.0002,-0.0035
88032,-106.7041,-3.088,-0.0105,-0.0873,-89.4194,0.0001,-0.0414,4.0901,-0.0,-0.0705,6.9089,0.0002,-0.0035
88048,-106.7086,-2.6479,-0.0104,-0.0982,-89.4193,0.0,-0.0482,4.7567,-0.0,-0.0646,6.3961,0.0,-0.0038
88064,-106.7086,-2.6479,-0.0104,-0.0982,-89.4193,0.0,-0.0482,4.7567,-0.0,-0.0646,6.3961,0.0,-0.0038
88080,-106.7086,-2.6479,-0.0104,-0.0982,-89.4193,0.0,-0.0482,4.7567,-0.0,-0.0646,6.3961,0.0,-0.0038
88096,-106.7086,-2.6479,-0.0104,-0.0982,-89.4193,0.0,-0.0482,4.7567,-0.0,-0.0646,6.3961,0.0,-0.0038
88112,-106.7086,-2.6479,-0.0104,-0.0982,-89.4193,0.0,-0.0482,4.7567,-0.0,-0.0646,6.3961,0.0,-0.0038
88128,-106.7086,-2.6479,-0.0104,-0.0982,-89.4193,0.0,-0.0482,4.7567,-0.0,-0.0646,6.3961,0.0,-0.0038
88153,-106.7137,-2.1454,-0.0104,-0.1042,-89.4151,0.0,-0.0546,5.4278,0.0,-0.0654,6.7924,0.0003,1.2854
88160,-106.7137,-2.1454,-0.0104,-0.1042,-89.4151,0.0,-0.0546,5.4278,0.0,-0.0654,6.7924,0.0003,1.2854
88176,-106.7137,-2.1454,-0.0104,-0.1042,-89.4151,0.0,-0.0546,5.4278,0.0,-0.0654,6.7924,0.0003,1.2854
88192,-106.7137,-2.1454,-0.0104,-0.1042,-89.4151,0.0,-0.0546,5.4278,0.0,-0.0654,6.7924,0.0003,1.2854
88208,-106.7137,-2.1454,-0.0104,-0.1042,-89.4151,0.0,-0.0546,5.4278,0.0,-0.0654,6.7924,0.0003,1.2854
88224,-106.7137,-2.1454,-0.0104,-0.1042,-89.4151,0.0,-0.0546,5.4278,0.0,-0.0654,6.7924,0.0003,1.2854
88240,-106.7137,-2.1454,-0.0104,-0.1042,-89.4151,0.0,-0.0546,5.4278,0.0,-0.0654,6.7924,0.0003,1.2854
88256,-106.7194,-1.5991,-0.0104,-0.1032,-89.3989,0.0004,-0.0635,6.0055,0.0,-0.0925,6.0224,-0.0,-1.2811
88272,-106.7194,-1.5991,-0.0104,-0.1032,-89.3989,0.0004,-0.0635,6.0055,0.0,-0.0925,6.0224,-0.0,-1.2811
88288,-106.7194,-1.5991,-0.0104,-0.1032,-89.3989,0.0004,-0.0635,6.0055,0.0,-0.0925,6.0224,-0.0,-1.2811
88304,-106.7194,-1.5991,-0.0104,-0.1032,-89.3989,0.0004,-0.0635,6.0055,0.0,-0.0925,6.0224,-0.0,-1.2811
88320,-106.7194,-1.5991,-0.0104,-0.1032,-89.3989,0.0004,-0.0635,6.0055,0.0,-0.0925,6.0224,-0.0,-1.2811
88336,-106.7194,-1.5991,-0.0104,-0.1032,-89.3989,0.0004,-0.0635,6.0055,0.0,-0.0925,6.0224,-0.0,-1.2811
88352,-106.7263,-0.9695,-0.0104,-0.1022,-89.3739,0.0006,-0.0706,6.6201,-0.0,-0.0672,5.8657,-0.0002,1.5915
88368,-106.7263,-0.9695,-0.0104,-0.1022,-89.3739,0.0006,-0.0706,6.6201,-0.0,-0.0672,5.8657,-0.0002,1.5915
88384,-106.7263,-0.9695,-0.0104,-0.1022,-89.3739,0.0006,-0.0706,6.6201,-0.0,-0.0672,5.8657,-0.0002,1.5915
88400,-106.7263,-0.9695,-0.0104,-0.1022,-89.3739,0.0006,-0.0706,6.6201,-0.0,-0.0672,5.8657,-0.0002,1.5915
88416,-106.7263,-0.9695,-0.0104,-0.1022,-89.3739,0.0006,-0.0706,6.6201,-0.0,-0.0672,5.8657,-0.0002,1.5915
88432,-106.7263,-0.9695,-0.0104,-0.1022,-89.3739,0.0006,-0.0706,6.6201,-0.0,-0.0672,5.8657,-0.0002,1.5915
88448,-106.7263,-0.9695,-0.0104,-0.1022,-89.3739,0.0006,-0.0706,6.6201,-0.0,-0.0672,5.8657,-0.0002,1.5915
88464,-106.7263,-0.9695,-0.0104,-0.1022,-89.3739,0.0006,-0.0706,6.6201,-0.0,-0.0672,5.8657,-0.0002,1.5915
88480,-106.7263,-0.9695,-0.0104,-0.1022,-89.3739,0.0006,-0.0706,6.6201,-0.0,-0.0672,5.8657,-0.0002,1.5915
88496,-106.7263,-0.9695,-0.0104,-0.1022,-89.3739,0.0006,-0.0706,6.6201,-0.0,-0.0672,5.8657,-0.0002,1.5915
88512,-106.7263,-0.9695,-0.0104,-0.1022,-89.3739,0.0006,-0.0706,6.6201,-0.0,-0.0672,5.8657,-0.0002,1.5915
88528,-106.7263,-0.9695,-0.0104,-0.1022,-89.3739,0.0006,-0.0706,6.6201,-0.0,-0.0672,5.8657,-0.0002,1.5915
88544,-106.7263,-0.9695,-0.0104,-0.1022,-89.3739,0.0006,-0.0706,6.6201,-0.0,-0.0672,5.8657,-0.0002,1.5915
88560,-106.7263,-0.9695,-0.0104,-0.1022,-89.3739,0.0006,-0.0706,6.6201,-0.0,-0.0672,5.8657,-0.0002,1.5915
88576,-106.7263,-0.9695,-0.0104,-0.1022,-89.3739,0.0006,-0.0706,6.6201,-0.0,-0.0672,5.8657,-0.0002,1.5915
88592,-106.7263,-0.9695,-0.0104,-0.1022,-89.3739,0.0006,-0.0706,6.6201,-0.0,-0.0672,5.8657,-0.0002,1.5915
88608,-106.7263,-0.9695,-0.0104,-0.1022,-89.3739,0.0006,-0.0706,6.6201,-0.0,-0.0672,5.8657,-0.0002,1.5915
88624,-106.7263,-0.9695,-0.0104,-0.1022,-89.3739,0.0006,-0.0706,6.6201,-0.0,-0.0672,5.8657,-0.0002,1.5915
88640,-106.7263,-0.9695,-0.0104,-0.1022,-89.3739,0.0006,-0.0706,6.6201,-0.0,-0.0672,5.8657,-0.0002,1.5915
88656,-106.7263,-0.9695,-0.0104,-0.1022,-89.3739,0.0006,-0.0706,6.6201,-0.0,-0.0672,5.8657,-0.0002,1.5915
88672,-106.7338,-0.2738,-0.0104,-0.106,-89.3795,0.0006,-0.0798,7.3093,-0.0,-0.0403,3.0012,0.0,-1.1748
88688,-106.7422,0.4919,-0.0104,-0.1096,-89.3732,0.0004,-0.0867,7.9892,-0.0,-0.0673,6.6409,0.0001,0.9014
88704,-106.7422,0.4919,-0.0104,-0.1096,-89.3732,0.0004,-0.0867,7.9892,-0.0,-0.0673,6.6409,0.0001,0.9014
88720,-106.7422,0.4919,-0.0104,-0.1096,-89.3732,0.0004,-0.0867,7.9892,-0.0,-0.0673,6.6409,0.0001,0.9014
88736,-106.7422,0.4919,-0.0104,-0.1096,-89.3732,0.0004,-0.0867,7.9892,-0.0,-0.0673,6.6409,0.0001,0.9014
88752,-106.7422,0.4919,-0.0104,-0.1096,-89.3732,0.0004,-0.0867,7.9892,-0.0,-0.0673,6.6409,0.0001,0.9014
88768,-106.7422,0.4919,-0.0104,-0.1096,-89.3732,0.0004,-0.0867,7.9892,-0.0,-0.0673,6.6409,0.0001,0.9014
88784,-106.7422,0.4919,-0.0104,-0.1096,-89.3732,0.0004,-0.0867,7.9892,-0.0,-0.0673,6.6409,0.0001,0.9014
88800,-106.7512,1.3227,-0.0104,-0.1081,-89.3774,0.0002,-0.094,8.6109,-0.0,-0.072,6.113,-0.0,-0.6574
88816,-106.7512,1.3227,-0.0104,-0.1081,-89.3774,0.0002,-0.094,8.6109,-0.0,-0.072,6.113,-0.0,-0.6574
88832,-106.7512,1.3227,-0.0104,-0.1081,-89.3774,0.0002,-0.094,8.6109,-0.0,-0.072,6.113,-0.0,-0.6574
88848,-106.7512,1.3227,-0.0104,-0.1081,-89.3774,0.0002,-0.094,8.6109,-0.0,-0.072,6.113,-0.0,-0.6574
88864,-106.7512,1.3227,-0.0104,-0.1081,-89.3774,0.0002,-0.094,8.6109,-0.0,-0.072,6.113,-0.0,-0.6574
88880,-106.7512,1.3227,-0.0104,-0.1081,-89.3774,0.0002,-0.094,8.6109,-0.0,-0.072,6.113,-0.0,-0.6574
88896,-106.7609,2.2134,-0.0104,-0.1034,-89.3747,0.0001,-0.1,9.1792,-0.0,-0.0541,5.1868,-0.0,0.317
88912,-106.7609,2.2134,-0.0104,-0.1034,-89.3747,0.0001,-0.1,9.1792,-0.0,-0.0541,5.1868,-0.0,0.317
88928,-106.7609,2.2134,-0.0104,-0.1034,-89.3747,0.0001,-0.1,9.1792,-0.0,-0.0541,5.1868,-0.0,0.317
88944,-106.7609,2.2134,-0.0104,-0.1034,-89.3747,0.0001,-0.1,9.1792,-0.0,-0.0541,5.1868,-0.0,0.317
88960,-106.7609,2.2134,-0.0104,-0.1034,-89.3747,0.0001,-0.1,9.1792,-0.0,-0.0541,5.1868,-0.0,0.317
88976,-106.7609,2.2134,-0.0104,-0.1034,-89.3747,0.0001,-0.1,9.1792,-0.0,-0.0541,5.1868,-0.0,0.317
88992,-106.7609,2.2134,-0.0104,-0.1034,-89.3747,0.0001,-0.1,9.1792,-0.0,-0.0541,5.1868,-0.0,0.317
89008,-106.7609,2.2134,-0.0104,-0.1034,-89.3747,0.0001,-0.1,9.1792,-0.0,-0.0541,5.1868,-0.0,0.317
89024,-106.7609,2.2134,-0.0104,-0.1034,-89.3747,0.0001,-0.1,9.1792,-0.0,-0.0541,5.1868,-0.0,0.317
89040,-106.7712,3.1584,-0.0104,-0.097,-89.3756,0.0001,-0.1057,9.6983,0.0,-0.0454,4.0881,0.0001,-0.0554
89056,-106.7712,3.1584,-0.0104,-0.097,-89.3756,0.0001,-0.1057,9.6983,0.0,-0.0454,4.0881,0.0001,-0.0554
89072,-106.7712,3.1584,-0.0104,-0.097,-89.3756,0.0001,-0.1057,9.6983,0.0,-0.0454,4.0881,0.0001,-0.0554
89088,-106.7712,3.1584,-0.0104,-0.097,-89.3756,0.0001,-0.1057,9.6983,0.0,-0.0454,4.0881,0.0001,-0.0554
89104,-106.7712,3.1584,-0.0104,-0.097,-89.3756,0.0001,-0.1057,9.6983,0.0,-0.0454,4.0881,0.0001,-0.0554
89120,-106.7712,3.1584,-0.0104,-0.097,-89.3756,0.0001,-0.1057,9.6983,0.0,-0.0454,4.0881,0.0001,-0.0554
89136,-106.7712,3.1584,-0.0104,-0.097,-89.3756,0.0001,-0.1057,9.6983,0.0,-0.0454,4.0881,0.0001,-0.0554
89152,-106.7712,3.1584,-0.0104,-0.097,-89.3756,0.0001,-0.1057,9.6983,0.0,-0.0454,4.0881,0.0001,-0.0554
89168,-106.7712,3.1584,-0.0104,-0.097,-89.3756,0.0001,-0.1057,9.6983,0.0,-0.0454,4.0881,0.0001,-0.0554
89184,-106.7712,3.1584,-0.0104,-0.097,-89.3756,0.0001,-0.1057,9.6983,0.0,-0.0454,4.0881,0.0001,-0.0554
89200,-106.7712,3.1584,-0.0104,-0.097,-89.3756,0.0001,-0.1057,9.6983,0.0,-0.0454,4.0881,0.0001,-0.0554
89217,-106.7712,3.1584,-0.0104,-0.097,-89.3756,0.0001,-0.1057,9.6983,0.0,-0.0454,4.0881,0.0001,-0.0554
89233,-106.7821,4.1543,-0.0105,-0.0913,-89.3755,0.0,-0.1112,10.1979,0.0,-0.035,3.2249,-0.0001,0.0004
89249,-106.7821,4.1543,-0.0105,-0.0913,-89.3755,0.0,-0.1112,10.1979,0.0,-0.035,3.2249,-0.0001,0.0004
89265,-106.7821,4.1543,-0.0105,-0.0913,-89.3755,0.0,-0.1112,10.1979,0.0,-0.035,3.2249,-0.0001,0.0004
89281,-106.7821,4.1543,-0.0105,-0.0913,-89.3755,0.0,-0.1112,10.1979,0.0,-0.035,3.2249,-0.0001,0.0004
89297,-106.7821,4.1543,-0.0105,-0.0913,-89.3755,0.0,-0.1112,10.1979,0.0,-0.035,3.2249,-0.0001,0.0004
89313,-106.7934,5.1994,-0.0105,-0.0866,-89.3755,0.0,-0.1163,10.6718,0.0,-0.0412,3.7772,0.0,-0.0003
89329,-106.7934,5.1994,-0.0105,-0.0866,-89.3755,0.0,-0.1163,10.6718,0.0,-0.0412,3.7772,0.0,-0.0003
89345,-106.7934,5.1994,-0.0105,-0.0866,-89.3755,0.0,-0.1163,10.6718,0.0,-0.0412,3.7772,0.0,-0.0003
89361,-106.7934,5.1994,-0.0105,-0.0866,-89.3755,0.0,-0.1163,10.6718,0.0,-0.0412,3.7772,0.0,-0.0003
89377,-106.7934,5.1994,-0.0105,-0.0866,-89.3755,0.0,-0.1163,10.6718,0.0,-0.0412,3.7772,0.0,-0.0003
89393,-106.8044,6.2031,-0.0105,-0.0834,-89.3755,0.0,-0.121,11.1033,0.0,-0.0511,4.6883,-0.0,-0.0001
89409,-106.8044,6.2031,-0.0105,-0.0834,-89.3755,0.0,-0.121,11.1033,0.0,-0.0511,4.6883,-0.0,-0.0001
89425,-106.8044,6.2031,-0.0105,-0.0834,-89.3755,0.0,-0.121,11.1033,0.0,-0.0511,4.6883,-0.0,-0.0001
89441,-106.8044,6.2031,-0.0105,-0.0834,-89.3755,0.0,-0.121,11.1033,0.0,-0.0511,4.6883,-0.0,-0.0001
89457,-106.8044,6.2031,-0.0105,-0.0834,-89.3755,0.0,-0.121,11.1033,0.0,-0.0511,4.6883,-0.0,-0.0001
89473,-106.8044,6.2031,-0.0105,-0.0834,-89.3755,0.0,-0.121,11.1033,0.0,-0.0511,4.6883,-0.0,-0.0001
89489,-106.8044,6.2031,-0.0105,-0.0834,-89.3755,0.0,-0.121,11.1033,0.0,-0.0511,4.6883,-0.0,-0.0001
89505,-106.8167,7.3366,-0.0106,-0.0786,-89.3755,-0.0,-0.1256,11.5192,0.0,-0.0411,3.7694,0.0,-0.0001
89521,-106.8167,7.3366,-0.0106,-0.0786,-89.3755,-0.0,-0.1256,11.5192,0.0,-0.0411,3.7694,0.0,-0.0001
89553,-106.8167,7.3366,-0.0106,-0.0786,-89.3755,-0.0,-0.1256,11.5192,0.0,-0.0411,3.7694,0.0,-0.0001
89569,-106.8167,7.3366,-0.0106,-0.0786,-89.3755,-0.0,-0.1256,11.5192,0.0,-0.0411,3.7694,0.0,-0.0001
89585,-106.8167,7.3366,-0.0106,-0.0786,-89.3755,-0.0,-0.1256,11.5192,0.0,-0.0411,3.7694,0.0,-0.0001
89601,-106.8167,7.3366,-0.0106,-0.0786,-89.3755,-0.0,-0.1256,11.5192,0.0,-0.0411,3.7694,0.0,-0.0001
89617,-106.8167,7.3366,-0.0106,-0.0786,-89.3755,-0.0,-0.1256,11.5192,0.0,-0.0411,3.7694,0.0,-0.0001
89636,-106.8167,7.3366,-0.0106,-0.0786,-89.3755,-0.0,-0.1256,11.5192,0.0,-0.0411,3.7694,0.0,-0.0001
89649,-106.8167,7.3366,-0.0106,-0.0786,-89.3755,-0.0,-0.1256,11.5192,0.0,-0.0411,3.7694,0.0,-0.0001
89665,-106.8167,7.3366,-0.0106,-0.0786,-89.3755,-0.0,-0.1256,11.5192,0.0,-0.0411,3.7694,0.0,-0.0001
89681,-106.8167,7.3366,-0.0106,-0.0786,-89.3755,-0.0,-0.1256,11.5192,0.0,-0.0411,3.7694,0.0,-0.0001
89697,-106.8167,7.3366,-0.0106,-0.0786,-89.3755,-0.0,-0.1256,11.5192,0.0,-0.0411,3.7694,0.0,-0.0001
89713,-106.8167,7.3366,-0.0106,-0.0786,-89.3755,-0.0,-0.1256,11.5192,0.0,-0.0411,3.7694,0.0,-0.0001
89729,-106.8167,7.3366,-0.0106,-0.0786,-89.3755,-0.0,-0.1256,11.5192,0.0,-0.0411,3.7694,0.0,-0.0001
89745,-106.8167,7.3366,-0.0106,-0.0786,-89.3755,-0.0,-0.1256,11.5192,0.0,-0.0411,3.7694,0.0,-0.0001
89761,-106.8167,7.3366,-0.0106,-0.0786,-89.3755,-0.0,-0.1256,11.5192,0.0,-0.0411,3.7694,0.0,-0.0001
89777,-106.8167,7.3366,-0.0106,-0.0786,-89.3755,-0.0,-0.1256,11.5192,0.0,-0.0411,3.7694,0.0,-0.0001
89793,-106.8167,7.3366,-0.0106,-0.0786,-89.3755,-0.0,-0.1256,11.5192,0.0,-0.0411,3.7694,0.0,-0.0001
89809,-106.8167,7.3366,-0.0106,-0.0786,-89.3755,-0.0,-0.1256,11.5192,0.0,-0.0411,3.7694,0.0,-0.0001
89825,-106.8167,7.3366,-0.0106,-0.0786,-89.3755,-0.0,-0.1256,11.5192,0.0,-0.0411,3.7694,0.0,-0.0001
89841,-106.8167,7.3366,-0.0106,-0.0786,-89.3755,-0.0,-0.1256,11.5192,0.0,-0.0411,3.7694,0.0,-0.0001
89857,-106.8167,7.3366,-0.0106,-0.0786,-89.3755,-0.0,-0.1256,11.5192,0.0,-0.0411,3.7694,0.0,-0.0001
89873,-106.8295,8.5076,-0.0106,-0.0712,-89.3756,0.0,-0.1294,11.8718,-0.0,-0.0159,1.4614,-0.0,-0.0001
89889,-106.8295,8.5076,-0.0106,-0.0712,-89.3756,0.0,-0.1294,11.8718,-0.0,-0.0159,1.4614,-0.0,-0.0001
89905,-106.8295,8.5076,-0.0106,-0.0712,-89.3756,0.0,-0.1294,11.8718,-0.0,-0.0159,1.4614,-0.0,-0.0001
89921,-106.8295,8.5076,-0.0106,-0.0712,-89.3756,0.0,-0.1294,11.8718,-0.0,-0.0159,1.4614,-0.0,-0.0001
89937,-106.8295,8.5076,-0.0106,-0.0712,-89.3756,0.0,-0.1294,11.8718,-0.0,-0.0159,1.4614,-0.0,-0.0001
89953,-106.8295,8.5076,-0.0106,-0.0712,-89.3756,0.0,-0.1294,11.8718,-0.0,-0.0159,1.4614,-0.0,-0.0001
89969,-106.8295,8.5076,-0.0106,-0.0712,-89.3756,0.0,-0.1294,11.8718,-0.0,-0.0159,1.4614,-0.0,-0.0001
89985,-106.8295,8.5076,-0.0106,-0.0712,-89.3756,0.0,-0.1294,11.8718,-0.0,-0.0159,1.4614,-0.0,-0.0001
90001,-106.8295,8.5076,-0.0106,-0.0712,-89.3756,0.0,-0.1294,11.8718,-0.0,-0.0159,1.4614,-0.0,-0.0001
90017,-106.8295,8.5076,-0.0106,-0.0712,-89.3756,0.0,-0.1294,11.8718,-0.0,-0.0159,1.4614,-0.0,-0.0001
90033,-106.8295,8.5076,-0.0106,-0.0712,-89.3756,0.0,-0.1294,11.8718,-0.0,-0.0159,1.4614,-0.0,-0.0001
90049,-106.8295,8.5076,-0.0106,-0.0712,-89.3756,0.0,-0.1294,11.8718,-0.0,-0.0159,1.4614,-0.0,-0.0001
90065,-106.8295,8.5076,-0.0106,-0.0712,-89.3756,0.0,-0.1294,11.8718,-0.0,-0.0159,1.4614,-0.0,-0.0001
90081,-106.8729,9.704,-0.0107,-0.0543,-90.8044,0.1274,-0.9982,11.9706,0.001,-3.2272,0.3671,0.0037,-32.0025
90097,-106.8729,9.704,-0.0107,-0.0543,-90.8044,0.1274,-0.9982,11.9706,0.001,-3.2272,0.3671,0.0037,-32.0025
90113,-106.8729,9.704,-0.0107,-0.0543,-90.8044,0.1274,-0.9982,11.9706,0.001,-3.2272,0.3671,0.0037,-32.0025
90133,-106.8729,9.704,-0.0107,-0.0543,-90.8044,0.1274,-0.9982,11.9706,0.001,-3.2272,0.3671,0.0037,-32.0025
90161,-106.9899,10.8851,-0.0109,-0.0113,-96.9225,0.2827,-2.063,11.7025,0.0012,-8.6873,-2.188,0.0014,-87.3314
90177,-106.9899,10.8851,-0.0109,-0.0113,-96.9225,0.2827,-2.063,11.7025,0.0012,-8.6873,-2.188,0.0014,-87.3314
90193,-106.9899,10.8851,-0.0109,-0.0113,-96.9225,0.2827,-2.063,11.7025,0.0012,-8.6873,-2.188,0.0014,-87.3314
90209,-106.9899,10.8851,-0.0109,-0.0113,-96.9225,0.2827,-2.063,11.7025,0.0012,-8.6873,-2.188,0.0014,-87.3314
90225,-106.9899,10.8851,-0.0109,-0.0113,-96.9225,0.2827,-2.063,11.7025,0.0012,-8.6873,-2.188,0.0014,-87.3314
90244,-106.9899,10.8851,-0.0109,-0.0113,-96.9225,0.2827,-2.063,11.7025,0.0012,-8.6873,-2.188,0.0014,-87.3314
90257,-107.0867,12.0404,-0.0109,-0.0131,-106.082,0.0552,-0.997,11.6708,-0.0018,9.1165,-0.2709,-0.0254,-87.9545
90273,-107.0867,12.0404,-0.0109,-0.0131,-106.082,0.0552,-0.997,11.6708,-0.0018,9.1165,-0.2709,-0.0254,-87.9545
90289,-107.0867,12.0404,-0.0109,-0.0131,-106.082,0.0552,-0.997,11.6708,-0.0018,9.1165,-0.2709,-0.0254,-87.9545
90305,-107.0867,12.0404,-0.0109,-0.0131,-106.082,0.0552,-0.997,11.6708,-0.0018,9.1165,-0.2709,-0.0254,-87.9545
90321,-107.0867,12.0404,-0.0109,-0.0131,-106.082,0.0552,-0.997,11.6708,-0.0018,9.1165,-0.2709,-0.0254,-87.9545
90337,-107.0867,12.0404,-0.0109,-0.0131,-106.082,0.0552,-0.997,11.6708,-0.0018,9.1165,-0.2709,-0.0254,-87.9545
90353,-107.0867,12.0404,-0.0109,-0.0131,-106.082,0.0552,-0.997,11.6708,-0.0018,9.1165,-0.2709,-0.0254,-87.9545
90369,-107.0949,13.0868,-0.0115,0.0661,-113.329,-0.2153,-0.4729,9.4719,0.001,5.0385,-21.1398,0.0274,-56.1554
90385,-107.0949,13.0868,-0.0115,0.0661,-113.329,-0.2153,-0.4729,9.4719,0.001,5.0385,-21.1398,0.0274,-56.1554
90401,-107.0949,13.0868,-0.0115,0.0661,-113.329,-0.2153,-0.4729,9.4719,0.001,5.0385,-21.1398,0.0274,-56.1554
90417,-107.0949,13.0868,-0.0115,0.0661,-113.329,-0.2153,-0.4729,9.4719,0.001,5.0385,-21.1398,0.0274,-56.1554
90433,-107.0949,13.0868,-0.0115,0.0661,-113.329,-0.2153,-0.4729,9.4719,0.001,5.0385,-21.1398,0.0274,-56.1554
90449,-107.0949,13.0868,-0.0115,0.0661,-113.329,-0.2153,-0.4729,9.4719,0.001,5.0385,-21.1398,0.0274,-56.1554
90465,-107.0841,13.8804,-0.0122,0.1873,-116.7526,-0.4322,0.0892,6.8702,0.002,5.4782,-25.3551,0.0089,-17.6077
90481,-107.0841,13.8804,-0.0122,0.1873,-116.7526,-0.4322,0.0892,6.8702,0.002,5.4782,-25.3551,0.0089,-17.6077
90497,-107.0841,13.8804,-0.0122,0.1873,-116.7526,-0.4322,0.0892,6.8702,0.002,5.4782,-25.3551,0.0089,-17.6077
90513,-107.0841,13.8804,-0.0122,0.1873,-116.7526,-0.4322,0.0892,6.8702,0.002,5.4782,-25.3551,0.0089,-17.6077
90529,-107.0841,13.8804,-0.0122,0.1873,-116.7526,-0.4322,0.0892,6.8702,0.002,5.4782,-25.3551,0.0089,-17.6077
90545,-107.0841,13.8804,-0.0122,0.1873,-116.7526,-0.4322,0.0892,6.8702,0.002,5.4782,-25.3551,0.0089,-17.6077
90564,-107.0625,14.4161,-0.0128,0.2802,-116.8898,-0.5347,0.2797,4.1369,0.0011,1.803,-25.8759,-0.0083,10.2052
90577,-107.0625,14.4161,-0.0128,0.2802,-116.8898,-0.5347,0.2797,4.1369,0.0011,1.803,-25.8759,-0.0083,10.2052
90593,-107.0625,14.4161,-0.0128,0.2802,-116.8898,-0.5347,0.2797,4.1369,0.0011,1.803,-25.8759,-0.0083,10.2052
90609,-107.0625,14.4161,-0.0128,0.2802,-116.8898,-0.5347,0.2797,4.1369,0.0011,1.803,-25.8759,-0.0083,10.2052
90625,-107.0625,14.4161,-0.0128,0.2802,-116.8898,-0.5347,0.2797,4.1369,0.0011,1.803,-25.8759,-0.0083,10.2052
90641,-107.0625,14.4161,-0.0128,0.2802,-116.8898,-0.5347,0.2797,4.1369,0.0011,1.803,-25.8759,-0.0083,10.2052
90673,-107.0292,14.6933,-0.013,0.3222,-115.8478,-0.5685,0.4696,1.8557,0.0003,1.998,-24.0026,-0.0078,10.228
90689,-107.0292,14.6933,-0.013,0.3222,-115.8478,-0.5685,0.4696,1.8557,0.0003,1.998,-24.0026,-0.0078,10.228
90705,-107.0292,14.6933,-0.013,0.3222,-115.8478,-0.5685,0.4696,1.8557,0.0003,1.998,-24.0026,-0.0078,10.228
90721,-107.0292,14.6933,-0.013,0.3222,-115.8478,-0.5685,0.4696,1.8557,0.0003,1.998,-24.0026,-0.0078,10.228
90737,-107.0292,14.6933,-0.013,0.3222,-115.8478,-0.5685,0.4696,1.8557,0.0003,1.998,-24.0026,-0.0078,10.228
90753,-107.0292,14.6933,-0.013,0.3222,-115.8478,-0.5685,0.4696,1.8557,0.0003,1.998,-24.0026,-0.0078,10.228
90772,-107.0292,14.6933,-0.013,0.3222,-115.8478,-0.5685,0.4696,1.8557,0.0003,1.998,-24.0026,-0.0078,10.228
90785,-106.9877,14.795,-0.0131,0.3115,-115.0133,-0.4607,0.2058,0.3599,-0.0059,-2.2623,-12.8309,-0.0537,1.9029
90801,-106.9877,14.795,-0.0131,0.3115,-115.0133,-0.4607,0.2058,0.3599,-0.0059,-2.2623,-12.8309,-0.0537,1.9029
90817,-106.9877,14.795,-0.0131,0.3115,-115.0133,-0.4607,0.2058,0.3599,-0.0059,-2.2623,-12.8309,-0.0537,1.9029
90833,-106.9877,14.795,-0.0131,0.3115,-115.0133,-0.4607,0.2058,0.3599,-0.0059,-2.2623,-12.8309,-0.0537,1.9029
90849,-106.9877,14.795,-0.0131,0.3115,-115.0133,-0.4607,0.2058,0.3599,-0.0059,-2.2623,-12.8309,-0.0537,1.9029
90865,-106.9877,14.795,-0.0131,0.3115,-115.0133,-0.4607,0.2058,0.3599,-0.0059,-2.2623,-12.8309,-0.0537,1.9029
90881,-106.9877,14.795,-0.0131,0.3115,-115.0133,-0.4607,0.2058,0.3599,-0.0059,-2.2623,-12.8309,-0.0537,1.9029
90897,-106.9877,14.795,-0.0131,0.3115,-115.0133,-0.4607,0.2058,0.3599,-0.0059,-2.2623,-12.8309,-0.0537,1.9029
90913,-106.9776,14.8166,-0.0129,0.2301,-114.9878,-0.2693,0.1004,0.1896,-0.002,-0.8416,-1.36,0.0317,0.2378
90929,-106.9776,14.8166,-0.0129,0.2301,-114.9878,-0.2693,0.1004,0.1896,-0.002,-0.8416,-1.36,0.0317,0.2378
90945,-106.9776,14.8166,-0.0129,0.2301,-114.9878,-0.2693,0.1004,0.1896,-0.002,-0.8416,-1.36,0.0317,0.2378
90961,-106.9776,14.8166,-0.0129,0.2301,-114.9878,-0.2693,0.1004,0.1896,-0.002,-0.8416,-1.36,0.0317,0.2378
90977,-106.9776,14.8166,-0.0129,0.2301,-114.9878,-0.2693,0.1004,0.1896,-0.002,-0.8416,-1.36,0.0317,0.2378
90993,-106.9776,14.8166,-0.0129,0.2301,-114.9878,-0.2693,0.1004,0.1896,-0.002,-0.8416,-1.36,0.0317,0.2378
91009,-106.9776,14.8166,-0.0129,0.2301,-114.9878,-0.2693,0.1004,0.1896,-0.002,-0.8416,-1.36,0.0317,0.2378
91025,-106.9776,14.8166,-0.0129,0.2301,-114.9878,-0.2693,0.1004,0.1896,-0.002,-0.8416,-1.36,0.0317,0.2378
91043,-106.9776,14.8166,-0.0129,0.2301,-114.9878,-0.2693,0.1004,0.1896,-0.002,-0.8416,-1.36,0.0317,0.2378
91058,-106.9776,14.8166,-0.0129,0.2301,-114.9878,-0.2693,0.1004,0.1896,-0.002,-0.8416,-1.36,0.0317,0.2378
91074,-106.9776,14.8166,-0.0129,0.2301,-114.9878,-0.2693,0.1004,0.1896,-0.002,-0.8416,-1.36,0.0317,0.2378
91090,-106.9842,14.8019,-0.0126,0.1729,-115.0047,-0.1515,-0.229,-0.51,-0.0006,-3.1806,-6.7543,0.0132,1.0811
91106,-106.9842,14.8019,-0.0126,0.1729,-115.0047,-0.1515,-0.229,-0.51,-0.0006,-3.1806,-6.7543,0.0132,1.0811
91122,-106.9842,14.8019,-0.0126,0.1729,-115.0047,-0.1515,-0.229,-0.51,-0.0006,-3.1806,-6.7543,0.0132,1.0811
91138,-106.9842,14.8019,-0.0126,0.1729,-115.0047,-0.1515,-0.229,-0.51,-0.0006,-3.1806,-6.7543,0.0132,1.0811
91154,-106.9842,14.8019,-0.0126,0.1729,-115.0047,-0.1515,-0.229,-0.51,-0.0006,-3.1806,-6.7543,0.0132,1.0811
91170,-106.9842,14.8019,-0.0126,0.1729,-115.0047,-0.1515,-0.229,-0.51,-0.0006,-3.1806,-6.7543,0.0132,1.0811
91186,-106.9842,14.8019,-0.0126,0.1729,-115.0047,-0.1515,-0.229,-0.51,-0.0006,-3.1806,-6.7543,0.0132,1.0811
91202,-106.9842,14.8019,-0.0126,0.1729,-115.0047,-0.1515,-0.229,-0.51,-0.0006,-3.1806,-6.7543,0.0132,1.0811
91218,-106.9842,14.8019,-0.0126,0.1729,-115.0047,-0.1515,-0.229,-0.51,-0.0006,-3.1806,-6.7543,0.0132,1.0811
91234,-106.9842,14.8019,-0.0126,0.1729,-115.0047,-0.1515,-0.229,-0.51,-0.0006,-3.1806,-6.7543,0.0132,1.0811
91251,-106.9842,14.8019,-0.0126,0.1729,-115.0047,-0.1515,-0.229,-0.51,-0.0006,-3.1806,-6.7543,0.0132,1.0811
91267,-106.9842,14.8019,-0.0126,0.1729,-115.0047,-0.1515,-0.229,-0.51,-0.0006,-3.1806,-6.7543,0.0132,1.0811
91283,-106.9842,14.8019,-0.0126,0.1729,-115.0047,-0.1515,-0.229,-0.51,-0.0006,-3.1806,-6.7543,0.0132,1.0811
91299,-106.9842,14.8019,-0.0126,0.1729,-115.0047,-0.1515,-0.229,-0.51,-0.0006,-3.1806,-6.7543,0.0132,1.0811
91315,-106.9842,14.8019,-0.0126,0.1729,-115.0047,-0.1515,-0.229,-0.51,-0.0006,-3.1806,-6.7543,0.0132,1.0811
91331,-106.9842,14.8019,-0.0126,0.1729,-115.0047,-0.1515,-0.229,-0.51,-0.0006,-3.1806,-6.7543,0.0132,1.0811
91347,-106.9842,14.8019,-0.0126,0.1729,-115.0047,-0.1515,-0.229,-0.51,-0.0006,-3.1806,-6.7543,0.0132,1.0811
91363,-106.9842,14.8019,-0.0126,0.1729,-115.0047,-0.1515,-0.229,-0.51,-0.0006,-3.1806,-6.7543,0.0132,1.0811
91379,-106.9842,14.8019,-0.0126,0.1729,-115.0047,-0.1515,-0.229,-0.51,-0.0006,-3.1806,-6.7543,0.0132,1.0811
91395,-106.9842,14.8019,-0.0126,0.1729,-115.0047,-0.1515,-0.229,-0.51,-0.0006,-3.1806,-6.7543,0.0132,1.0811
91411,-106.9842,14.8019,-0.0126,0.1729,-115.0047,-0.1515,-0.229,-0.51,-0.0006,-3.1806,-6.7543,0.0132,1.0811
91427,-106.9842,14.8019,-0.0126,0.1729,-115.0047,-0.1515,-0.229,-0.51,-0.0006,-3.1806,-6.7543,0.0132,1.0811
91443,-106.9842,14.8019,-0.0126,0.1729,-115.0047,-0.1515,-0.229,-0.51,-0.0006,-3.1806,-6.7543,0.0132,1.0811
91459,-106.9842,14.8019,-0.0126,0.1729,-115.0047,-0.1515,-0.229,-0.51,-0.0006,-3.1806,-6.7543,0.0132,1.0811
91475,-106.9842,14.8019,-0.0126,0.1729,-115.0047,-0.1515,-0.229,-0.51,-0.0006,-3.1806,-6.7543,0.0132,1.0811
91491,-106.9842,14.8019,-0.0126,0.1729,-115.0047,-0.1515,-0.229,-0.51,-0.0006,-3.1806,-6.7543,0.0132,1.0811
91507,-107.0209,14.7237,-0.0122,0.1404,-114.9756,-0.0822,-0.4029,-0.8614,0.0057,-0.4347,-0.8786,0.0158,-2.4506
91523,-107.0602,14.6407,-0.0117,0.0957,-114.9431,-0.0481,-0.4338,-0.9211,0.0009,-0.3586,-0.6917,-0.0562,-2.5884
91539,-107.0602,14.6407,-0.0117,0.0957,-114.9431,-0.0481,-0.4338,-0.9211,0.0009,-0.3586,-0.6917,-0.0562,-2.5884
91555,-107.0602,14.6407,-0.0117,0.0957,-114.9431,-0.0481,-0.4338,-0.9211,0.0009,-0.3586,-0.6917,-0.0562,-2.5884
91571,-107.0602,14.6407,-0.0117,0.0957,-114.9431,-0.0481,-0.4338,-0.9211,0.0009,-0.3586,-0.6917,-0.0562,-2.5884
91587,-107.0602,14.6407,-0.0117,0.0957,-114.9431,-0.0481,-0.4338,-0.9211,0.0009,-0.3586,-0.6917,-0.0562,-2.5884
91603,-107.0602,14.6407,-0.0117,0.0957,-114.9431,-0.0481,-0.4338,-0.9211,0.0009,-0.3586,-0.6917,-0.0562,-2.5884
91619,-107.0602,14.6407,-0.0117,0.0957,-114.9431,-0.0481,-0.4338,-0.9211,0.0009,-0.3586,-0.6917,-0.0562,-2.5884
91635,-107.1063,14.544,-0.0115,0.0576,-114.8834,-0.027,-0.5448,-1.1653,0.0007,-0.9917,-2.1835,-0.0019,-0.394
91651,-107.1063,14.544,-0.0115,0.0576,-114.8834,-0.027,-0.5448,-1.1653,0.0007,-0.9917,-2.1835,-0.0019,-0.394
91667,-107.1063,14.544,-0.0115,0.0576,-114.8834,-0.027,-0.5448,-1.1653,0.0007,-0.9917,-2.1835,-0.0019,-0.394
91683,-107.1063,14.544,-0.0115,0.0576,-114.8834,-0.027,-0.5448,-1.1653,0.0007,-0.9917,-2.1835,-0.0019,-0.394
91699,-107.1063,14.544,-0.0115,0.0576,-114.8834,-0.027,-0.5448,-1.1653,0.0007,-0.9917,-2.1835,-0.0019,-0.394
91715,-107.1063,14.544,-0.0115,0.0576,-114.8834,-0.027,-0.5448,-1.1653,0.0007,-0.9917,-2.1835,-0.0019,-0.394
91731,-107.1063,14.544,-0.0115,0.0576,-114.8834,-0.027,-0.5448,-1.1653,0.0007,-0.9917,-2.1835,-0.0019,-0.394
91750,-107.1063,14.544,-0.0115,0.0576,-114.8834,-0.027,-0.5448,-1.1653,0.0007,-0.9917,-2.1835,-0.0019,-0.394
91763,-107.1063,14.544,-0.0115,0.0576,-114.8834,-0.027,-0.5448,-1.1653,0.0007,-0.9917,-2.1835,-0.0019,-0.394
91779,-107.1063,14.544,-0.0115,0.0576,-114.8834,-0.027,-0.5448,-1.1653,0.0007,-0.9917,-2.1835,-0.0019,-0.394
91795,-107.1063,14.544,-0.0115,0.0576,-114.8834,-0.027,-0.5448,-1.1653,0.0007,-0.9917,-2.1835,-0.0019,-0.394
91811,-107.1063,14.544,-0.0115,0.0576,-114.8834,-0.027,-0.5448,-1.1653,0.0007,-0.9917,-2.1835,-0.0019,-0.394
91827,-107.1063,14.544,-0.0115,0.0576,-114.8834,-0.027,-0.5448,-1.1653,0.0007,-0.9917,-2.1835,-0.0019,-0.394
91843,-107.1063,14.544,-0.0115,0.0576,-114.8834,-0.027,-0.5448,-1.1653,0.0007,-0.9917,-2.1835,-0.0019,-0.394
91859,-107.1063,14.544,-0.0115,0.0576,-114.8834,-0.027,-0.5448,-1.1653,0.0007,-0.9917,-2.1835,-0.0019,-0.394
