timestamp,x,y,z,pitch,yaw,roll,vx,vy,vz,ax,ay,az,yaw_rate
6882,-106.6867,-4.8475,0.3713,0.0,-89.3578,0.0,0.0,0.0,-2.0696,0.0,0.0,-9.8,0.0
6898,-106.6867,-4.8475,0.3713,0.0,-89.3578,0.0,0.0,0.0,-2.0696,0.0,0.0,-9.8,0.0
6914,-106.6867,-4.8475,0.3175,0.0,-89.3578,0.0,0.0,0.0,-2.3066,0.0,0.0,-9.8,0.0
6930,-106.6867,-4.8475,0.3175,0.0,-89.3578,0.0,0.0,0.0,-2.3066,0.0,0.0,-9.8,0.0
6946,-106.6867,-4.8475,0.2181,0.0,-89.3578,0.0,0.0,0.0,-2.689,0.0,0.0,-9.8,0.0
6962,-106.6867,-4.8475,0.2181,0.0,-89.3578,0.0,0.0,0.0,-2.689,0.0,0.0,-9.8,0.0
6978,-106.6867,-4.8475,0.1315,0.0,-89.3578,0.0,0.0,0.0,-2.9844,0.0,0.0,-9.8,0.0
6994,-106.6867,-4.8475,0.1315,0.0,-89.3578,0.0,0.0,0.0,-2.9844,0.0,0.0,-9.8,0.0
7010,-106.6867,-4.8466,0.0391,-0.0016,-89.3578,0.0,-0.0013,0.1121,-2.9018,-0.0418,3.7303,2.7497,0.0
7026,-106.6867,-4.8466,0.0391,-0.0016,-89.3578,0.0,-0.0013,0.1121,-2.9018,-0.0418,3.7303,2.7497,0.0
7045,-106.6867,-4.8467,-0.046,0.0,-89.3578,0.0,0.0009,-0.077,-1.2429,0.0456,-4.0658,35.674,-0.0
7058,-106.6867,-4.8467,-0.046,0.0,-89.3578,0.0,0.0009,-0.077,-1.2429,0.0456,-4.0658,35.674,-0.0
7074,-106.6867,-4.8465,-0.0712,0.0001,-89.3578,0.0,0.0006,-0.056,-0.5934,-0.0076,0.676,20.9181,0.0
7101,-106.6867,-4.8465,-0.0712,0.0001,-89.3578,0.0,0.0006,-0.056,-0.5934,-0.0076,0.676,20.9181,0.0
7122,-106.6868,-4.8436,-0.0823,-0.0031,-89.3577,0.0,-0.0007,0.062,-0.1274,-0.0337,2.9854,11.7929,0.003
7133,-106.6868,-4.8436,-0.0823,-0.0031,-89.3577,0.0,-0.0007,0.062,-0.1274,-0.0337,2.9854,11.7929,0.003
7152,-106.687,-4.8359,-0.0815,-0.0113,-89.3488,0.0002,-0.0063,0.3317,0.091,-0.1625,7.8692,6.3719,0.3706
7165,-106.687,-4.8359,-0.0815,-0.0113,-89.3488,0.0002,-0.0063,0.3317,0.091,-0.1625,7.8692,6.3719,0.3706
7186,-106.6873,-4.8219,-0.076,-0.022,-89.3234,0.0,-0.0053,0.4996,0.197,0.0295,5.0265,3.1723,0.8357
7197,-106.6873,-4.8219,-0.076,-0.022,-89.3234,0.0,-0.0053,0.4996,0.197,0.0295,5.0265,3.1723,0.8357
7213,-106.6873,-4.8219,-0.076,-0.022,-89.3234,0.0,-0.0053,0.4996,0.197,0.0295,5.0265,3.1723,0.8357
7232,-106.6876,-4.8016,-0.068,-0.0324,-89.3264,0.0002,-0.0099,0.6548,0.2403,-0.1341,4.4886,1.2522,0.0968
7247,-106.6876,-4.8016,-0.068,-0.0324,-89.3264,0.0002,-0.0099,0.6548,0.2403,-0.1341,4.4886,1.2522,0.0968
7266,-106.6883,-4.7696,-0.0577,-0.043,-89.2906,0.0004,-0.0121,0.8543,0.2425,-0.052,4.7899,0.0529,1.3676
7279,-106.6883,-4.7696,-0.0577,-0.043,-89.2906,0.0004,-0.0121,0.8543,0.2425,-0.052,4.7899,0.0529,1.3676
7295,-106.6883,-4.7696,-0.0577,-0.043,-89.2906,0.0004,-0.0121,0.8543,0.2425,-0.052,4.7899,0.0529,1.3676
7312,-106.6889,-4.7288,-0.0479,-0.0519,-89.2701,0.0002,-0.0129,1.0611,0.2469,-0.0195,4.983,0.1074,2.5841
7327,-106.6889,-4.7288,-0.0479,-0.0519,-89.2701,0.0002,-0.0129,1.0611,0.2469,-0.0195,4.983,0.1074,2.5841
7343,-106.6894,-4.6902,-0.0399,-0.0515,-89.2956,0.0007,-0.0159,1.08,0.1742,-0.0811,0.505,-1.9466,-0.1242
7359,-106.6894,-4.6902,-0.0399,-0.0515,-89.2956,0.0007,-0.0159,1.08,0.1742,-0.0811,0.505,-1.9466,-0.1242
7378,-106.69,-4.6531,-0.034,-0.0502,-89.2934,0.0009,-0.0249,1.1848,0.1642,-0.2689,3.1364,-0.2988,2.5664
7391,-106.69,-4.6531,-0.034,-0.0502,-89.2934,0.0009,-0.0249,1.1848,0.1642,-0.2689,3.1364,-0.2988,2.5664
7407,-106.69,-4.6531,-0.034,-0.0502,-89.2934,0.0009,-0.0249,1.1848,0.1642,-0.2689,3.1364,-0.2988,2.5664
7425,-106.6907,-4.6065,-0.0285,-0.0491,-89.3097,0.0008,-0.0184,1.2017,0.1299,0.1719,0.4412,-0.8973,-1.232
7441,-106.6907,-4.6065,-0.0285,-0.0491,-89.3097,0.0008,-0.0184,1.2017,0.1299,0.1719,0.4412,-0.8973,-1.232
7468,-106.6916,-4.5482,-0.0238,-0.0472,-89.2858,0.0002,-0.0191,1.3619,0.0949,-0.0169,3.6336,-0.7955,0.0996
7473,-106.6916,-4.5482,-0.0238,-0.0472,-89.2858,0.0002,-0.0191,1.3619,0.0949,-0.0169,3.6336,-0.7955,0.0996
7492,-106.6922,-4.5098,-0.0213,-0.0408,-89.2846,0.0,-0.017,1.2571,0.0785,0.0691,-3.5254,-0.5497,-0.0243
7505,-106.6922,-4.5098,-0.0213,-0.0408,-89.2846,0.0,-0.017,1.2571,0.0785,0.0691,-3.5254,-0.5497,-0.0243
7533,-106.6928,-4.4636,-0.0192,-0.041,-89.2851,0.0002,-0.0228,1.4559,0.0606,-0.1764,6.1134,-0.5502,-0.6791
7537,-106.6928,-4.4636,-0.0192,-0.041,-89.2851,0.0002,-0.0228,1.4559,0.0606,-0.1764,6.1134,-0.5502,-0.6791
7553,-106.6937,-4.4193,-0.0176,-0.0414,-89.2629,0.0003,-0.0247,1.5376,0.0508,-0.064,2.7874,-0.334,3.1265
7572,-106.694,-4.3843,-0.0166,-0.044,-89.2796,0.0002,-0.0244,1.696,0.0417,0.0101,7.4364,-0.4306,-1.5689
7585,-106.694,-4.3843,-0.0166,-0.044,-89.2796,0.0002,-0.0244,1.696,0.0417,0.0101,7.4364,-0.4306,-1.5689
7615,-106.6954,-4.3355,-0.0155,-0.0464,-89.196,0.0005,-0.0271,1.7755,0.0357,-0.0943,2.8011,-0.2104,4.0524
7620,-106.6954,-4.3355,-0.0155,-0.0464,-89.196,0.0005,-0.0271,1.7755,0.0357,-0.0943,2.8011,-0.2104,4.0524
7636,-106.696,-4.2751,-0.0145,-0.0475,-89.2202,-0.0001,-0.0255,1.8601,0.0275,0.0477,2.5306,-0.2439,1.6717
7652,-106.696,-4.2751,-0.0145,-0.0475,-89.2202,-0.0001,-0.0255,1.8601,0.0275,0.0477,2.5306,-0.2439,1.6717
7668,-106.697,-4.2173,-0.0138,-0.0504,-89.2131,0.0003,-0.0305,2.0002,0.0228,-0.1678,4.74,-0.1598,-3.1964
7684,-106.697,-4.2173,-0.0138,-0.0504,-89.2131,0.0003,-0.0305,2.0002,0.0228,-0.1678,4.74,-0.1598,-3.1964
7700,-106.6975,-4.1464,-0.0131,-0.0556,-89.2598,-0.0003,-0.0302,2.2504,0.0174,0.0089,7.4814,-0.1612,-1.6609
7716,-106.6975,-4.1464,-0.0131,-0.0556,-89.2598,-0.0003,-0.0302,2.2504,0.0174,0.0089,7.4814,-0.1612,-1.6609
7735,-106.6983,-4.0637,-0.0125,-0.0644,-89.2766,-0.0014,-0.0249,2.4201,0.0137,0.1537,4.8972,-0.1078,-1.2715
7762,-106.6988,-4.0079,-0.0122,-0.0689,-89.2926,-0.0016,-0.0286,2.6577,0.0114,-0.1706,10.835,-0.1024,-0.5534
7768,-106.6988,-4.0079,-0.0122,-0.0689,-89.2926,-0.0016,-0.0286,2.6577,0.0114,-0.1706,10.835,-0.1024,-0.5534
7784,-106.6996,-3.9258,-0.0119,-0.0732,-89.3043,-0.0014,-0.0315,2.8144,0.0093,-0.0955,5.1207,-0.0701,0.1011
7800,-106.6996,-3.9258,-0.0119,-0.0732,-89.3043,-0.0014,-0.0315,2.8144,0.0093,-0.0955,5.1207,-0.0701,0.1011
7816,-106.6996,-3.9258,-0.0119,-0.0732,-89.3043,-0.0014,-0.0315,2.8144,0.0093,-0.0955,5.1207,-0.0701,0.1011
7832,-106.7012,-3.7937,-0.0115,-0.0793,-89.2827,-0.0009,-0.0359,3.0534,0.0068,-0.0974,5.2723,-0.0544,2.8619
7848,-106.7022,-3.7149,-0.0113,-0.0821,-89.2858,-0.0001,-0.0435,3.1811,0.0056,-0.3004,5.0775,-0.0491,2.4139
7874,-106.7022,-3.7149,-0.0113,-0.0821,-89.2858,-0.0001,-0.0435,3.1811,0.0056,-0.3004,5.0775,-0.0491,2.4139
7893,-106.7043,-3.5692,-0.0111,-0.0846,-89.2645,0.0005,-0.0446,3.4234,0.0041,-0.026,5.5186,-0.0347,-0.3887
7906,-106.7043,-3.5692,-0.0111,-0.0846,-89.2645,0.0005,-0.0446,3.4234,0.0041,-0.026,5.5186,-0.0347,-0.3887
7934,-106.7053,-3.4971,-0.011,-0.0846,-89.258,0.0005,-0.0463,3.5193,0.0034,-0.0777,4.6028,-0.0319,0.4499
7939,-106.7053,-3.4971,-0.011,-0.0846,-89.258,0.0005,-0.0463,3.5193,0.0034,-0.0777,4.6028,-0.0319,0.4499
7955,-106.7066,-3.3958,-0.0109,-0.0867,-89.2631,0.0005,-0.0479,3.7183,0.0029,-0.0603,7.172,-0.0187,1.7169
7971,-106.7066,-3.3958,-0.0109,-0.0867,-89.2631,0.0005,-0.0479,3.7183,0.0029,-0.0603,7.172,-0.0187,1.7169
7994,-106.7082,-3.2538,-0.0108,-0.0823,-89.2812,0.0001,-0.0473,3.8295,0.0022,0.0158,2.9091,-0.0186,1.2125
8007,-106.7082,-3.2538,-0.0108,-0.0823,-89.2812,0.0001,-0.0473,3.8295,0.0022,0.0158,2.9091,-0.0186,1.2125
8036,-106.7099,-3.1052,-0.0108,-0.0798,-89.3049,-0.0003,-0.0488,4.0043,0.0016,-0.0385,4.5639,-0.0141,-0.1414
8042,-106.7099,-3.1052,-0.0108,-0.0798,-89.3049,-0.0003,-0.0488,4.0043,0.0016,-0.0385,4.5639,-0.0141,-0.1414
8058,-106.7115,-2.9616,-0.0107,-0.0825,-89.3166,-0.0005,-0.0518,4.2867,0.0013,-0.087,8.1107,-0.0109,-0.5228
8074,-106.7115,-2.9616,-0.0107,-0.0825,-89.3166,-0.0005,-0.0518,4.2867,0.0013,-0.087,8.1107,-0.0109,-0.5228
8090,-106.7115,-2.9616,-0.0107,-0.0825,-89.3166,-0.0005,-0.0518,4.2867,0.0013,-0.087,8.1107,-0.0109,-0.5228
8117,-106.714,-2.7576,-0.0107,-0.084,-89.3212,-0.0005,-0.0527,4.3825,0.0009,-0.0187,2.0485,-0.0076,0.169
8122,-106.714,-2.7576,-0.0107,-0.084,-89.3212,-0.0005,-0.0527,4.3825,0.0009,-0.0187,2.0485,-0.0076,0.169
8142,-106.7165,-2.5565,-0.0106,-0.0913,-89.2999,-0.0003,-0.0587,4.8652,0.0006,-0.1397,11.2959,-0.006,0.9766
8155,-106.7165,-2.5565,-0.0106,-0.0913,-89.2999,-0.0003,-0.0587,4.8652,0.0006,-0.1397,11.2959,-0.006,0.9766
8170,-106.7165,-2.5565,-0.0106,-0.0913,-89.2999,-0.0003,-0.0587,4.8652,0.0006,-0.1397,11.2959,-0.006,0.9766
8198,-106.7194,-2.3328,-0.0105,-0.0939,-89.2858,-0.0001,-0.0616,5.0234,0.0005,-0.0654,3.5159,-0.0043,0.6738
8205,-106.7194,-2.3328,-0.0105,-0.0939,-89.2858,-0.0001,-0.0616,5.0234,0.0005,-0.0654,3.5159,-0.0043,0.6738
8221,-106.7194,-2.3328,-0.0105,-0.0939,-89.2858,-0.0001,-0.0616,5.0234,0.0005,-0.0654,3.5159,-0.0043,0.6738
8237,-106.7217,-2.1449,-0.0105,-0.0941,-89.2871,-0.0,-0.0642,5.2233,0.0003,-0.0704,5.5278,-0.0033,0.4499
8266,-106.7231,-2.021,-0.0105,-0.0958,-89.2973,-0.0001,-0.0666,5.4851,0.0003,-0.1054,11.4054,-0.0015,0.5355
8269,-106.7231,-2.021,-0.0105,-0.0958,-89.2973,-0.0001,-0.0666,5.4851,0.0003,-0.1054,11.4054,-0.0015,0.5355
8285,-106.7248,-1.8714,-0.0105,-0.1003,-89.3084,-0.0001,-0.0691,5.6942,0.0002,-0.0936,7.8734,-0.0019,-0.4058
8301,-106.7248,-1.8714,-0.0105,-0.1003,-89.3084,-0.0001,-0.0691,5.6942,0.0002,-0.0936,7.8734,-0.0019,-0.4058
8317,-106.7248,-1.8714,-0.0105,-0.1003,-89.3084,-0.0001,-0.0691,5.6942,0.0002,-0.0936,7.8734,-0.0019,-0.4058
8333,-106.7281,-1.6092,-0.0104,-0.1057,-89.3008,-0.0001,-0.0729,6.0364,0.0002,-0.0869,7.7026,-0.0017,1.3734
8349,-106.7281,-1.6092,-0.0104,-0.1057,-89.3008,-0.0001,-0.0729,6.0364,0.0002,-0.0869,7.7026,-0.0017,1.3734
8365,-106.7308,-1.3848,-0.0104,-0.1066,-89.3011,-0.0001,-0.0757,6.2672,0.0001,-0.076,6.3184,-0.0006,1.285
8381,-106.7308,-1.3848,-0.0104,-0.1066,-89.3011,-0.0001,-0.0757,6.2672,0.0001,-0.076,6.3184,-0.0006,1.285
8397,-106.7308,-1.3848,-0.0104,-0.1066,-89.3011,-0.0001,-0.0757,6.2672,0.0001,-0.076,6.3184,-0.0006,1.285
8413,-106.735,-1.0393,-0.0104,-0.1074,-89.3071,-0.0001,-0.0808,6.6282,0.0001,-0.095,6.7278,-0.0011,-0.9748
8429,-106.735,-1.0393,-0.0104,-0.1074,-89.3071,-0.0001,-0.0808,6.6282,0.0001,-0.095,6.7278,-0.0011,-0.9748
8445,-106.7372,-0.8596,-0.0104,-0.1077,-89.2989,-0.0001,-0.0823,6.7588,0.0001,-0.0568,4.8813,-0.0007,0.3892
8461,-106.7372,-0.8596,-0.0104,-0.1077,-89.2989,-0.0001,-0.0823,6.7588,0.0001,-0.0568,4.8813,-0.0007,0.3892
8477,-106.7403,-0.6002,-0.0104,-0.1082,-89.298,-0.0001,-0.0851,6.992,0.0001,-0.0749,6.2377,-0.0005,0.4617
8493,-106.7403,-0.6002,-0.0104,-0.1082,-89.298,-0.0001,-0.0851,6.992,0.0001,-0.0749,6.2377,-0.0005,0.4617
8512,-106.7435,-0.3408,-0.0104,-0.108,-89.2996,-0.0,-0.088,7.2368,0.0,-0.0809,6.7645,-0.0003,0.3449
8525,-106.7435,-0.3408,-0.0104,-0.108,-89.2996,-0.0,-0.088,7.2368,0.0,-0.0809,6.7645,-0.0003,0.3449
8544,-106.746,-0.1319,-0.0104,-0.1088,-89.302,-0.0001,-0.0905,7.4784,0.0,-0.0887,8.5599,-0.0007,0.7556
8557,-106.746,-0.1319,-0.0104,-0.1088,-89.302,-0.0001,-0.0905,7.4784,0.0,-0.0887,8.5599,-0.0007,0.7556
8578,-106.7489,0.109,-0.0104,-0.1097,-89.3032,-0.0,-0.0936,7.7153,0.0,-0.0964,7.4729,-0.0002,0.1299
8589,-106.7489,0.109,-0.0104,-0.1097,-89.3032,-0.0,-0.0936,7.7153,0.0,-0.0964,7.4729,-0.0002,0.1299
8618,-106.7516,0.3316,-0.0103,-0.1123,-89.3028,0.0,-0.0964,7.932,0.0,-0.098,7.6567,-0.0002,0.0219
8621,-106.7516,0.3316,-0.0103,-0.1123,-89.3028,0.0,-0.0964,7.932,0.0,-0.098,7.6567,-0.0002,0.0219
8637,-106.7547,0.5876,-0.0103,-0.1151,-89.3026,0.0,-0.0995,8.185,0.0,-0.0993,8.0066,0.0004,0.0108
8653,-106.757,0.7744,-0.0103,-0.1167,-89.3027,0.0,-0.1017,8.3621,0.0,-0.0973,7.8714,-0.0005,-0.0051
8669,-106.757,0.7744,-0.0103,-0.1167,-89.3027,0.0,-0.1017,8.3621,0.0,-0.0973,7.8714,-0.0005,-0.0051
8692,-106.7603,1.0428,-0.0103,-0.1179,-89.3027,0.0,-0.1044,8.5839,0.0,-0.0865,7.0229,-0.0001,-0.0082
8701,-106.7603,1.0428,-0.0103,-0.1179,-89.3027,0.0,-0.1044,8.5839,0.0,-0.0865,7.0229,-0.0001,-0.0082
8727,-106.764,1.349,-0.0103,-0.1176,-89.3027,0.0,-0.1073,8.8137,0.0,-0.0804,6.5508,-0.0003,-0.0243
8733,-106.764,1.349,-0.0103,-0.1176,-89.3027,0.0,-0.1073,8.8137,0.0,-0.0804,6.5508,-0.0003,-0.0243
8749,-106.764,1.349,-0.0103,-0.1176,-89.3027,0.0,-0.1073,8.8137,0.0,-0.0804,6.5508,-0.0003,-0.0243
8765,-106.7678,1.6638,-0.0103,-0.116,-89.3029,0.0,-0.1099,9.0287,-0.0,-0.0748,6.1101,-0.0005,-0.0676
8781,-106.7678,1.6638,-0.0103,-0.116,-89.3029,0.0,-0.1099,9.0287,-0.0,-0.0748,6.1101,-0.0005,-0.0676
8797,-106.7718,1.9922,-0.0103,-0.1132,-89.3032,0.0,-0.1124,9.2343,0.0,-0.0701,5.7324,0.0004,-0.1945
8816,-106.775,2.2499,-0.0103,-0.1104,-89.299,0.0,-0.114,9.3754,0.0,-0.0596,5.1086,0.0004,0.4997
8829,-106.775,2.2499,-0.0103,-0.1104,-89.299,0.0,-0.114,9.3754,0.0,-0.0596,5.1086,0.0004,0.4997
8845,-106.775,2.2499,-0.0103,-0.1104,-89.299,0.0,-0.114,9.3754,0.0,-0.0596,5.1086,0.0004,0.4997
8872,-106.7807,2.7241,-0.0104,-0.1039,-89.3084,-0.0001,-0.1166,9.5989,0.0,-0.0509,4.4848,-0.0001,-1.5939
8877,-106.7807,2.7241,-0.0104,-0.1039,-89.3084,-0.0001,-0.1166,9.5989,0.0,-0.0509,4.4848,-0.0001,-1.5939
8893,-106.7807,2.7241,-0.0104,-0.1039,-89.3084,-0.0001,-0.1166,9.5989,0.0,-0.0509,4.4848,-0.0001,-1.5939
8915,-106.7852,3.0948,-0.0104,-0.0978,-89.3107,-0.0001,-0.1185,9.7558,-0.0,-0.0499,4.1044,-0.0002,-1.6491
8925,-106.7852,3.0948,-0.0104,-0.0978,-89.3107,-0.0001,-0.1185,9.7558,-0.0,-0.0499,4.1044,-0.0002,-1.6491
8956,-106.7893,3.4322,-0.0105,-0.0934,-89.3103,-0.0001,-0.1204,9.9176,0.0,-0.0563,4.7261,0.0003,-0.9233
8966,-106.7893,3.4322,-0.0105,-0.0934,-89.3103,-0.0001,-0.1204,9.9176,0.0,-0.0563,4.7261,0.0003,-0.9233
8985,-106.7947,3.8766,-0.0105,-0.0898,-89.3046,-0.0,-0.1227,10.1324,-0.0,-0.0522,4.855,-0.0007,0.7452
8998,-106.7947,3.8766,-0.0105,-0.0898,-89.3046,-0.0,-0.1227,10.1324,-0.0,-0.0522,4.855,-0.0007,0.7452
9021,-106.7982,4.1672,-0.0105,-0.0879,-89.3139,-0.0001,-0.1242,10.2628,0.0,-0.0526,4.5868,0.0009,-1.0244
9030,-106.7982,4.1672,-0.0105,-0.0879,-89.3139,-0.0001,-0.1242,10.2628,0.0,-0.0526,4.5868,0.0009,-1.0244
9059,-106.8026,4.5328,-0.0105,-0.0856,-89.3132,-0.0001,-0.1259,10.4213,0.0,-0.0484,4.4924,0.0001,-0.7502
9062,-106.8026,4.5328,-0.0105,-0.0856,-89.3132,-0.0001,-0.1259,10.4213,0.0,-0.0484,4.4924,0.0001,-0.7502
9078,-106.8026,4.5328,-0.0105,-0.0856,-89.3132,-0.0001,-0.1259,10.4213,0.0,-0.0484,4.4924,0.0001,-0.7502
9096,-106.8069,4.8888,-0.0105,-0.0838,-89.3126,-0.0002,-0.1276,10.5764,0.0,-0.0498,4.5805,0.0,-0.4785
9115,-106.8106,5.1916,-0.0106,-0.0825,-89.307,-0.0001,-0.129,10.7016,0.0,-0.0474,4.4098,-0.0002,0.6819
9128,-106.8106,5.1916,-0.0106,-0.0825,-89.307,-0.0001,-0.129,10.7016,0.0,-0.0474,4.4098,-0.0002,0.6819
9154,-106.8147,5.5363,-0.0106,-0.081,-89.3085,-0.0001,-0.1307,10.8413,0.0,-0.0528,4.3711,0.0001,0.264
9160,-106.8147,5.5363,-0.0106,-0.081,-89.3085,-0.0001,-0.1307,10.8413,0.0,-0.0528,4.3711,0.0001,0.264
9176,-106.8197,5.9441,-0.0106,-0.0793,-89.3079,-0.0001,-0.1325,10.9998,-0.0,-0.0499,4.2523,-0.0003,0.4214
9192,-106.8197,5.9441,-0.0106,-0.0793,-89.3079,-0.0001,-0.1325,10.9998,-0.0,-0.0499,4.2523,-0.0003,0.4214
9208,-106.8197,5.9441,-0.0106,-0.0793,-89.3079,-0.0001,-0.1325,10.9998,-0.0,-0.0499,4.2523,-0.0003,0.4214
9225,-106.8244,6.3364,-0.0106,-0.0776,-89.3081,-0.0001,-0.1342,11.1434,0.0,-0.0486,4.0612,0.0004,0.3913
9240,-106.8244,6.3364,-0.0106,-0.0776,-89.3081,-0.0001,-0.1342,11.1434,0.0,-0.0486,4.0612,0.0004,0.3913
9264,-106.8285,6.6787,-0.0106,-0.0762,-89.309,-0.0001,-0.1358,11.2666,0.0,-0.0499,4.0367,-0.0,0.0984
9293,-106.8334,7.087,-0.0106,-0.0745,-89.309,-0.0001,-0.1375,11.408,0.0,-0.0476,3.9331,0.0,0.1044
9297,-106.8334,7.087,-0.0106,-0.0745,-89.309,-0.0001,-0.1375,11.408,0.0,-0.0476,3.9331,0.0,0.1044
9313,-106.8334,7.087,-0.0106,-0.0745,-89.309,-0.0001,-0.1375,11.408,0.0,-0.0476,3.9331,0.0,0.1044
9335,-106.839,7.551,-0.0106,-0.0726,-89.3095,-0.0001,-0.1393,11.5612,-0.0,-0.0463,3.7968,-0.0005,-0.0335
9345,-106.839,7.551,-0.0106,-0.0726,-89.3095,-0.0001,-0.1393,11.5612,-0.0,-0.0463,3.7968,-0.0005,-0.0335
9373,-106.8446,8.0141,-0.0106,-0.0706,-89.3097,-0.0001,-0.1411,11.707,-0.0,-0.0446,3.6678,0.0002,-0.0679
9377,-106.8446,8.0141,-0.0106,-0.0706,-89.3097,-0.0001,-0.1411,11.707,-0.0,-0.0446,3.6678,0.0002,-0.0679
9393,-106.8446,8.0141,-0.0106,-0.0706,-89.3097,-0.0001,-0.1411,11.707,-0.0,-0.0446,3.6678,0.0002,-0.0679
9410,-106.8502,8.4759,-0.0107,-0.0686,-89.31,-0.0,-0.1428,11.8458,0.0,-0.043,3.5457,0.0003,-0.1166
9426,-106.8502,8.4759,-0.0107,-0.0686,-89.31,-0.0,-0.1428,11.8458,0.0,-0.043,3.5457,0.0003,-0.1166
9442,-106.8556,8.924,-0.0107,-0.0668,-89.3101,-0.0,-0.1444,11.9749,0.0,-0.0415,3.4365,0.0001,-0.1374
9458,-106.8556,8.924,-0.0107,-0.0668,-89.3101,-0.0,-0.1444,11.9749,0.0,-0.0415,3.4365,0.0001,-0.1374
9474,-106.8595,9.2491,-0.0107,-0.0655,-89.309,-0.0,-0.1454,12.0656,0.0,-0.0397,3.3566,-0.0001,0.1159
9490,-106.8595,9.2491,-0.0107,-0.0655,-89.309,-0.0,-0.1454,12.0656,0.0,-0.0397,3.3566,-0.0001,0.1159
9520,-106.8655,9.7455,-0.0107,-0.0636,-89.3094,-0.0,-0.1471,12.1999,0.0,-0.0399,3.2847,0.0,-0.0286
9528,-106.8655,9.7455,-0.0107,-0.0636,-89.3094,-0.0,-0.1471,12.1999,0.0,-0.0399,3.2847,0.0,-0.0286
9551,-106.8709,10.1929,-0.0107,-0.0619,-89.3095,-0.0,-0.1485,12.3164,-0.0,-0.0387,3.1976,-0.0002,-0.0228
9567,-106.8709,10.1929,-0.0107,-0.0619,-89.3095,-0.0,-0.1485,12.3164,-0.0,-0.0387,3.1976,-0.0002,-0.0228
9598,-106.8765,10.6614,-0.0107,-0.0603,-89.3095,0.0,-0.1499,12.4342,-0.0,-0.0377,3.1148,0.0001,-0.0231
9608,-106.8765,10.6614,-0.0107,-0.0603,-89.3095,0.0,-0.1499,12.4342,-0.0,-0.0377,3.1148,0.0001,-0.0231
9627,-106.8828,11.1812,-0.0107,-0.0586,-89.3093,-0.0,-0.1514,12.5601,0.0,-0.0365,3.0299,0.0001,0.0055
9640,-106.8828,11.1812,-0.0107,-0.0586,-89.3093,-0.0,-0.1514,12.5601,0.0,-0.0365,3.0299,0.0001,0.0055
9656,-106.8867,11.5056,-0.0107,-0.0576,-89.3093,0.0,-0.1523,12.6361,-0.0,-0.0356,2.9535,-0.0002,-0.0028
9683,-106.8895,11.739,-0.0107,-0.0568,-89.3093,-0.0,-0.1529,12.687,-0.0,-0.0334,2.7665,-0.0003,-0.0024
9701,-106.8939,12.1026,-0.0107,-0.0553,-89.3093,0.0,-0.1538,12.7592,0.0,-0.0304,2.5293,0.0002,0.0025
9717,-106.8939,12.1026,-0.0107,-0.0553,-89.3093,0.0,-0.1538,12.7592,0.0,-0.0304,2.5293,0.0002,0.0025
9742,-106.8997,12.5844,-0.0108,-0.0528,-89.3093,0.0,-0.1548,12.8428,-0.0,-0.0268,2.2218,-0.0,0.0024
9749,-106.8997,12.5844,-0.0108,-0.0528,-89.3093,0.0,-0.1548,12.8428,-0.0,-0.0268,2.2218,-0.0,0.0024
9765,-106.9044,12.976,-0.0108,-0.0505,-89.3093,0.0,-0.1555,12.9012,0.0,-0.0232,1.9217,0.0002,0.0003
9781,-106.9044,12.976,-0.0108,-0.0505,-89.3093,0.0,-0.1555,12.9012,0.0,-0.0232,1.9217,0.0002,0.0003
9801,-106.9105,13.4769,-0.0108,-0.047,-89.3093,-0.0,-0.1563,12.9669,0.0,-0.0205,1.6976,-0.0001,0.0005
9813,-106.9105,13.4769,-0.0108,-0.047,-89.3093,-0.0,-0.1563,12.9669,0.0,-0.0205,1.6976,-0.0001,0.0005
9834,-106.9105,13.4769,-0.0108,-0.047,-89.3093,-0.0,-0.1563,12.9669,0.0,-0.0205,1.6976,-0.0001,0.0005
9860,-106.9183,14.1268,-0.0108,-0.0422,-89.3093,-0.0,-0.1572,13.0385,-0.0,-0.0173,1.433,-0.0004,-0.0009
9866,-106.9183,14.1268,-0.0108,-0.0422,-89.3093,-0.0,-0.1572,13.0385,-0.0,-0.0173,1.433,-0.0004,-0.0009
9898,-106.9236,14.568,-0.0109,-0.0391,-89.3093,0.0,-0.1577,13.0788,-0.0,-0.0144,1.1926,0.0004,-0.0004
9914,-106.9236,14.568,-0.0109,-0.0391,-89.3093,0.0,-0.1577,13.0788,-0.0,-0.0144,1.1926,0.0004,-0.0004
9931,-106.9323,15.0481,-0.0109,-0.0351,-89.4365,0.0195,-0.3432,13.0965,0.0001,-5.0612,0.4843,0.0039,-6.3918
9946,-106.9323,15.0481,-0.0109,-0.0351,-89.4365,0.0195,-0.3432,13.0965,0.0001,-5.0612,0.4843,0.0039,-6.3918
9965,-106.9508,15.5776,-0.0109,-0.0285,-90.0,0.0733,-0.7046,13.0608,0.0006,-8.9276,-0.8819,0.0124,-19.5714
9978,-106.9508,15.5776,-0.0109,-0.0285,-90.0,0.0733,-0.7046,13.0608,0.0006,-8.9276,-0.8819,0.0124,-19.5714
10003,-106.9729,15.9817,-0.011,-0.0211,-90.8486,0.125,-1.0193,13.0003,0.001,-10.1401,-1.9511,0.0121,-32.2216
10010,-106.9729,15.9817,-0.011,-0.0211,-90.8486,0.125,-1.0193,13.0003,0.001,-10.1401,-1.9511,0.0121,-32.2216
10026,-106.9729,15.9817,-0.011,-0.0211,-90.8486,0.125,-1.0193,13.0003,0.001,-10.1401,-1.9511,0.0121,-32.2216
10059,-107.0237,16.6378,-0.011,-0.0049,-93.2041,0.2072,-1.5411,12.8494,0.0013,-10.2625,-2.967,0.0049,-56.9391
10063,-107.0237,16.6378,-0.011,-0.0049,-93.2041,0.2072,-1.5411,12.8494,0.0013,-10.2625,-2.967,0.0049,-56.9391
10094,-107.0664,17.0757,-0.0111,0.0074,-95.5521,0.247,-1.8438,12.7339,0.0012,-8.8047,-3.3607,-0.003,-75.2602
10100,-107.0664,17.0757,-0.0111,0.0074,-95.5521,0.247,-1.8438,12.7339,0.0012,-8.8047,-3.3607,-0.003,-75.2602
10120,-107.1175,17.5422,-0.0111,0.0201,-98.8315,0.2702,-2.1074,12.6065,0.0008,-7.1039,-3.4334,-0.0086,-96.3469
10132,-107.1175,17.5422,-0.0111,0.0201,-98.8315,0.2702,-2.1074,12.6065,0.0008,-7.1039,-3.4334,-0.0086,-96.3469
10155,-107.1615,17.9247,-0.0112,0.0283,-102.1479,0.2715,-2.2522,12.5119,0.0004,-4.6973,-3.066,-0.0128,-114.2946
10164,-107.1615,17.9247,-0.0112,0.0283,-102.1479,0.2715,-2.2522,12.5119,0.0004,-4.6973,-3.066,-0.0128,-114.2946
10194,-107.2009,18.2661,-0.0112,0.0335,-105.6458,0.2592,-2.3305,12.434,0.0001,-2.8074,-2.7966,-0.0125,-130.9895
10202,-107.2009,18.2661,-0.0112,0.0335,-105.6458,0.2592,-2.3305,12.434,0.0001,-2.8074,-2.7966,-0.0125,-130.9895
10222,-107.2564,18.7721,-0.0112,0.0353,-111.7959,0.2197,-2.3311,12.3397,-0.0005,-0.0137,-2.241,-0.0135,-156.3858
10234,-107.2564,18.7721,-0.0112,0.0353,-111.7959,0.2197,-2.3311,12.3397,-0.0005,-0.0137,-2.241,-0.0135,-156.3858
10255,-107.2946,19.1691,-0.0112,0.0303,-117.4859,0.1717,-2.2187,12.288,-0.0009,3.3368,-1.536,-0.0118,-176.3452
10266,-107.2946,19.1691,-0.0112,0.0303,-117.4859,0.1717,-2.2187,12.288,-0.0009,3.3368,-1.536,-0.0118,-176.3452
10282,-107.2946,19.1691,-0.0112,0.0303,-117.4859,0.1717,-2.2187,12.288,-0.0009,3.3368,-1.536,-0.0118,-176.3452
10298,-107.3287,19.6803,-0.0111,0.0079,-125.8104,0.0773,-1.7372,12.2988,-0.0014,10.8929,0.2451,-0.0114,-195.0275
10314,-107.3287,19.6803,-0.0111,0.0079,-125.8104,0.0773,-1.7372,12.2988,-0.0014,10.8929,0.2451,-0.0114,-195.0275
10339,-107.3359,20.0143,-0.0109,-0.0192,-131.7047,-0.0045,-1.2435,12.3056,-0.0018,16.8185,0.2312,-0.0149,-203.398
10346,-107.3359,20.0143,-0.0109,-0.0192,-131.7047,-0.0045,-1.2435,12.3056,-0.0018,16.8185,0.2312,-0.0149,-203.398
10367,-107.3288,20.3427,-0.0107,-0.0525,-137.7914,-0.0907,-0.6575,12.2761,-0.0003,19.9951,-1.0054,0.0512,-209.6535
10383,-107.3288,20.3427,-0.0107,-0.0525,-137.7914,-0.0907,-0.6575,12.2761,-0.0003,19.9951,-1.0054,0.0512,-209.6535
10408,-107.2907,20.8134,-0.0103,-0.106,-146.9836,-0.2123,0.3063,12.1285,0.0013,22.4077,-3.4333,0.0383,-216.1218
10415,-107.2907,20.8134,-0.0103,-0.106,-146.9836,-0.2123,0.3063,12.1285,0.0013,22.4077,-3.4333,0.0383,-216.1218
10431,-107.257,21.0548,-0.01,-0.1342,-151.9227,-0.2723,0.8412,11.9896,0.0018,23.5966,-6.1255,0.0196,-218.7086
10450,-107.1887,21.4033,-0.0097,-0.1756,-159.3814,-0.3585,1.647,11.6993,0.0021,23.8618,-8.5973,0.0085,-222.0996
10463,-107.1887,21.4033,-0.0097,-0.1756,-159.3814,-0.3585,1.647,11.6993,0.0021,23.8618,-8.5973,0.0085,-222.0996
10479,-107.1161,21.6814,-0.0094,-0.2078,-165.6653,-0.4244,2.3078,11.3807,0.0021,23.5383,-11.3487,0.0021,-224.7229
10511,-107.1161,21.6814,-0.0094,-0.2078,-165.6653,-0.4244,2.3078,11.3807,0.0021,23.5383,-11.3487,0.0021,-224.7229
10527,-106.997,22.0417,-0.009,-0.243,-174.3948,-0.5165,3.0479,10.6795,0.0023,19.1375,-18.1331,0.0038,-226.3881
10543,-106.997,22.0417,-0.009,-0.243,-174.3948,-0.5165,3.0479,10.6795,0.0023,19.1375,-18.1331,0.0038,-226.3881
10562,-106.8677,22.3626,-0.0088,-0.2634,176.9625,-0.6164,3.5379,9.7817,0.0023,12.8879,-23.6136,0.0018,-227.661
10575,-106.8677,22.3626,-0.0088,-0.2634,176.9625,-0.6164,3.5379,9.7817,0.0023,12.8879,-23.6136,0.0018,-227.661
10591,-106.7872,22.5406,-0.0087,-0.27,171.693,-0.6756,3.7201,9.1765,0.0023,7.8778,-26.1615,-0.0029,-227.8407
10607,-106.6909,22.7413,-0.0086,-0.2689,165.2564,-0.749,3.6321,8.4823,0.0022,-3.0881,-24.3587,-0.0029,-222.2036
10623,-106.6909,22.7413,-0.0086,-0.2689,165.2564,-0.749,3.6321,8.4823,0.0022,-3.0881,-24.3587,-0.0029,-222.2036
10639,-106.603,22.9555,-0.0089,-0.2379,158.4806,-0.795,3.0082,7.9717,-0.0015,-19.4533,-15.9191,-0.116,-205.2011
10655,-106.603,22.9555,-0.0089,-0.2379,158.4806,-0.795,3.0082,7.9717,-0.0015,-19.4533,-15.9191,-0.116,-205.2011
10671,-106.603,22.9555,-0.0089,-0.2379,158.4806,-0.795,3.0082,7.9717,-0.0015,-19.4533,-15.9191,-0.116,-205.2011
10687,-106.5349,23.1862,-0.0093,-0.1812,151.2843,-0.8459,2.2026,7.4247,0.0042,-22.0678,-14.9847,0.1569,-193.1262
10703,-106.5349,23.1862,-0.0093,-0.1812,151.2843,-0.8459,2.2026,7.4247,0.0042,-22.0678,-14.9847,0.1569,-193.1262
10723,-106.5016,23.4226,-0.0097,-0.112,143.8939,-0.9016,1.2454,7.0284,0.0025,-24.2783,-10.0518,-0.0429,-183.3371
10735,-106.5016,23.4226,-0.0097,-0.112,143.8939,-0.9016,1.2454,7.0284,0.0025,-24.2783,-10.0518,-0.0429,-183.3371
10755,-106.5043,23.6083,-0.01,-0.0581,138.4976,-0.9153,0.4419,7.0001,0.0014,-26.0124,-0.9172,-0.036,-168.967
10771,-106.5191,23.7295,-0.0103,-0.0203,135.3522,-0.9089,-0.0566,7.0743,0.0009,-25.5323,3.8007,-0.0281,-158.4824
10783,-106.5191,23.7295,-0.0103,-0.0203,135.3522,-0.9089,-0.0566,7.0743,0.0009,-25.5323,3.8007,-0.0281,-158.4824
10799,-106.5567,23.9137,-0.0107,0.0331,131.1504,-0.886,-0.7386,7.2528,0.0001,-23.9581,6.2721,-0.0267,-141.9024
10815,-106.5567,23.9137,-0.0107,0.0331,131.1504,-0.886,-0.7386,7.2528,0.0001,-23.9581,6.2721,-0.0267,-141.9024
10831,-106.5567,23.9137,-0.0107,0.0331,131.1504,-0.886,-0.7386,7.2528,0.0001,-23.9581,6.2721,-0.0267,-141.9024
10847,-106.6352,24.1904,-0.0111,0.0976,126.0441,-0.8302,-1.4992,7.6192,-0.0007,-18.9846,9.1451,-0.0194,-118.4636
10866,-106.6891,24.359,-0.0114,0.1271,123.4727,-0.778,-1.7462,7.8626,-0.001,-10.7529,10.5928,-0.0149,-108.9995
10888,-106.7424,24.5239,-0.0116,0.1485,121.2071,-0.714,-1.8544,8.0887,-0.0014,-5.005,10.458,-0.0173,-103.0194
10895,-106.7424,24.5239,-0.0116,0.1485,121.2071,-0.714,-1.8544,8.0887,-0.0014,-5.005,10.458,-0.0173,-103.0194
10911,-106.7424,24.5239,-0.0116,0.1485,121.2071,-0.714,-1.8544,8.0887,-0.0014,-5.005,10.458,-0.0173,-103.0194
10942,-106.8589,24.907,-0.0119,0.1757,116.4984,-0.5222,-1.764,8.5503,-0.0024,1.8986,9.6934,-0.0212,-97.1565
10954,-106.8589,24.907,-0.0119,0.1757,116.4984,-0.5222,-1.764,8.5503,-0.0024,1.8986,9.6934,-0.0212,-97.1565
10975,-106.9464,25.2432,-0.012,0.181,112.6811,-0.3479,-1.471,8.8847,-0.0031,7.394,8.4393,-0.0166,-95.875
10986,-106.9464,25.2432,-0.012,0.181,112.6811,-0.3479,-1.471,8.8847,-0.0031,7.394,8.4393,-0.0166,-95.875
11018,-106.9985,25.48,-0.0121,0.1789,110.0885,-0.2361,-1.2084,9.0744,-0.0033,9.7252,7.0249,-0.008,-96.2098
11043,-107.0682,25.8517,-0.0122,0.1736,106.3765,-0.11,-1.064,9.3745,-0.0032,3.5193,7.3157,0.001,-84.5453
11050,-107.0682,25.8517,-0.0122,0.1736,106.3765,-0.11,-1.064,9.3745,-0.0032,3.5193,7.3157,0.001,-84.5453
11074,-107.1169,26.1271,-0.0123,0.1681,104.1655,-0.0724,-1.178,9.5112,-0.0027,-3.8584,4.6275,0.0181,-69.932
11082,-107.1169,26.1271,-0.0123,0.1681,104.1655,-0.0724,-1.178,9.5112,-0.0027,-3.8584,4.6275,0.0181,-69.932
11098,-107.1169,26.1271,-0.0123,0.1681,104.1655,-0.0724,-1.178,9.5112,-0.0027,-3.8584,4.6275,0.0181,-69.932
11120,-107.1897,26.5228,-0.0122,0.1547,101.9631,-0.0849,-1.5034,9.6082,-0.0013,-7.8037,2.3264,0.0334,-41.9394
11139,-107.2362,26.7645,-0.0122,0.1439,101.1188,-0.1025,-1.6373,9.6509,-0.0005,-5.3088,1.6943,0.0328,-29.6624
11155,-107.2362,26.7645,-0.0122,0.1439,101.1188,-0.1025,-1.6373,9.6509,-0.0005,-5.3088,1.6943,0.0328,-29.6624
11174,-107.3145,27.173,-0.012,0.1245,100.2517,-0.112,-1.73,9.7299,0.0001,-2.1942,1.8697,0.0143,-15.3495
11187,-107.3145,27.173,-0.012,0.1245,100.2517,-0.112,-1.73,9.7299,0.0001,-2.1942,1.8697,0.0143,-15.3495
11203,-107.3145,27.173,-0.012,0.1245,100.2517,-0.112,-1.73,9.7299,0.0001,-2.1942,1.8697,0.0143,-15.3495
11219,-107.3941,27.6011,-0.0119,0.1048,99.7726,-0.0977,-1.7361,9.7959,0.0001,-0.138,1.5027,-0.0006,-8.9256
11235,-107.3941,27.6011,-0.0119,0.1048,99.7726,-0.0977,-1.7361,9.7959,0.0001,-0.138,1.5027,-0.0006,-8.9256
11251,-107.3941,27.6011,-0.0119,0.1048,99.7726,-0.0977,-1.7361,9.7959,0.0001,-0.138,1.5027,-0.0006,-8.9256
11279,-107.4851,28.1155,-0.0109,0.1282,99.4962,0.0641,-1.7163,9.8559,0.0433,0.3785,1.1469,0.8256,-4.6269
11283,-107.4851,28.1155,-0.0109,0.1282,99.4962,0.0641,-1.7163,9.8559,0.0433,0.3785,1.1469,0.8256,-4.6269
11299,-107.4851,28.1155,-0.0109,0.1282,99.4962,0.0641,-1.7163,9.8559,0.0433,0.3785,1.1469,0.8256,-4.6269
11315,-107.5487,28.4782,-0.0109,0.1025,99.4045,0.0178,-1.6934,9.8995,-0.0188,0.6223,1.1881,-1.6913,-2.9514
11334,-107.5935,28.7397,-0.0111,0.0799,99.3726,-0.0124,-1.6756,9.9175,-0.0128,0.6755,0.6794,0.2282,-0.3399
11347,-107.5935,28.7397,-0.0111,0.0799,99.3726,-0.0124,-1.6756,9.9175,-0.0128,0.6755,0.6794,0.2282,-0.3399
11366,-107.6463,29.0521,-0.0113,0.0626,99.3414,-0.0215,-1.6644,9.9464,-0.0074,0.3534,0.9188,0.1713,-0.2413
11379,-107.6463,29.0521,-0.0113,0.0626,99.3414,-0.0215,-1.6644,9.9464,-0.0074,0.3534,0.9188,0.1713,-0.2413
11395,-107.6463,29.0521,-0.0113,0.0626,99.3414,-0.0215,-1.6644,9.9464,-0.0074,0.3534,0.9188,0.1713,-0.2413
11414,-107.7139,29.4572,-0.0114,0.0483,99.3159,-0.0197,-1.6566,9.9792,-0.0038,0.1928,0.8082,0.09,-0.9053
11435,-107.7544,29.7021,-0.0114,0.0422,99.3125,-0.0168,-1.6537,9.9954,-0.0024,0.1176,0.6602,0.0548,0.2147
11443,-107.7544,29.7021,-0.0114,0.0422,99.3125,-0.0168,-1.6537,9.9954,-0.0024,0.1176,0.6602,0.0548,0.2147
11459,-107.8002,29.9789,-0.0114,0.0366,99.3015,-0.0135,-1.6516,10.0099,-0.0015,0.0765,0.522,0.0352,-0.8493
11483,-107.8002,29.9789,-0.0114,0.0366,99.3015,-0.0135,-1.6516,10.0099,-0.0015,0.0765,0.522,0.0352,-0.8493
11502,-107.877,30.4454,-0.0114,0.0291,99.3025,-0.0091,-1.6491,10.0255,-0.0005,0.0539,0.3361,0.0206,0.5584
11515,-107.877,30.4454,-0.0114,0.0291,99.3025,-0.0091,-1.6491,10.0255,-0.0005,0.0539,0.3361,0.0206,0.5584
11531,-107.877,30.4454,-0.0114,0.0291,99.3025,-0.0091,-1.6491,10.0255,-0.0005,0.0539,0.3361,0.0206,0.5584
11552,-107.9498,30.8891,-0.0104,-0.022,99.2883,0.0452,-1.6577,10.044,-0.0079,-0.1942,0.4167,-0.1683,-1.0655
11563,-107.9498,30.8891,-0.0104,-0.022,99.2883,0.0452,-1.6577,10.044,-0.0079,-0.1942,0.4167,-0.1683,-1.0655
11595,-107.9972,31.176,-0.0108,-0.005,99.2901,0.0185,-1.6534,10.0625,-0.0058,0.1496,0.6489,0.0753,0.6428
11605,-107.9972,31.176,-0.0108,-0.005,99.2901,0.0185,-1.6534,10.0625,-0.0058,0.1496,0.6489,0.0753,0.6428
11629,-108.0707,31.6233,-0.011,0.0065,99.278,0.0054,-1.652,10.0824,-0.0032,0.0316,0.4501,0.0589,-0.6388
11637,-108.0707,31.6233,-0.011,0.0065,99.278,0.0054,-1.652,10.0824,-0.0032,0.0316,0.4501,0.0589,-0.6388
11653,-108.0707,31.6233,-0.011,0.0065,99.278,0.0054,-1.652,10.0824,-0.0032,0.0316,0.4501,0.0589,-0.6388
11669,-108.1303,31.9868,-0.0111,0.0098,99.2748,0.0027,-1.6528,10.0994,-0.0019,-0.0223,0.4702,0.0356,-0.6129
11685,-108.1303,31.9868,-0.0111,0.0098,99.2748,0.0027,-1.6528,10.0994,-0.0019,-0.0223,0.4702,0.0356,-0.6129
11701,-108.1937,32.3746,-0.0112,0.0108,99.2724,0.0018,-1.6536,10.1121,-0.001,-0.0212,0.3313,0.0221,-0.7256
11717,-108.1937,32.3746,-0.0112,0.0108,99.2724,0.0018,-1.6536,10.1121,-0.001,-0.0212,0.3313,0.0221,-0.7256
11733,-108.2586,32.7716,-0.0112,0.0105,99.271,0.0015,-1.6546,10.1231,-0.0005,-0.0244,0.2797,0.013,-0.7596
11749,-108.2586,32.7716,-0.0112,0.0105,99.271,0.0015,-1.6546,10.1231,-0.0005,-0.0244,0.2797,0.013,-0.7596
11765,-108.2586,32.7716,-0.0112,0.0105,99.271,0.0015,-1.6546,10.1231,-0.0005,-0.0244,0.2797,0.013,-0.7596
11782,-108.3281,33.1968,-0.0112,0.0103,99.2744,0.0013,-1.6584,10.1509,-0.0002,-0.0904,0.6649,0.0071,0.377
11797,-108.3281,33.1968,-0.0112,0.0103,99.2744,0.0013,-1.6584,10.1509,-0.0002,-0.0904,0.6649,0.0071,0.377
11813,-108.3281,33.1968,-0.0112,0.0103,99.2744,0.0013,-1.6584,10.1509,-0.0002,-0.0904,0.6649,0.0071,0.377
11829,-108.3979,33.6238,-0.0112,0.0104,99.2708,0.0012,-1.6623,10.1776,-0.0001,-0.0929,0.6339,0.0031,-0.3807
11845,-108.3979,33.6238,-0.0112,0.0104,99.2708,0.0012,-1.6623,10.1776,-0.0001,-0.0929,0.6339,0.0031,-0.3807
11861,-108.4615,34.0135,-0.0112,0.0103,99.2695,0.001,-1.6645,10.1923,-0.0,-0.0568,0.3848,0.0021,-0.6529
11877,-108.4615,34.0135,-0.0112,0.0103,99.2695,0.001,-1.6645,10.1923,-0.0,-0.0568,0.3848,0.0021,-0.6529
11893,-108.4615,34.0135,-0.0112,0.0103,99.2695,0.001,-1.6645,10.1923,-0.0,-0.0568,0.3848,0.0021,-0.6529
11909,-108.5268,34.4134,-0.0112,0.0096,99.2691,0.0009,-1.6659,10.2019,0.0,-0.0362,0.2443,0.0009,-0.7236
11925,-108.5268,34.4134,-0.0112,0.0096,99.2691,0.0009,-1.6659,10.2019,0.0,-0.0362,0.2443,0.0009,-0.7236
11945,-108.5953,34.8331,-0.0112,0.0093,99.2728,0.0007,-1.67,10.2286,0.0,-0.1005,0.65,0.0004,0.3364
11957,-108.5953,34.8331,-0.0112,0.0093,99.2728,0.0007,-1.67,10.2286,0.0,-0.1005,0.65,0.0004,0.3364
11977,-108.6474,35.1519,-0.0112,0.0095,99.2724,0.0006,-1.6734,10.2496,0.0,-0.1076,0.6757,0.0002,0.2357
11989,-108.6474,35.1519,-0.0112,0.0095,99.2724,0.0006,-1.6734,10.2496,0.0,-0.1076,0.6757,0.0002,0.2357
12005,-108.6888,35.4053,-0.0112,0.0097,99.2703,0.0006,-1.6758,10.2647,0.0,-0.099,0.6134,-0.0001,-0.2832
12021,-108.6888,35.4053,-0.0112,0.0097,99.2703,0.0006,-1.6758,10.2647,0.0,-0.099,0.6134,-0.0001,-0.2832
12038,-108.7481,35.769,-0.0112,0.0098,99.2696,0.0005,-1.6786,10.2819,0.0,-0.078,0.4841,-0.0001,-0.4356
12053,-108.7481,35.769,-0.0112,0.0098,99.2696,0.0005,-1.6786,10.2819,0.0,-0.078,0.4841,-0.0001,-0.4356
12069,-108.8004,36.0894,-0.0112,0.0098,99.2702,0.0004,-1.6813,10.2991,0.0,-0.0882,0.5519,-0.0002,-0.2461
12085,-108.8004,36.0894,-0.0112,0.0098,99.2702,0.0004,-1.6813,10.2991,0.0,-0.0882,0.5519,-0.0002,-0.2461
12101,-108.8004,36.0894,-0.0112,0.0098,99.2702,0.0004,-1.6813,10.2991,0.0,-0.0882,0.5519,-0.0002,-0.2461
12117,-108.8004,36.0894,-0.0112,0.0098,99.2702,0.0004,-1.6813,10.2991,0.0,-0.0882,0.5519,-0.0002,-0.2461
12133,-108.903,36.7177,-0.0112,0.0096,99.2731,0.0003,-1.6857,10.3264,0.0,-0.0721,0.4494,0.0001,0.4142
12149,-108.903,36.7177,-0.0112,0.0096,99.2731,0.0003,-1.6857,10.3264,0.0,-0.0721,0.4494,0.0001,0.4142
12165,-108.9574,37.0511,-0.0112,0.0094,99.2727,0.0003,-1.6883,10.3421,-0.0,-0.0799,0.4866,-0.0006,0.289
12181,-108.9574,37.0511,-0.0112,0.0094,99.2727,0.0003,-1.6883,10.3421,-0.0,-0.0799,0.4866,-0.0006,0.289
12197,-109.0146,37.4013,-0.0112,0.0092,99.2729,0.0002,-1.6908,10.3577,0.0,-0.075,0.4601,0.0004,0.3402
