timestamp,x,y,z,pitch,yaw,roll,vx,vy,vz,ax,ay,az,yaw_rate
1168,-106.6867,-4.8475,-0.0777,0.0,-89.3578,0.0,0.0,-0.0,0.0545,-0.0,-0.0,6.5996,-0.0
1184,-106.6867,-4.847,-0.0726,-0.0009,-89.3578,0.0,-0.0005,0.0456,0.177,-0.0139,1.2384,3.3249,-0.0
1200,-106.6867,-4.847,-0.0726,-0.0009,-89.3578,0.0,-0.0005,0.0456,0.177,-0.0139,1.2384,3.3249,-0.0
1216,-106.6867,-4.847,-0.0726,-0.0009,-89.3578,0.0,-0.0005,0.0456,0.177,-0.0139,1.2384,3.3249,-0.0
1232,-106.6867,-4.8459,-0.0622,-0.0013,-89.3578,0.0,-0.0001,0.0065,0.2287,0.009,-0.8062,1.0644,0.0001
1248,-106.6867,-4.8459,-0.0622,-0.0013,-89.3578,0.0,-0.0001,0.0065,0.2287,0.009,-0.8062,1.0644,0.0001
1264,-106.6867,-4.8451,-0.054,-0.0013,-89.3578,0.0,-0.0001,0.0071,0.2251,-0.0001,0.015,-0.0986,-0.0002
1280,-106.6867,-4.8451,-0.054,-0.0013,-89.3578,0.0,-0.0001,0.0071,0.2251,-0.0001,0.015,-0.0986,-0.0002
1310,-106.6867,-4.8443,-0.0465,-0.0013,-89.3578,0.0,-0.0001,0.0111,0.2055,-0.0013,0.1133,-0.5546,-0.0003
1319,-106.6867,-4.8443,-0.0465,-0.0013,-89.3578,0.0,-0.0001,0.0111,0.2055,-0.0013,0.1133,-0.5546,-0.0003
1335,-106.6867,-4.8443,-0.0465,-0.0013,-89.3578,0.0,-0.0001,0.0111,0.2055,-0.0013,0.1133,-0.5546,-0.0003
1355,-106.6868,-4.8399,-0.0387,-0.0058,-89.3579,0.0,-0.002,0.1736,0.1742,-0.044,3.9067,-0.7536,-0.0127
1376,-106.6869,-4.8316,-0.0338,-0.0133,-89.3529,-0.0,-0.0027,0.3135,0.1504,-0.0245,4.6275,-0.7873,0.5041
1387,-106.6869,-4.8316,-0.0338,-0.0133,-89.3529,-0.0,-0.0027,0.3135,0.1504,-0.0245,4.6275,-0.7873,0.5041
1403,-106.6871,-4.819,-0.0296,-0.0212,-89.3502,0.0,-0.0058,0.4278,0.1272,-0.0996,3.7005,-0.7507,1.3767
1419,-106.6871,-4.819,-0.0296,-0.0212,-89.3502,0.0,-0.0058,0.4278,0.1272,-0.0996,3.7005,-0.7507,1.3767
1435,-106.6871,-4.819,-0.0296,-0.0212,-89.3502,0.0,-0.0058,0.4278,0.1272,-0.0996,3.7005,-0.7507,1.3767
1459,-106.6874,-4.7955,-0.0245,-0.0287,-89.349,0.0002,-0.0065,0.573,0.0961,-0.0148,3.1041,-0.6646,0.9926
1470,-106.6874,-4.7955,-0.0245,-0.0287,-89.349,0.0002,-0.0065,0.573,0.0961,-0.0148,3.1041,-0.6646,0.9926
1496,-106.6876,-4.7703,-0.0214,-0.0367,-89.3588,-0.0001,-0.008,0.7711,0.0766,-0.0413,5.477,-0.5377,-0.1029
1504,-106.6876,-4.7703,-0.0214,-0.0367,-89.3588,-0.0001,-0.008,0.7711,0.0766,-0.0413,5.477,-0.5377,-0.1029
1545,-106.688,-4.7335,-0.0186,-0.045,-89.3544,-0.0001,-0.0112,0.9492,0.0584,-0.0777,4.2864,-0.4388,-0.3665
1553,-106.688,-4.7335,-0.0186,-0.045,-89.3544,-0.0001,-0.0112,0.9492,0.0584,-0.0777,4.2864,-0.4388,-0.3665
1569,-106.688,-4.7335,-0.0186,-0.045,-89.3544,-0.0001,-0.0112,0.9492,0.0584,-0.0777,4.2864,-0.4388,-0.3665
1596,-106.6888,-4.6749,-0.0157,-0.0478,-89.3488,0.0002,-0.0142,1.0674,0.034,-0.0531,2.0516,-0.4244,-1.1683
1608,-106.6888,-4.6749,-0.0157,-0.0478,-89.3488,0.0002,-0.0142,1.0674,0.034,-0.0531,2.0516,-0.4244,-1.1683
1634,-106.6891,-4.6264,-0.0142,-0.0536,-89.3688,-0.0001,-0.0141,1.2591,0.0321,0.0044,5.0042,-0.0495,-2.1386
1640,-106.6891,-4.6264,-0.0142,-0.0536,-89.3688,-0.0001,-0.0141,1.2591,0.0321,0.0044,5.0042,-0.0495,-2.1386
1656,-106.6891,-4.6264,-0.0142,-0.0536,-89.3688,-0.0001,-0.0141,1.2591,0.0321,0.0044,5.0042,-0.0495,-2.1386
1678,-106.6891,-4.5748,-0.0132,-0.0503,-89.4184,-0.0011,-0.0087,1.238,0.022,0.1339,-0.5298,-0.2517,-0.9009
1694,-106.6891,-4.5748,-0.0132,-0.0503,-89.4184,-0.0011,-0.0087,1.238,0.022,0.1339,-0.5298,-0.2517,-0.9009
1726,-106.6894,-4.5213,-0.0126,-0.0459,-89.4336,-0.0015,-0.0109,1.3502,0.015,-0.0527,2.7989,-0.1759,-3.6976
1734,-106.6897,-4.4802,-0.0122,-0.0423,-89.4368,0.0005,-0.0117,1.3683,0.011,-0.0299,0.6043,-0.1312,-3.4232
1750,-106.6897,-4.4802,-0.0122,-0.0423,-89.4368,0.0005,-0.0117,1.3683,0.011,-0.0299,0.6043,-0.1312,-3.4232
1777,-106.6906,-4.4392,-0.012,-0.0374,-89.3593,0.0017,-0.0152,1.3737,0.0091,-0.1154,0.1785,-0.0661,5.729
1782,-106.6906,-4.4392,-0.012,-0.0374,-89.3593,0.0017,-0.0152,1.3737,0.0091,-0.1154,0.1785,-0.0661,5.729
1798,-106.6909,-4.4026,-0.0118,-0.0349,-89.3821,0.0022,-0.0159,1.3624,0.0072,-0.0254,-0.4375,-0.0738,-1.2498
1817,-106.6911,-4.3678,-0.0116,-0.0363,-89.4038,0.002,-0.0163,1.5655,0.0059,-0.0209,8.9827,-0.0569,-0.9062
1830,-106.6911,-4.3678,-0.0116,-0.0363,-89.4038,0.002,-0.0163,1.5655,0.0059,-0.0209,8.9827,-0.0569,-0.9062
1846,-106.6914,-4.3061,-0.0114,-0.0418,-89.4458,0.0009,-0.0151,1.8701,0.0045,0.0322,8.1964,-0.0362,-0.6707
1862,-106.6914,-4.3061,-0.0114,-0.0418,-89.4458,0.0009,-0.0151,1.8701,0.0045,0.0322,8.1964,-0.0362,-0.6707
1878,-106.6914,-4.3061,-0.0114,-0.0418,-89.4458,0.0009,-0.0151,1.8701,0.0045,0.0322,8.1964,-0.0362,-0.6707
1894,-106.692,-4.246,-0.0112,-0.0509,-89.4343,0.0009,-0.0201,2.0623,0.0035,-0.1601,6.1415,-0.034,1.2772
1910,-106.692,-4.246,-0.0112,-0.0509,-89.4343,0.0009,-0.0201,2.0623,0.0035,-0.1601,6.1415,-0.034,1.2772
1926,-106.6928,-4.153,-0.011,-0.0621,-89.4615,0.001,-0.0191,2.2207,0.0025,0.0241,3.6977,-0.0214,-3.7198
1942,-106.6928,-4.153,-0.011,-0.0621,-89.4615,0.001,-0.0191,2.2207,0.0025,0.0241,3.6977,-0.0214,-3.7198
1958,-106.6928,-4.153,-0.011,-0.0621,-89.4615,0.001,-0.0191,2.2207,0.0025,0.0241,3.6977,-0.0214,-3.7198
1974,-106.6935,-4.0486,-0.0109,-0.0695,-89.4741,-0.0005,-0.0186,2.5259,0.0018,0.0121,7.005,-0.0168,1.0372
1990,-106.6935,-4.0486,-0.0109,-0.0695,-89.4741,-0.0005,-0.0186,2.5259,0.0018,0.0121,7.005,-0.0168,1.0372
2028,-106.6938,-3.944,-0.0108,-0.0683,-89.5292,-0.0008,-0.018,2.523,0.0013,0.0144,-0.0699,-0.0118,-0.7719
2036,-106.6938,-3.944,-0.0108,-0.0683,-89.5292,-0.0008,-0.018,2.523,0.0013,0.0144,-0.0699,-0.0118,-0.7719
2052,-106.6945,-3.8331,-0.0108,-0.0666,-89.5481,-0.001,-0.0191,2.7703,0.001,-0.0257,5.9365,-0.0086,1.3082
2068,-106.6945,-3.8331,-0.0108,-0.0666,-89.5481,-0.001,-0.0191,2.7703,0.001,-0.0257,5.9365,-0.0086,1.3082
2091,-106.695,-3.7372,-0.0108,-0.0681,-89.5649,-0.0011,-0.0193,2.969,0.0008,-0.0062,5.9049,-0.0062,1.1375
2105,-106.695,-3.7372,-0.0108,-0.0681,-89.5649,-0.0011,-0.0193,2.969,0.0008,-0.0062,5.9049,-0.0062,1.1375
2126,-106.6949,-3.6177,-0.0107,-0.069,-89.6688,-0.0021,-0.0099,3.1313,0.0006,0.2356,4.0891,-0.0045,-1.575
2137,-106.6949,-3.6177,-0.0107,-0.069,-89.6688,-0.0021,-0.0099,3.1313,0.0006,0.2356,4.0891,-0.0045,-1.575
2162,-106.6945,-3.528,-0.0107,-0.0675,-89.7507,-0.0033,-0.0092,3.2114,0.0005,0.0242,2.7762,-0.0037,-5.4739
2169,-106.6945,-3.528,-0.0107,-0.0675,-89.7507,-0.0033,-0.0092,3.2114,0.0005,0.0242,2.7762,-0.0037,-5.4739
2185,-106.6947,-3.4272,-0.0107,-0.0713,-89.7859,-0.0027,-0.0145,3.4335,0.0004,-0.1732,7.3489,-0.0035,-2.6602
2201,-106.6947,-3.4272,-0.0107,-0.0713,-89.7859,-0.0027,-0.0145,3.4335,0.0004,-0.1732,7.3489,-0.0035,-2.6602
2217,-106.6949,-3.2927,-0.0106,-0.0747,-89.8133,-0.0027,-0.0126,3.6561,0.0003,0.0496,5.8215,-0.0023,-1.8181
2233,-106.6949,-3.2927,-0.0106,-0.0747,-89.8133,-0.0027,-0.0126,3.6561,0.0003,0.0496,5.8215,-0.0023,-1.8181
2249,-106.695,-3.1719,-0.0106,-0.0806,-89.8472,-0.0027,-0.0125,3.9115,0.0002,0.0029,7.9895,-0.0025,-1.4874
2274,-106.695,-3.1719,-0.0106,-0.0806,-89.8472,-0.0027,-0.0125,3.9115,0.0002,0.0029,7.9895,-0.0025,-1.4874
2294,-106.6955,-3.0229,-0.0105,-0.0901,-89.8441,-0.0025,-0.0118,4.2491,0.0002,0.0178,9.2381,-0.001,-1.5378
2306,-106.6955,-3.0229,-0.0105,-0.0901,-89.8441,-0.0025,-0.0118,4.2491,0.0002,0.0178,9.2381,-0.001,-1.5378
2322,-106.6955,-3.0229,-0.0105,-0.0901,-89.8441,-0.0025,-0.0118,4.2491,0.0002,0.0178,9.2381,-0.001,-1.5378
2342,-106.6959,-2.8361,-0.0104,-0.0986,-89.8504,-0.0025,-0.0096,4.5134,0.0001,0.0521,6.2136,-0.0012,2.3071
2358,-106.6959,-2.8361,-0.0104,-0.0986,-89.8504,-0.0025,-0.0096,4.5134,0.0001,0.0521,6.2136,-0.0012,2.3071
2381,-106.6962,-2.6553,-0.0104,-0.1017,-89.8628,-0.0022,-0.0112,4.7421,0.0001,-0.0416,5.8879,-0.0007,3.5456
2390,-106.6962,-2.6553,-0.0104,-0.1017,-89.8628,-0.0022,-0.0112,4.7421,0.0001,-0.0416,5.8879,-0.0007,3.5456
2406,-106.6964,-2.4656,-0.0104,-0.0988,-89.8838,-0.002,-0.0097,4.8931,0.0001,0.0377,3.8356,-0.0006,2.906
2422,-106.6964,-2.4656,-0.0104,-0.0988,-89.8838,-0.002,-0.0097,4.8931,0.0001,0.0377,3.8356,-0.0006,2.906
2446,-106.6964,-2.2957,-0.0104,-0.1004,-89.9209,-0.0021,-0.009,5.2216,0.0001,0.0222,9.8115,-0.0005,-1.2379
2458,-106.6964,-2.2957,-0.0104,-0.1004,-89.9209,-0.0021,-0.009,5.2216,0.0001,0.0222,9.8115,-0.0005,-1.2379
2477,-106.6964,-2.2957,-0.0104,-0.1004,-89.9209,-0.0021,-0.009,5.2216,0.0001,0.0222,9.8115,-0.0005,-1.2379
2490,-106.6966,-2.0744,-0.0104,-0.103,-89.9364,-0.002,-0.0073,5.4152,0.0,0.0404,4.6814,-0.0004,-0.4721
2506,-106.6966,-2.0744,-0.0104,-0.103,-89.9364,-0.002,-0.0073,5.4152,0.0,0.0404,4.6814,-0.0004,-0.4721
2522,-106.6968,-1.8762,-0.0104,-0.103,-89.94,-0.0019,-0.007,5.6129,0.0,0.0077,5.5705,-0.0,-0.4463
2544,-106.6968,-1.8762,-0.0104,-0.103,-89.94,-0.0019,-0.007,5.6129,0.0,0.0077,5.5705,-0.0,-0.4463
2560,-106.6971,-1.666,-0.0104,-0.1013,-89.9405,-0.0016,-0.0069,5.8097,0.0,0.003,5.408,-0.0006,-0.4454
2576,-106.6971,-1.666,-0.0104,-0.1013,-89.9405,-0.0016,-0.0069,5.8097,0.0,0.003,5.408,-0.0006,-0.4454
2597,-106.6974,-1.442,-0.0104,-0.0992,-89.9409,-0.0014,-0.007,6.0099,-0.0,-0.0018,5.345,-0.0004,-0.4513
2608,-106.6974,-1.442,-0.0104,-0.0992,-89.9409,-0.0014,-0.007,6.0099,-0.0,-0.0018,5.345,-0.0004,-0.4513
2624,-106.6976,-1.274,-0.0104,-0.0989,-89.9354,-0.0012,-0.008,6.256,0.0,-0.0349,9.0438,0.0005,-1.2482
2640,-106.6976,-1.274,-0.0104,-0.0989,-89.9354,-0.0012,-0.008,6.256,0.0,-0.0349,9.0438,0.0005,-1.2482
2665,-106.6979,-1.0612,-0.0104,-0.1,-89.934,-0.001,-0.008,6.5025,0.0,-0.0015,7.3829,0.0001,-0.6581
2672,-106.6979,-1.0612,-0.0104,-0.1,-89.934,-0.001,-0.008,6.5025,0.0,-0.0015,7.3829,0.0001,-0.6581
2688,-106.6979,-1.0612,-0.0104,-0.1,-89.934,-0.001,-0.008,6.5025,0.0,-0.0015,7.3829,0.0001,-0.6581
2704,-106.6982,-0.769,-0.0104,-0.1046,-89.9374,-0.0009,-0.0078,6.7979,0.0,0.0053,6.7663,-0.0002,-0.2914
2720,-106.6982,-0.769,-0.0104,-0.1046,-89.9374,-0.0009,-0.0078,6.7979,0.0,0.0053,6.7663,-0.0002,-0.2914
2736,-106.6985,-0.5766,-0.0104,-0.1067,-89.9354,-0.0007,-0.0085,7.0188,0.0,-0.0259,7.971,-0.0001,-0.9182
2752,-106.6985,-0.5766,-0.0104,-0.1067,-89.9354,-0.0007,-0.0085,7.0188,0.0,-0.0259,7.971,-0.0001,-0.9182
2768,-106.6988,-0.2959,-0.0104,-0.1052,-89.9366,-0.0006,-0.0089,7.2226,-0.0,-0.009,5.1652,-0.0004,-1.3174
2784,-106.6988,-0.2959,-0.0104,-0.1052,-89.9366,-0.0006,-0.0089,7.2226,-0.0,-0.009,5.1652,-0.0004,-1.3174
2800,-106.6991,-0.0215,-0.0104,-0.1029,-89.9337,-0.0005,-0.009,7.4375,-0.0,-0.0051,5.7307,0.0001,-0.8115
2823,-106.6991,-0.0215,-0.0104,-0.1029,-89.9337,-0.0005,-0.009,7.4375,-0.0,-0.0051,5.7307,0.0001,-0.8115
2845,-106.6994,0.2503,-0.0104,-0.1033,-89.9341,-0.0003,-0.0092,7.6879,-0.0,-0.0053,6.9723,0.0001,-0.5502
2855,-106.6994,0.2503,-0.0104,-0.1033,-89.9341,-0.0003,-0.0092,7.6879,-0.0,-0.0053,6.9723,0.0001,-0.5502
2871,-106.6994,0.2503,-0.0104,-0.1033,-89.9341,-0.0003,-0.0092,7.6879,-0.0,-0.0053,6.9723,0.0001,-0.5502
2892,-106.6998,0.6008,-0.0104,-0.1053,-89.9347,-0.0003,-0.0093,7.9749,-0.0,-0.001,6.4332,0.0002,-0.0764
2907,-106.6998,0.6008,-0.0104,-0.1053,-89.9347,-0.0003,-0.0093,7.9749,-0.0,-0.001,6.4332,0.0002,-0.0764
2923,-106.7002,0.9013,-0.0104,-0.1072,-89.9341,-0.0002,-0.0096,8.2254,-0.0,-0.0076,6.7961,-0.0011,-0.0297
2939,-106.7002,0.9013,-0.0104,-0.1072,-89.9341,-0.0002,-0.0096,8.2254,-0.0,-0.0076,6.7961,-0.0011,-0.0297
2955,-106.7002,0.9013,-0.0104,-0.1072,-89.9341,-0.0002,-0.0096,8.2254,-0.0,-0.0076,6.7961,-0.0011,-0.0297
2971,-106.7006,1.2429,-0.0104,-0.1087,-89.9338,-0.0003,-0.0099,8.5353,-0.0,-0.0087,7.63,0.0008,-0.0014
2987,-106.7006,1.2429,-0.0104,-0.1087,-89.9338,-0.0003,-0.0099,8.5353,-0.0,-0.0087,7.63,0.0008,-0.0014
3007,-106.701,1.571,-0.0103,-0.11,-89.9338,-0.0003,-0.0102,8.7934,-0.0,-0.0073,6.8381,0.0002,-0.0011
3019,-106.701,1.571,-0.0103,-0.11,-89.9338,-0.0003,-0.0102,8.7934,-0.0,-0.0073,6.8381,0.0002,-0.0011
3038,-106.7014,1.9161,-0.0104,-0.1089,-89.9339,-0.0002,-0.0104,9.0051,-0.0,-0.0058,5.4725,-0.0003,-0.0008
3051,-106.7014,1.9161,-0.0104,-0.1089,-89.9339,-0.0002,-0.0104,9.0051,-0.0,-0.0058,5.4725,-0.0003,-0.0008
3079,-106.7016,2.1249,-0.0104,-0.1071,-89.9339,-0.0002,-0.0105,9.1175,-0.0,-0.0054,4.879,0.0005,-0.0004
3083,-106.7016,2.1249,-0.0104,-0.1071,-89.9339,-0.0002,-0.0105,9.1175,-0.0,-0.0054,4.879,0.0005,-0.0004
3099,-106.7019,2.4107,-0.0104,-0.1058,-89.9339,-0.0002,-0.0108,9.314,0.0,-0.007,6.3571,0.0004,-0.0003
3118,-106.7022,2.6105,-0.0104,-0.105,-89.9339,-0.0002,-0.0109,9.4428,0.0,-0.0069,6.0626,-0.0005,-0.0002
3131,-106.7022,2.6105,-0.0104,-0.105,-89.9339,-0.0002,-0.0109,9.4428,0.0,-0.0069,6.0626,-0.0005,-0.0002
3147,-106.7022,2.6105,-0.0104,-0.105,-89.9339,-0.0002,-0.0109,9.4428,0.0,-0.0069,6.0626,-0.0005,-0.0002
3177,-106.7027,3.0395,-0.0104,-0.103,-89.9339,-0.0001,-0.0112,9.6926,0.0,-0.0063,5.5844,-0.0,-0.0001
3182,-106.7027,3.0395,-0.0104,-0.103,-89.9339,-0.0001,-0.0112,9.6926,0.0,-0.0063,5.5844,-0.0,-0.0001
3198,-106.7031,3.4299,-0.0104,-0.1005,-89.9339,-0.0001,-0.0114,9.9002,0.0,-0.006,5.2253,0.0002,-0.0001
3214,-106.7031,3.4299,-0.0104,-0.1005,-89.9339,-0.0001,-0.0114,9.9002,0.0,-0.006,5.2253,0.0002,-0.0001
3237,-106.7035,3.7235,-0.0104,-0.0984,-89.9339,-0.0001,-0.0116,10.0495,0.0,-0.006,5.085,-0.0001,-0.0
3246,-106.7035,3.7235,-0.0104,-0.0984,-89.9339,-0.0001,-0.0116,10.0495,0.0,-0.006,5.085,-0.0001,-0.0
3271,-106.7039,4.1554,-0.0105,-0.095,-89.9339,-0.0001,-0.0118,10.2496,0.0,-0.0054,4.7112,0.0,-0.0
3280,-106.7039,4.1554,-0.0105,-0.095,-89.9339,-0.0001,-0.0118,10.2496,0.0,-0.0054,4.7112,0.0,-0.0
3296,-106.7039,4.1554,-0.0105,-0.095,-89.9339,-0.0001,-0.0118,10.2496,0.0,-0.0054,4.7112,0.0,-0.0
3312,-106.7044,4.5644,-0.0105,-0.0917,-89.9339,-0.0001,-0.012,10.4293,0.0,-0.0053,4.5553,0.0,-0.0001
3332,-106.7048,4.8713,-0.0105,-0.0893,-89.9339,-0.0,-0.0122,10.5627,0.0,-0.0052,4.5682,-0.0002,0.0002
3344,-106.7048,4.8713,-0.0105,-0.0893,-89.9339,-0.0,-0.0122,10.5627,0.0,-0.0052,4.5682,-0.0002,0.0002
3360,-106.7048,4.8713,-0.0105,-0.0893,-89.9339,-0.0,-0.0122,10.5627,0.0,-0.0052,4.5682,-0.0002,0.0002
3377,-106.7051,5.1933,-0.0105,-0.0868,-89.9339,-0.0,-0.0123,10.6913,-0.0,-0.005,4.2493,-0.0001,0.0
3393,-106.7051,5.1933,-0.0105,-0.0868,-89.9339,-0.0,-0.0123,10.6913,-0.0,-0.005,4.2493,-0.0001,0.0
3409,-106.7056,5.6286,-0.0105,-0.0838,-89.9339,-0.0,-0.0125,10.8615,-0.0,-0.0049,4.2208,-0.0001,-0.0001
3425,-106.7056,5.6286,-0.0105,-0.0838,-89.9339,-0.0,-0.0125,10.8615,-0.0,-0.0049,4.2208,-0.0001,-0.0001
3441,-106.706,5.9477,-0.0106,-0.0816,-89.9339,-0.0,-0.0127,10.9822,-0.0,-0.0048,4.1389,-0.0005,0.0001
3457,-106.706,5.9477,-0.0106,-0.0816,-89.9339,-0.0,-0.0127,10.9822,-0.0,-0.0048,4.1389,-0.0005,0.0001
3473,-106.706,5.9477,-0.0106,-0.0816,-89.9339,-0.0,-0.0127,10.9822,-0.0,-0.0048,4.1389,-0.0005,0.0001
3489,-106.7065,6.4119,-0.0106,-0.0788,-89.9339,0.0,-0.0129,11.1499,0.0,-0.0045,4.0037,0.0004,-0.0001
3505,-106.7065,6.4119,-0.0106,-0.0788,-89.9339,0.0,-0.0129,11.1499,0.0,-0.0045,4.0037,0.0004,-0.0001
3521,-106.7069,6.7439,-0.0106,-0.0768,-89.9339,0.0,-0.013,11.2655,0.0,-0.0045,3.9112,0.0003,0.0001
3538,-106.7072,7.0196,-0.0106,-0.0754,-89.9339,0.0,-0.0131,11.3586,0.0,-0.0044,3.8221,-0.0002,-0.0001
3553,-106.7072,7.0196,-0.0106,-0.0754,-89.9339,0.0,-0.0131,11.3586,0.0,-0.0044,3.8221,-0.0002,-0.0001
3569,-106.7076,7.3411,-0.0106,-0.0737,-89.9339,0.0,-0.0132,11.4644,0.0,-0.0044,3.7601,-0.0,0.0
3585,-106.7076,7.3411,-0.0106,-0.0737,-89.9339,0.0,-0.0132,11.4644,0.0,-0.0044,3.7601,-0.0,0.0
3601,-106.708,7.6822,-0.0106,-0.072,-89.9339,-0.0,-0.0134,11.5731,-0.0,-0.0043,3.6792,-0.0006,-0.0001
3621,-106.7083,7.9259,-0.0106,-0.0709,-89.9339,-0.0,-0.0134,11.649,-0.0,-0.0042,3.6179,0.0006,-0.0
3633,-106.7083,7.9259,-0.0106,-0.0709,-89.9339,-0.0,-0.0134,11.649,-0.0,-0.0042,3.6179,0.0006,-0.0
3660,-106.7088,8.3511,-0.0106,-0.0689,-89.9339,0.0,-0.0136,11.7776,-0.0,-0.0041,3.547,-0.0,0.0
3665,-106.7088,8.3511,-0.0106,-0.0689,-89.9339,0.0,-0.0136,11.7776,-0.0,-0.0041,3.547,-0.0,0.0
3681,-106.7088,8.3511,-0.0106,-0.0689,-89.9339,0.0,-0.0136,11.7776,-0.0,-0.0041,3.547,-0.0,0.0
3697,-106.7093,8.8354,-0.0107,-0.0669,-89.9339,0.0,-0.0137,11.9186,-0.0,-0.004,3.4544,-0.0003,-0.0
3725,-106.7097,9.1754,-0.0107,-0.0655,-89.9339,0.0,-0.0139,12.0144,-0.0,-0.0039,3.3754,0.0003,-0.0
3734,-106.7097,9.1754,-0.0107,-0.0655,-89.9339,0.0,-0.0139,12.0144,-0.0,-0.0039,3.3754,0.0003,-0.0
3759,-106.7102,9.5963,-0.0107,-0.0639,-89.9339,0.0,-0.014,12.1295,-0.0,-0.0038,3.304,-0.0,-0.0
3766,-106.7102,9.5963,-0.0107,-0.0639,-89.9339,0.0,-0.014,12.1295,-0.0,-0.0038,3.304,-0.0,-0.0
3783,-106.7105,9.8978,-0.0107,-0.0628,-89.9339,0.0,-0.0141,12.2096,0.0,-0.0037,3.2387,0.0003,-0.0
3798,-106.7105,9.8978,-0.0107,-0.0628,-89.9339,0.0,-0.0141,12.2096,0.0,-0.0037,3.2387,0.0003,-0.0
3817,-106.7105,9.8978,-0.0107,-0.0628,-89.9339,0.0,-0.0141,12.2096,0.0,-0.0037,3.2387,0.0003,-0.0
3830,-106.7112,10.4282,-0.0107,-0.0609,-89.9339,0.0,-0.0142,12.3462,0.0,-0.0036,3.1666,0.0002,-0.0
3846,-106.7115,10.7045,-0.0107,-0.06,-89.9339,0.0,-0.0143,12.4153,0.0,-0.0036,3.0978,-0.0001,-0.0
3867,-106.7118,10.9579,-0.0107,-0.0592,-89.9339,0.0,-0.0144,12.4774,0.0,-0.0035,3.0541,-0.0004,-0.0
3878,-106.7118,10.9579,-0.0107,-0.0592,-89.9339,0.0,-0.0144,12.4774,0.0,-0.0035,3.0541,-0.0004,-0.0
3901,-106.7122,11.364,-0.0107,-0.0579,-89.9339,0.0,-0.0145,12.5747,0.0,-0.0035,3.002,0.0001,-0.0
3910,-106.7122,11.364,-0.0107,-0.0579,-89.9339,0.0,-0.0145,12.5747,0.0,-0.0035,3.002,0.0001,-0.0
3940,-106.711,11.6514,-0.011,-0.0696,-89.8931,0.0197,0.0655,12.6101,0.0662,3.5035,1.5523,2.901,1.6532
3962,-106.7088,12.1646,-0.0098,-0.0063,-89.84,-0.1508,0.0193,12.7221,0.0287,-1.1385,2.7656,-0.9271,1.0855
3972,-106.7088,12.1646,-0.0098,-0.0063,-89.84,-0.1508,0.0193,12.7221,0.0287,-1.1385,2.7656,-0.9271,1.0855
3988,-106.7088,12.1646,-0.0098,-0.0063,-89.84,-0.1508,0.0193,12.7221,0.0287,-1.1385,2.7656,-0.9271,1.0855
4004,-106.7088,12.6579,-0.0093,0.0105,-89.8083,-0.1654,-0.0032,12.8134,0.0096,-0.5839,2.3647,-0.4938,0.6833
4020,-106.7088,12.6579,-0.0093,0.0105,-89.8083,-0.1654,-0.0032,12.8134,0.0096,-0.5839,2.3647,-0.4938,0.6833
4036,-106.7095,13.116,-0.0092,0.0111,-89.7896,-0.1464,-0.0163,12.8856,-0.0003,-0.3669,2.0266,-0.2773,0.4418
4052,-106.7095,13.116,-0.0092,0.0111,-89.7896,-0.1464,-0.0163,12.8856,-0.0003,-0.3669,2.0266,-0.2773,0.4418
4068,-106.7102,13.4507,-0.0093,0.0082,-89.7802,-0.1288,-0.0235,12.9319,-0.0041,-0.2768,1.7864,-0.146,0.3227
4084,-106.7102,13.4507,-0.0093,0.0082,-89.7802,-0.1288,-0.0235,12.9319,-0.0041,-0.2768,1.7864,-0.146,0.3227
4103,-106.7119,14.0392,-0.0095,0.0017,-89.7697,-0.0996,-0.033,13.0025,-0.0069,-0.2108,1.5561,-0.0619,0.1826
4116,-106.7119,14.0392,-0.0095,0.0017,-89.7697,-0.0996,-0.033,13.0025,-0.0069,-0.2108,1.5561,-0.0619,0.1826
4132,-106.7128,14.3407,-0.0097,-0.0013,-89.7661,-0.0872,-0.0368,13.0335,-0.007,-0.1636,1.3414,-0.0071,0.1381
4148,-106.7128,14.3407,-0.0097,-0.0013,-89.7661,-0.0872,-0.0368,13.0335,-0.007,-0.1636,1.3414,-0.0071,0.1381
4180,-106.7142,14.7721,-0.0099,-0.0051,-89.7626,-0.0715,-0.0412,13.0733,-0.0069,-0.133,1.2022,0.0044,0.092
4196,-106.7142,14.7721,-0.0099,-0.0051,-89.7626,-0.0715,-0.0412,13.0733,-0.0069,-0.133,1.2022,0.0044,0.092
4212,-106.7197,15.291,-0.0101,-0.0077,-89.9181,-0.0322,-0.2575,13.0919,-0.0064,-5.4552,0.4713,0.0125,-7.2792
4228,-106.7286,15.6464,-0.0103,-0.0074,-90.2656,0.0111,-0.4933,13.0744,-0.006,-8.6797,-0.6463,0.0165,-15.7521
4244,-106.7286,15.6464,-0.0103,-0.0074,-90.2656,0.0111,-0.4933,13.0744,-0.006,-8.6797,-0.6463,0.0165,-15.7521
4272,-106.7455,16.0609,-0.0104,-0.0044,-91.0062,0.0694,-0.8116,13.0236,-0.0041,-10.0165,-1.5971,0.0588,-28.0924
4280,-106.7455,16.0609,-0.0104,-0.0044,-91.0062,0.0694,-0.8116,13.0236,-0.0041,-10.0165,-1.5971,0.0588,-28.0924
4296,-106.7696,16.4717,-0.0106,0.0013,-92.1744,0.1287,-1.1396,12.9469,-0.0027,-10.3553,-2.4213,0.0429,-42.3319
4312,-106.7696,16.4717,-0.0106,0.0013,-92.1744,0.1287,-1.1396,12.9469,-0.0027,-10.3553,-2.4213,0.0429,-42.3319
4340,-106.8085,16.972,-0.0107,0.0116,-94.2997,0.1947,-1.5285,12.825,-0.0017,-9.9874,-3.1309,0.0273,-62.1406
4344,-106.8085,16.972,-0.0107,0.0116,-94.2997,0.1947,-1.5285,12.825,-0.0017,-9.9874,-3.1309,0.0273,-62.1406
4360,-106.8085,16.972,-0.0107,0.0116,-94.2997,0.1947,-1.5285,12.825,-0.0017,-9.9874,-3.1309,0.0273,-62.1406
4378,-106.8538,17.4537,-0.0109,0.0228,-97.1502,0.2374,-1.8483,12.6961,-0.0011,-8.4247,-3.3963,0.0153,-83.0042
4409,-106.8973,17.8727,-0.011,0.0317,-100.3271,0.2543,-2.0581,12.5874,-0.0009,-6.2712,-3.2489,0.0045,-102.1751
4417,-106.8973,17.8727,-0.011,0.0317,-100.3271,0.2543,-2.0581,12.5874,-0.0009,-6.2712,-3.2489,0.0045,-102.1751
4433,-106.8973,17.8727,-0.011,0.0317,-100.3271,0.2543,-2.0581,12.5874,-0.0009,-6.2712,-3.2489,0.0045,-102.1751
4454,-106.9581,18.437,-0.0111,0.0403,-105.7643,0.2479,-2.2312,12.4511,-0.001,-3.7769,-2.9737,-0.0026,-129.6297
4468,-106.9857,18.7007,-0.0111,0.0417,-108.7706,0.2331,-2.2452,12.4024,-0.0011,-0.6438,-2.2365,-0.0043,-142.4691
4481,-106.9857,18.7007,-0.0111,0.0417,-108.7706,0.2331,-2.2452,12.4024,-0.0011,-0.6438,-2.2365,-0.0043,-142.4691
4500,-107.0214,19.0668,-0.0111,0.0399,-113.4826,0.1998,-2.2068,12.3431,-0.0014,1.2554,-1.9384,-0.007,-160.7601
4513,-107.0214,19.0668,-0.0111,0.0399,-113.4826,0.1998,-2.2068,12.3431,-0.0014,1.2554,-1.9384,-0.007,-160.7601
4534,-107.0476,19.3724,-0.0111,0.0347,-117.9241,0.1619,-2.1123,12.304,-0.0015,3.6389,-1.5044,-0.0073,-176.1013
4545,-107.0476,19.3724,-0.0111,0.0347,-117.9241,0.1619,-2.1123,12.304,-0.0015,3.6389,-1.5044,-0.0073,-176.1013
4561,-107.0476,19.3724,-0.0111,0.0347,-117.9241,0.1619,-2.1123,12.304,-0.0015,3.6389,-1.5044,-0.0073,-176.1013
4579,-107.0754,19.835,-0.0111,0.0143,-125.421,0.0785,-1.6997,12.3079,-0.0018,10.328,0.0975,-0.0074,-193.5276
4595,-107.0754,19.835,-0.0111,0.0143,-125.421,0.0785,-1.6997,12.3079,-0.0018,10.328,0.0975,-0.0074,-193.5276
4611,-107.0792,20.3713,-0.0108,-0.0306,-134.9554,-0.0492,-0.8805,12.3025,-0.0015,17.3343,-0.114,0.0072,-206.4588
4627,-107.0792,20.3713,-0.0108,-0.0306,-134.9554,-0.0492,-0.8805,12.3025,-0.0015,17.3343,-0.114,0.0072,-206.4588
4657,-107.0624,20.7064,-0.0106,-0.0659,-141.2913,-0.1331,-0.2427,12.2399,0.0002,21.1453,-2.0759,0.0561,-212.0064
4667,-107.0624,20.7064,-0.0106,-0.0659,-141.2913,-0.1331,-0.2427,12.2399,0.0002,21.1453,-2.0759,0.0561,-212.0064
4683,-107.0116,21.154,-0.0101,-0.1191,-150.2111,-0.2499,0.7073,12.046,0.0014,22.9543,-4.6851,0.0291,-217.5997
4699,-107.0116,21.154,-0.0101,-0.1191,-150.2111,-0.2499,0.7073,12.046,0.0014,22.9543,-4.6851,0.0291,-217.5997
4715,-106.9534,21.4756,-0.0098,-0.1576,-156.9756,-0.3291,1.4389,11.8061,0.0018,23.7532,-7.7881,0.0143,-220.8036
4731,-106.9534,21.4756,-0.0098,-0.1576,-156.9756,-0.3291,1.4389,11.8061,0.0018,23.7532,-7.7881,0.0143,-220.8036
4747,-106.8921,21.7319,-0.0095,-0.188,-162.629,-0.3909,2.0411,11.5444,0.002,23.6894,-10.2964,0.0053,-223.2146
4763,-106.8921,21.7319,-0.0095,-0.188,-162.629,-0.3909,2.0411,11.5444,0.002,23.6894,-10.2964,0.0053,-223.2146
4795,-106.7603,22.1518,-0.0091,-0.2349,-172.5318,-0.4842,3.0426,10.9596,0.0019,22.8259,-13.3296,-0.0013,-227.4126
4811,-106.6446,22.4429,-0.0088,-0.2614,179.9848,-0.5506,3.6278,10.3162,0.002,17.8648,-19.6416,0.0016,-228.9923
4827,-106.6446,22.4429,-0.0088,-0.2614,179.9848,-0.5506,3.6278,10.3162,0.002,17.8648,-19.6416,0.0016,-228.9923
4843,-106.6446,22.4429,-0.0088,-0.2614,179.9848,-0.5506,3.6278,10.3162,0.002,17.8648,-19.6416,0.0016,-228.9923
4859,-106.5058,22.7402,-0.0086,-0.2792,171.4951,-0.6389,4.039,9.4172,0.0021,11.1458,-24.3686,0.0027,-230.6431
4875,-106.5058,22.7402,-0.0086,-0.2792,171.4951,-0.6389,4.039,9.4172,0.0021,11.1458,-24.3686,0.0027,-230.6431
4900,-106.3686,22.9998,-0.0085,-0.2862,163.1017,-0.7288,4.2141,8.4417,0.002,4.8186,-26.8313,-0.0008,-230.8202
4907,-106.3686,22.9998,-0.0085,-0.2862,163.1017,-0.7288,4.2141,8.4417,0.002,4.8186,-26.8313,-0.0008,-230.8202
4930,-106.2947,23.1379,-0.0085,-0.2802,158.3225,-0.773,3.9435,8.0208,0.0019,-12.8391,-19.964,-0.0073,-222.6681
4955,-106.1922,23.3714,-0.0089,-0.2366,150.5478,-0.8202,3.1621,7.5199,-0.002,-21.1234,-13.5419,-0.1061,-203.5024
4962,-106.1922,23.3714,-0.0089,-0.2366,150.5478,-0.8202,3.1621,7.5199,-0.002,-21.1234,-13.5419,-0.1061,-203.5024
4994,-106.1273,23.5858,-0.0092,-0.1765,143.578,-0.8732,2.3337,7.0843,0.0034,-23.3265,-12.2665,0.1519,-192.7907
5003,-106.1273,23.5858,-0.0092,-0.1765,143.578,-0.8732,2.3337,7.0843,0.0034,-23.3265,-12.2665,0.1519,-192.7907
5019,-106.1273,23.5858,-0.0092,-0.1765,143.578,-0.8732,2.3337,7.0843,0.0034,-23.3265,-12.2665,0.1519,-192.7907
5035,-106.0951,23.8186,-0.0097,-0.1069,136.2977,-0.9158,1.3404,6.8929,0.0019,-25.1928,-4.8542,-0.0365,-178.0487
5057,-106.098,24.0201,-0.0101,-0.047,130.8206,-0.9155,0.5158,7.0162,0.0009,-25.0976,3.7527,-0.0321,-159.5145
5067,-106.098,24.0201,-0.0101,-0.047,130.8206,-0.9155,0.5158,7.0162,0.0009,-25.0976,3.7527,-0.0321,-159.5145
5095,-106.1231,24.2233,-0.0105,0.0107,126.2169,-0.8927,-0.2092,7.2565,0.0001,-23.2369,7.7033,-0.0255,-140.1818
5099,-106.1231,24.2233,-0.0105,0.0107,126.2169,-0.8927,-0.2092,7.2565,0.0001,-23.2369,7.7033,-0.0255,-140.1818
5115,-106.1231,24.2233,-0.0105,0.0107,126.2169,-0.8927,-0.2092,7.2565,0.0001,-23.2369,7.7033,-0.0255,-140.1818
5131,-106.1698,24.4555,-0.0109,0.0682,121.9837,-0.8494,-0.8494,7.594,-0.0006,-19.1963,10.1193,-0.0192,-119.2906
5147,-106.1698,24.4555,-0.0109,0.0682,121.9837,-0.8494,-0.8494,7.594,-0.0006,-19.1963,10.1193,-0.0192,-119.2906
5163,-106.2395,24.7465,-0.0114,0.1214,117.766,-0.7547,-1.2095,8.0345,-0.0013,-9.2823,11.3527,-0.0178,-103.8371
5179,-106.2395,24.7465,-0.0114,0.1214,117.766,-0.7547,-1.2095,8.0345,-0.0013,-9.2823,11.3527,-0.0178,-103.8371
5195,-106.2935,24.9749,-0.0116,0.1469,114.8898,-0.6523,-1.2276,8.3339,-0.0018,-0.6267,10.4026,-0.0194,-98.4276
5211,-106.2935,24.9749,-0.0116,0.1469,114.8898,-0.6523,-1.2276,8.3339,-0.0018,-0.6267,10.4026,-0.0194,-98.4276
5235,-106.3691,25.3372,-0.0118,0.166,110.688,-0.4701,-0.9977,8.7188,-0.0027,5.2771,8.8363,-0.0193,-95.7836
5243,-106.3691,25.3372,-0.0118,0.166,110.688,-0.4701,-0.9977,8.7188,-0.0027,5.2771,8.8363,-0.0193,-95.7836
5262,-106.4124,25.5939,-0.012,0.1698,107.8661,-0.3365,-0.735,8.946,-0.0031,8.8604,7.6624,-0.0149,-94.7449
5275,-106.4124,25.5939,-0.012,0.1698,107.8661,-0.3365,-0.735,8.946,-0.0031,8.8604,7.6624,-0.0149,-94.7449
5307,-106.4582,25.9587,-0.0121,0.1669,103.9766,-0.1712,-0.2933,9.1923,-0.0033,10.796,6.022,-0.0057,-95.3453
5323,-106.4582,25.9587,-0.0121,0.1669,103.9766,-0.1712,-0.2933,9.1923,-0.0033,10.796,6.022,-0.0057,-95.3453
5339,-106.4582,25.9587,-0.0121,0.1669,103.9766,-0.1712,-0.2933,9.1923,-0.0033,10.796,6.022,-0.0057,-95.3453
5355,-106.4968,26.4317,-0.0122,0.1603,99.4846,-0.0349,-0.126,9.5198,-0.0031,3.276,6.4117,0.0057,-79.9126
5371,-106.4968,26.4317,-0.0122,0.1603,99.4846,-0.0349,-0.126,9.5198,-0.0031,3.276,6.4117,0.0057,-79.9126
5387,-106.5164,26.7031,-0.0122,0.1549,97.5317,-0.0184,-0.2463,9.6576,-0.0023,-4.2292,4.8435,0.0254,-62.5268
5403,-106.5164,26.7031,-0.0122,0.1549,97.5317,-0.0184,-0.2463,9.6576,-0.0023,-4.2292,4.8435,0.0254,-62.5268
5432,-106.5499,27.1159,-0.0122,0.1411,95.5366,-0.0488,-0.555,9.7655,-0.0008,-7.2428,2.5328,0.0369,-36.8829
5437,-106.5499,27.1159,-0.0122,0.1411,95.5366,-0.0488,-0.555,9.7655,-0.0008,-7.2428,2.5328,0.0369,-36.8829
5453,-106.5499,27.1159,-0.0122,0.1411,95.5366,-0.0488,-0.555,9.7655,-0.0008,-7.2428,2.5328,0.0369,-36.8829
5480,-106.5912,27.6009,-0.012,0.1196,94.3359,-0.0774,-0.6921,9.8574,0.0003,-2.7729,1.8586,0.0207,-17.0259
5485,-106.5912,27.6009,-0.012,0.1196,94.3359,-0.0774,-0.6921,9.8574,0.0003,-2.7729,1.8586,0.0207,-17.0259
5501,-106.5912,27.6009,-0.012,0.1196,94.3359,-0.0774,-0.6921,9.8574,0.0003,-2.7729,1.8586,0.0207,-17.0259
5517,-106.6254,28.0285,-0.0119,0.1014,93.786,-0.0727,-0.6976,9.9299,0.0003,-0.1275,1.6765,0.0003,-10.3893
5533,-106.6254,28.0285,-0.0119,0.1014,93.786,-0.0727,-0.6976,9.9299,0.0003,-0.1275,1.6765,0.0003,-10.3893
5556,-106.6482,28.336,-0.0118,0.0898,93.5659,-0.0615,-0.6799,9.9736,0.0001,0.5721,1.4139,-0.0044,-6.4235
5565,-106.6482,28.336,-0.0118,0.0898,93.5659,-0.0615,-0.6799,9.9736,0.0001,0.5721,1.4139,-0.0044,-6.4235
5581,-106.6482,28.336,-0.0118,0.0898,93.5659,-0.0615,-0.6799,9.9736,0.0001,0.5721,1.4139,-0.0044,-6.4235
5597,-106.6752,28.7274,-0.0117,0.076,93.4015,-0.0443,-0.6529,10.0159,-0.0,0.6893,1.081,-0.0042,-4.5355
5624,-106.6942,29.0197,-0.0116,0.0665,93.3453,-0.0331,-0.6336,10.0241,-0.0001,0.6635,0.2805,-0.0031,-0.7009
5629,-106.6942,29.0197,-0.0116,0.0665,93.3453,-0.0331,-0.6336,10.0241,-0.0001,0.6635,0.2805,-0.0031,-0.7009
5645,-106.6942,29.0197,-0.0116,0.0665,93.3453,-0.0331,-0.6336,10.0241,-0.0001,0.6635,0.2805,-0.0031,-0.7009
5665,-106.724,29.4958,-0.0116,0.0536,93.2756,-0.0193,-0.6119,10.0647,-0.0001,0.4582,0.8562,-0.0006,-1.7874
5677,-106.724,29.4958,-0.0116,0.0536,93.2756,-0.0193,-0.6119,10.0647,-0.0001,0.4582,0.8562,-0.0006,-1.7874
5693,-106.739,29.7432,-0.0115,0.0482,93.2632,-0.0141,-0.6034,10.0838,-0.0001,0.3447,0.7775,0.0014,-0.1747
5709,-106.739,29.7432,-0.0115,0.0482,93.2632,-0.0141,-0.6034,10.0838,-0.0001,0.3447,0.7775,0.0014,-0.1747
5726,-106.757,30.0457,-0.0115,0.0421,93.2432,-0.009,-0.5952,10.0991,-0.0001,0.2726,0.5121,0.0009,-1.1765
5742,-106.757,30.0457,-0.0115,0.0421,93.2432,-0.009,-0.5952,10.0991,-0.0001,0.2726,0.5121,0.0009,-1.1765
5758,-106.7759,30.3684,-0.0114,0.0369,93.2346,-0.0054,-0.5892,10.1247,-0.0001,0.1899,0.8019,0.0009,-0.5798
5778,-106.7929,30.6624,-0.0114,0.0328,93.2343,-0.0029,-0.5849,10.1405,-0.0,0.149,0.5447,0.0008,0.491
5790,-106.7929,30.6624,-0.0114,0.0328,93.2343,-0.0029,-0.5849,10.1405,-0.0,0.149,0.5447,0.0008,0.491
5816,-106.8088,30.9383,-0.0114,0.0294,93.2252,-0.0013,-0.5822,10.1531,-0.0,0.099,0.4638,0.0008,-0.6953
5822,-106.8088,30.9383,-0.0114,0.0294,93.2252,-0.0013,-0.5822,10.1531,-0.0,0.099,0.4638,0.0008,-0.6953
5841,-106.8295,31.302,-0.0114,0.0255,93.2223,0.0,-0.5798,10.1724,0.0,0.0654,0.5391,0.0002,-0.613
5854,-106.8295,31.302,-0.0114,0.0255,93.2223,0.0,-0.5798,10.1724,0.0,0.0654,0.5391,0.0002,-0.613
5873,-106.8295,31.302,-0.0114,0.0255,93.2223,0.0,-0.5798,10.1724,0.0,0.0654,0.5391,0.0002,-0.613
5886,-106.8512,31.6832,-0.0113,0.0222,93.22,0.0008,-0.5783,10.1887,0.0,0.0409,0.4354,0.0013,-0.6807
5902,-106.8512,31.6832,-0.0113,0.0222,93.22,0.0008,-0.5783,10.1887,0.0,0.0409,0.4354,0.0013,-0.6807
5934,-106.8754,32.1112,-0.0113,0.0194,93.2228,0.0013,-0.5779,10.2158,0.0001,0.0106,0.6463,0.0004,0.3759
5942,-106.8754,32.1112,-0.0113,0.0194,93.2228,0.0013,-0.5779,10.2158,0.0001,0.0106,0.6463,0.0004,0.3759
5958,-106.8754,32.1112,-0.0113,0.0194,93.2228,0.0013,-0.5779,10.2158,0.0001,0.0106,0.6463,0.0004,0.3759
5974,-106.9012,32.5679,-0.0113,0.0171,93.2178,0.0014,-0.5779,10.2394,0.0001,-0.0013,0.5286,-0.0003,-0.5302
5996,-106.9185,32.8748,-0.0113,0.0156,93.2243,0.0014,-0.5778,10.2473,0.0,0.0051,0.2622,-0.0003,0.7584
6006,-106.9185,32.8748,-0.0113,0.0156,93.2243,0.0014,-0.5778,10.2473,0.0,0.0051,0.2622,-0.0003,0.7584
6022,-106.9185,32.8748,-0.0113,0.0156,93.2243,0.0014,-0.5778,10.2473,0.0,0.0051,0.2622,-0.0003,0.7584
6041,-106.9443,33.3319,-0.0113,0.0138,93.2186,0.0012,-0.5786,10.2694,0.0,-0.0187,0.4973,-0.0007,-0.5234
6054,-106.9443,33.3319,-0.0113,0.0138,93.2186,0.0012,-0.5786,10.2694,0.0,-0.0187,0.4973,-0.0007,-0.5234
6073,-106.959,33.5927,-0.0113,0.0131,93.2223,0.0011,-0.5792,10.2847,0.0,-0.0242,0.601,0.0004,0.4129
6086,-106.959,33.5927,-0.0113,0.0131,93.2223,0.0011,-0.5792,10.2847,0.0,-0.0242,0.601,0.0004,0.4129
6102,-106.959,33.5927,-0.0113,0.0131,93.2223,0.0011,-0.5792,10.2847,0.0,-0.0242,0.601,0.0004,0.4129
6118,-106.9856,34.0646,-0.0112,0.0121,93.2175,0.001,-0.5802,10.3059,0.0,-0.0213,0.4643,0.0001,-0.5689
6141,-107.0027,34.3697,-0.0112,0.0113,93.2241,0.0009,-0.5805,10.314,0.0,-0.0102,0.2718,-0.0007,0.729
6150,-107.0027,34.3697,-0.0112,0.0113,93.2241,0.0009,-0.5805,10.314,0.0,-0.0102,0.2718,-0.0007,0.729
6166,-107.0027,34.3697,-0.0112,0.0113,93.2241,0.0009,-0.5805,10.314,0.0,-0.0102,0.2718,-0.0007,0.729
6194,-107.0238,34.7444,-0.0112,0.0105,93.2235,0.0008,-0.5814,10.3305,0.0,-0.0247,0.4552,-0.0001,0.5477
6198,-107.0238,34.7444,-0.0112,0.0105,93.2235,0.0008,-0.5814,10.3305,0.0,-0.0247,0.4552,-0.0001,0.5477
6214,-107.0427,35.0807,-0.0112,0.0103,93.2228,0.0006,-0.5826,10.352,0.0,-0.0376,0.6609,0.0001,0.3257
6230,-107.0427,35.0807,-0.0112,0.0103,93.2228,0.0006,-0.5826,10.352,0.0,-0.0376,0.6609,0.0001,0.3257
6246,-107.058,35.3521,-0.0112,0.0102,93.2194,0.0005,-0.5835,10.3672,0.0,-0.0339,0.5813,0.0001,-0.4109
6262,-107.058,35.3521,-0.0112,0.0102,93.2194,0.0005,-0.5835,10.3672,0.0,-0.0339,0.5813,0.0001,-0.4109
6278,-107.08,35.7428,-0.0112,0.01,93.2187,0.0004,-0.5843,10.3816,0.0,-0.022,0.381,-0.0001,-0.6053
6294,-107.08,35.7428,-0.0112,0.01,93.2187,0.0004,-0.5843,10.3816,0.0,-0.022,0.381,-0.0001,-0.6053
6310,-107.08,35.7428,-0.0112,0.01,93.2187,0.0004,-0.5843,10.3816,0.0,-0.022,0.381,-0.0001,-0.6053
6326,-107.1049,36.1856,-0.0112,0.0097,93.2227,0.0003,-0.5855,10.4039,0.0,-0.0277,0.5234,0.0001,0.4
6342,-107.1049,36.1856,-0.0112,0.0097,93.2227,0.0003,-0.5855,10.4039,0.0,-0.0277,0.5234,0.0001,0.4
6361,-107.1293,36.6186,-0.0112,0.0096,93.2197,0.0003,-0.5868,10.4271,0.0,-0.0321,0.5587,-0.0,-0.3348
6374,-107.1293,36.6186,-0.0112,0.0096,93.2197,0.0003,-0.5868,10.4271,0.0,-0.0321,0.5587,-0.0,-0.3348
6400,-107.1471,36.935,-0.0112,0.0096,93.2202,0.0002,-0.5879,10.4455,0.0,-0.0334,0.6077,-0.0,-0.1952
6406,-107.1471,36.935,-0.0112,0.0096,93.2202,0.0002,-0.5879,10.4455,0.0,-0.0334,0.6077,-0.0,-0.1952
6423,-107.1654,37.2598,-0.0112,0.0097,93.2202,0.0002,-0.5889,10.4635,0.0,-0.0323,0.5792,0.0,-0.1875
6438,-107.1654,37.2598,-0.0112,0.0097,93.2202,0.0002,-0.5889,10.4635,0.0,-0.0323,0.5792,0.0,-0.1875
6454,-107.1654,37.2598,-0.0112,0.0097,93.2202,0.0002,-0.5889,10.4635,0.0,-0.0323,0.5792,0.0,-0.1875
6470,-107.1875,37.6535,-0.0112,0.0097,93.2187,0.0002,-0.5898,10.4793,-0.0,-0.0246,0.4213,-0.0003,-0.5048
6486,-107.1875,37.6535,-0.0112,0.0097,93.2187,0.0002,-0.5898,10.4793,-0.0,-0.0246,0.4213,-0.0003,-0.5048
