timestamp,x,y,z,pitch,yaw,roll,vx,vy,vz,ax,ay,az,yaw_rate
18187,-106.6867,-4.8475,0.5021,0.0,-89.3578,0.0,0.0,0.0,-1.3271,0.0,0.0,-9.8,0.0
18203,-106.6867,-4.8475,0.4566,0.0,-89.3578,0.0,0.0,0.0,-1.6224,0.0,0.0,-9.8,0.0
18219,-106.6867,-4.8475,0.4566,0.0,-89.3578,0.0,0.0,0.0,-1.6224,0.0,0.0,-9.8,0.0
18238,-106.6867,-4.8475,0.3844,0.0,-89.3578,0.0,0.0,0.0,-2.0028,0.0,0.0,-9.8,0.0
18251,-106.6867,-4.8475,0.3844,0.0,-89.3578,0.0,0.0,0.0,-2.0028,0.0,0.0,-9.8,0.0
18267,-106.6867,-4.8475,0.3344,0.0,-89.3578,0.0,0.0,0.0,-2.23,0.0,0.0,-9.8,0.0
18283,-106.6867,-4.8475,0.2709,0.0,-89.3578,0.0,0.0,0.0,-2.4893,0.0,0.0,-9.8,0.0
18299,-106.6867,-4.8475,0.2709,0.0,-89.3578,0.0,0.0,0.0,-2.4893,0.0,0.0,-9.8,0.0
18321,-106.6867,-4.8475,0.2129,0.0,-89.3578,0.0,0.0,0.0,-2.7049,0.0,0.0,-9.8,0.0
18331,-106.6867,-4.8475,0.2129,0.0,-89.3578,0.0,0.0,0.0,-2.7049,0.0,0.0,-9.8,0.0
18356,-106.6867,-4.8475,0.1,0.0,-89.3578,0.0,0.0,0.0,-3.0812,0.0,0.0,-9.8,0.0
18364,-106.6867,-4.8475,0.1,0.0,-89.3578,0.0,0.0,0.0,-3.0812,0.0,0.0,-9.8,0.0
18384,-106.6867,-4.8458,0.0169,-0.0029,-89.3578,-0.0,-0.0022,0.1952,-2.5215,-0.0761,6.7883,19.4627,-0.0
18396,-106.6867,-4.8458,0.0169,-0.0029,-89.3578,-0.0,-0.0022,0.1952,-2.5215,-0.0761,6.7883,19.4627,-0.0
18415,-106.6868,-4.8405,-0.0427,-0.0075,-89.358,0.0,-0.0016,0.1419,-1.3108,0.0171,-1.532,34.7945,0.0029
18431,-106.6868,-4.8377,-0.0624,-0.0081,-89.3567,0.0,-0.0016,0.1173,-0.8305,-0.0023,-1.2197,23.7929,0.0882
18444,-106.6868,-4.8377,-0.0624,-0.0081,-89.3567,0.0,-0.0016,0.1173,-0.8305,-0.0023,-1.2197,23.7929,0.0882
18463,-106.6869,-4.8343,-0.0769,-0.0079,-89.3562,0.0,-0.0016,0.1304,-0.4,0.0028,0.4806,15.8447,0.0128
18476,-106.6869,-4.8343,-0.0769,-0.0079,-89.3562,0.0,-0.0016,0.1304,-0.4,0.0028,0.4806,15.8447,0.0128
18506,-106.6871,-4.826,-0.0827,-0.0136,-89.3535,0.0003,-0.007,0.3751,-0.0749,-0.1711,7.7032,10.2307,0.4175
18513,-106.6871,-4.826,-0.0827,-0.0136,-89.3535,0.0003,-0.007,0.3751,-0.0749,-0.1711,7.7032,10.2307,0.4175
18529,-106.6872,-4.8085,-0.0806,-0.0254,-89.3552,-0.0001,-0.0059,0.5787,0.1204,0.0305,5.8016,5.5679,-0.6373
18545,-106.6873,-4.792,-0.0765,-0.0344,-89.3666,-0.0001,-0.009,0.753,0.1915,-0.1303,7.3529,2.9981,0.0307
18561,-106.6873,-4.792,-0.0765,-0.0344,-89.3666,-0.0001,-0.009,0.753,0.1915,-0.1303,7.3529,2.9981,0.0307
18577,-106.6873,-4.792,-0.0765,-0.0344,-89.3666,-0.0001,-0.009,0.753,0.1915,-0.1303,7.3529,2.9981,0.0307
18593,-106.6876,-4.7633,-0.0689,-0.0452,-89.3737,-0.0,-0.01,0.912,0.2381,-0.028,4.7577,1.3952,-0.4788
18609,-106.6876,-4.7633,-0.0689,-0.0452,-89.3737,-0.0,-0.01,0.912,0.2381,-0.028,4.7577,1.3952,-0.4788
18625,-106.6878,-4.7311,-0.0608,-0.0522,-89.3914,-0.0001,-0.0096,1.0375,0.2423,0.0114,3.9253,0.1295,-1.2355
18641,-106.6878,-4.7311,-0.0608,-0.0522,-89.3914,-0.0001,-0.0096,1.0375,0.2423,0.0114,3.9253,0.1295,-1.2355
18661,-106.6887,-4.6797,-0.049,-0.0568,-89.361,-0.0001,-0.0135,1.2139,0.2385,-0.0859,3.8706,-0.083,-1.1894
18673,-106.6887,-4.6797,-0.049,-0.0568,-89.361,-0.0001,-0.0135,1.2139,0.2385,-0.0859,3.8706,-0.083,-1.1894
18701,-106.6891,-4.6466,-0.043,-0.0552,-89.3446,-0.0001,-0.0117,1.1871,0.2091,0.066,-0.9676,-1.0638,1.2484
18705,-106.6891,-4.6466,-0.043,-0.0552,-89.3446,-0.0001,-0.0117,1.1871,0.2091,0.066,-0.9676,-1.0638,1.2484
18721,-106.6898,-4.6127,-0.0378,-0.0525,-89.3186,0.0002,-0.0161,1.2674,0.1803,-0.1619,2.9349,-1.0528,0.8215
18737,-106.6898,-4.6127,-0.0378,-0.0525,-89.3186,0.0002,-0.0161,1.2674,0.1803,-0.1619,2.9349,-1.0528,0.8215
18753,-106.6905,-4.5634,-0.0317,-0.0449,-89.2984,0.0002,-0.0138,1.2178,0.1412,0.0571,-1.24,-0.9772,0.3102
18769,-106.6905,-4.5634,-0.0317,-0.0449,-89.2984,0.0002,-0.0138,1.2178,0.1412,0.0571,-1.24,-0.9772,0.3102
18785,-106.691,-4.5276,-0.0283,-0.0448,-89.2848,0.0001,-0.0164,1.4355,0.1222,-0.0997,8.3074,-0.7235,1.9366
18801,-106.691,-4.5276,-0.0283,-0.0448,-89.2848,0.0001,-0.0164,1.4355,0.1222,-0.0997,8.3074,-0.7235,1.9366
18827,-106.6915,-4.4763,-0.0243,-0.0403,-89.3051,0.0006,-0.0209,1.4588,0.0969,-0.1171,0.6143,-0.6705,1.7638
18833,-106.6915,-4.4763,-0.0243,-0.0403,-89.3051,0.0006,-0.0209,1.4588,0.0969,-0.1171,0.6143,-0.6705,1.7638
18849,-106.6915,-4.4763,-0.0243,-0.0403,-89.3051,0.0006,-0.0209,1.4588,0.0969,-0.1171,0.6143,-0.6705,1.7638
18865,-106.6923,-4.4216,-0.0212,-0.0412,-89.2957,0.0004,-0.0203,1.581,0.0754,0.0162,3.3426,-0.5866,-2.6687
18881,-106.6923,-4.4216,-0.0212,-0.0412,-89.2957,0.0004,-0.0203,1.581,0.0754,0.0162,3.3426,-0.5866,-2.6687
18897,-106.6936,-4.3671,-0.0191,-0.045,-89.2403,0.0013,-0.0271,1.7405,0.0596,-0.2094,4.8683,-0.4826,-0.6068
18916,-106.6943,-4.3252,-0.0178,-0.0475,-89.2428,0.0012,-0.0292,1.8439,0.0506,-0.0854,4.3589,-0.3772,-1.2751
18929,-106.6943,-4.3252,-0.0178,-0.0475,-89.2428,0.0012,-0.0292,1.8439,0.0506,-0.0854,4.3589,-0.3772,-1.2751
18950,-106.6959,-4.2517,-0.0161,-0.0514,-89.1792,0.0016,-0.0366,1.9685,0.0398,-0.1921,3.2241,-0.2796,1.6268
18961,-106.6959,-4.2517,-0.0161,-0.0514,-89.1792,0.0016,-0.0366,1.9685,0.0398,-0.1921,3.2241,-0.2796,1.6268
18980,-106.6959,-4.2517,-0.0161,-0.0514,-89.1792,0.0016,-0.0366,1.9685,0.0398,-0.1921,3.2241,-0.2796,1.6268
18993,-106.6968,-4.1801,-0.0149,-0.0555,-89.2077,0.0008,-0.0284,2.1816,0.0306,0.2371,6.1526,-0.267,-2.8041
19009,-106.6968,-4.1801,-0.0149,-0.0555,-89.2077,0.0008,-0.0284,2.1816,0.0306,0.2371,6.1526,-0.267,-2.8041
19041,-106.6979,-4.1036,-0.0139,-0.058,-89.2032,0.0001,-0.0311,2.2885,0.0239,-0.0795,3.0791,-0.1913,-0.1826
19045,-106.6979,-4.1036,-0.0139,-0.058,-89.2032,0.0001,-0.0311,2.2885,0.0239,-0.0795,3.0791,-0.1913,-0.1826
19062,-106.6991,-4.0167,-0.0132,-0.0591,-89.1943,-0.0,-0.0328,2.4118,0.0185,-0.0456,3.3125,-0.1458,0.0716
19077,-106.6991,-4.0167,-0.0132,-0.0591,-89.1943,-0.0,-0.0328,2.4118,0.0185,-0.0456,3.3125,-0.1458,0.0716
19097,-106.7006,-3.9097,-0.0125,-0.0626,-89.1906,0.0001,-0.0363,2.6255,0.0135,-0.0831,5.0445,-0.1192,2.6613
19109,-106.7006,-3.9097,-0.0125,-0.0626,-89.1906,0.0001,-0.0363,2.6255,0.0135,-0.0831,5.0445,-0.1192,2.6613
19125,-106.7006,-3.9097,-0.0125,-0.0626,-89.1906,0.0001,-0.0363,2.6255,0.0135,-0.0831,5.0445,-0.1192,2.6613
19151,-106.7025,-3.7881,-0.012,-0.0715,-89.1769,0.0004,-0.0439,2.9495,0.0099,-0.1755,7.5729,-0.0825,1.8693
19157,-106.7025,-3.7881,-0.012,-0.0715,-89.1769,0.0004,-0.0439,2.9495,0.0099,-0.1755,7.5729,-0.0825,1.8693
19173,-106.7025,-3.7881,-0.012,-0.0715,-89.1769,0.0004,-0.0439,2.9495,0.0099,-0.1755,7.5729,-0.0825,1.8693
19192,-106.7048,-3.6497,-0.0115,-0.0779,-89.145,0.0008,-0.0492,3.2443,0.0072,-0.1193,6.6276,-0.0607,0.856
19218,-106.7059,-3.5829,-0.0114,-0.0816,-89.1369,0.0009,-0.0519,3.4013,0.006,-0.1388,7.8287,-0.0607,0.1936
19229,-106.7059,-3.5829,-0.0114,-0.0816,-89.1369,0.0009,-0.0519,3.4013,0.006,-0.1388,7.8287,-0.0607,0.1936
19255,-106.7079,-3.4537,-0.0111,-0.0884,-89.1291,0.0008,-0.0541,3.5522,0.0049,-0.0592,4.1753,-0.0322,-0.0829
19261,-106.7079,-3.4537,-0.0111,-0.0884,-89.1291,0.0008,-0.0541,3.5522,0.0049,-0.0592,4.1753,-0.0322,-0.0829
19277,-106.7079,-3.4537,-0.0111,-0.0884,-89.1291,0.0008,-0.0541,3.5522,0.0049,-0.0592,4.1753,-0.0322,-0.0829
19293,-106.7106,-3.2892,-0.0109,-0.0921,-89.1164,0.0008,-0.0597,3.907,0.0035,-0.13,8.1817,-0.0311,1.853
19316,-106.7119,-3.2073,-0.0109,-0.0918,-89.1104,0.0009,-0.062,3.9788,0.0029,-0.1102,3.4527,-0.0277,-0.2155
19325,-106.7119,-3.2073,-0.0109,-0.0918,-89.1104,0.0009,-0.062,3.9788,0.0029,-0.1102,3.4527,-0.0277,-0.2155
19350,-106.7142,-3.0658,-0.0108,-0.0928,-89.1007,0.0009,-0.0654,4.1368,0.0024,-0.0981,4.6149,-0.0167,-0.0075
19357,-106.7142,-3.0658,-0.0108,-0.0928,-89.1007,0.0009,-0.0654,4.1368,0.0024,-0.0981,4.6149,-0.0167,-0.0075
19377,-106.7171,-2.9006,-0.0107,-0.0905,-89.0715,0.0011,-0.0687,4.2667,0.0018,-0.0877,3.379,-0.0146,1.0753
19389,-106.7171,-2.9006,-0.0107,-0.0905,-89.0715,0.0011,-0.0687,4.2667,0.0018,-0.0877,3.379,-0.0146,1.0753
19405,-106.7171,-2.9006,-0.0107,-0.0905,-89.0715,0.0011,-0.0687,4.2667,0.0018,-0.0877,3.379,-0.0146,1.0753
19421,-106.7208,-2.6896,-0.0106,-0.0926,-89.033,0.0015,-0.0791,4.7149,0.0013,-0.2235,9.7119,-0.0116,-0.8046
19437,-106.7208,-2.6896,-0.0106,-0.0926,-89.033,0.0015,-0.0791,4.7149,0.0013,-0.2235,9.7119,-0.0116,-0.8046
19453,-106.7208,-2.6896,-0.0106,-0.0926,-89.033,0.0015,-0.0791,4.7149,0.0013,-0.2235,9.7119,-0.0116,-0.8046
19469,-106.724,-2.5166,-0.0106,-0.0923,-89.0061,0.0018,-0.0849,4.9065,0.001,-0.1626,5.2961,-0.0082,-0.8462
19485,-106.724,-2.5166,-0.0106,-0.0923,-89.0061,0.0018,-0.0849,4.9065,0.001,-0.1626,5.2961,-0.0082,-0.8462
19501,-106.7274,-2.3283,-0.0106,-0.0915,-88.9811,0.002,-0.0906,5.1015,0.0007,-0.1489,5.1554,-0.006,-1.0694
19517,-106.7274,-2.3283,-0.0106,-0.0915,-88.9811,0.002,-0.0906,5.1015,0.0007,-0.1489,5.1554,-0.006,-1.0694
19541,-106.7306,-2.1608,-0.0106,-0.0923,-88.9662,0.0021,-0.0958,5.3241,0.0006,-0.1612,6.8938,-0.0051,-0.4749
19549,-106.7306,-2.1608,-0.0106,-0.0923,-88.9662,0.0021,-0.0958,5.3241,0.0006,-0.1612,6.8938,-0.0051,-0.4749
19565,-106.7306,-2.1608,-0.0106,-0.0923,-88.9662,0.0021,-0.0958,5.3241,0.0006,-0.1612,6.8938,-0.0051,-0.4749
19581,-106.7352,-1.9064,-0.0105,-0.0966,-88.9568,0.0021,-0.101,5.5663,0.0004,-0.1133,5.2316,-0.0036,-0.2494
19597,-106.7352,-1.9064,-0.0105,-0.0966,-88.9568,0.0021,-0.101,5.5663,0.0004,-0.1133,5.2316,-0.0036,-0.2494
19613,-106.7381,-1.7514,-0.0105,-0.0991,-88.9439,0.0021,-0.1075,5.83,0.0003,-0.2417,9.7722,-0.0038,-1.1225
19629,-106.7381,-1.7514,-0.0105,-0.0991,-88.9439,0.0021,-0.1075,5.83,0.0003,-0.2417,9.7722,-0.0038,-1.1225
19660,-106.7424,-1.5229,-0.0104,-0.1008,-88.9363,0.0019,-0.1129,6.0719,0.0002,-0.1404,6.2933,-0.0015,-1.4613
19668,-106.7424,-1.5229,-0.0104,-0.1008,-88.9363,0.0019,-0.1129,6.0719,0.0002,-0.1404,6.2933,-0.0015,-1.4613
19688,-106.7472,-1.2646,-0.0104,-0.1037,-88.9321,0.0016,-0.1185,6.3745,0.0002,-0.1342,7.2884,-0.0024,-0.0996
19700,-106.7472,-1.2646,-0.0104,-0.1037,-88.9321,0.0016,-0.1185,6.3745,0.0002,-0.1342,7.2884,-0.0024,-0.0996
19719,-106.7513,-1.0487,-0.0104,-0.1117,-88.9264,0.0014,-0.1259,6.7419,0.0001,-0.2279,11.2681,-0.0007,0.0836
19732,-106.7513,-1.0487,-0.0104,-0.1117,-88.9264,0.0014,-0.1259,6.7419,0.0001,-0.2279,11.2681,-0.0007,0.0836
19759,-106.7556,-0.8198,-0.0103,-0.1204,-88.9243,0.0013,-0.1325,7.0749,0.0001,-0.1996,10.1337,-0.0007,0.0573
19764,-106.7556,-0.8198,-0.0103,-0.1204,-88.9243,0.0013,-0.1325,7.0749,0.0001,-0.1996,10.1337,-0.0007,0.0573
19780,-106.7556,-0.8198,-0.0103,-0.1204,-88.9243,0.0013,-0.1325,7.0749,0.0001,-0.1996,10.1337,-0.0007,0.0573
19796,-106.7605,-0.557,-0.0102,-0.1271,-88.9228,0.0011,-0.1385,7.3836,0.0001,-0.1671,8.5581,-0.0004,0.0685
19823,-106.7637,-0.3901,-0.0102,-0.1293,-88.9225,0.001,-0.1423,7.5793,0.0001,-0.1703,8.8038,-0.0009,-0.0014
19828,-106.7637,-0.3901,-0.0102,-0.1293,-88.9225,0.001,-0.1423,7.5793,0.0001,-0.1703,8.8038,-0.0009,-0.0014
19844,-106.7677,-0.1763,-0.0102,-0.1303,-88.9218,0.0009,-0.146,7.7688,0.0001,-0.132,6.8346,-0.0004,0.0626
19860,-106.7677,-0.1763,-0.0102,-0.1303,-88.9218,0.0009,-0.146,7.7688,0.0001,-0.132,6.8346,-0.0004,0.0626
19876,-106.7725,0.0803,-0.0102,-0.1294,-88.9216,0.0008,-0.1502,7.9876,0.0,-0.1296,6.7516,-0.0008,0.0287
19892,-106.7725,0.0803,-0.0102,-0.1294,-88.9216,0.0008,-0.1502,7.9876,0.0,-0.1296,6.7516,-0.0008,0.0287
19912,-106.7779,0.3677,-0.0102,-0.1264,-88.9216,0.0007,-0.1542,8.2005,0.0,-0.1151,6.0251,0.0002,0.0222
19924,-106.7779,0.3677,-0.0102,-0.1264,-88.9216,0.0007,-0.1542,8.2005,0.0,-0.1151,6.0251,0.0002,0.0222
19940,-106.7815,0.5575,-0.0102,-0.124,-88.9218,0.0006,-0.1573,8.3591,0.0,-0.1321,6.9385,-0.0011,-0.0078
19970,-106.7861,0.8041,-0.0103,-0.1204,-88.9218,0.0005,-0.1601,8.5094,0.0,-0.098,5.1601,0.0004,0.001
19980,-106.7861,0.8041,-0.0103,-0.1204,-88.9218,0.0005,-0.1601,8.5094,0.0,-0.098,5.1601,0.0004,0.001
19996,-106.7861,0.8041,-0.0103,-0.1204,-88.9218,0.0005,-0.1601,8.5094,0.0,-0.098,5.1601,0.0004,0.001
20012,-106.7931,1.1763,-0.0103,-0.1144,-88.922,0.0004,-0.1647,8.7524,0.0,-0.1066,5.6484,-0.0001,-0.0026
20028,-106.7987,1.4651,-0.0104,-0.1129,-88.9154,0.0078,-0.1678,8.9451,-0.008,-0.0947,5.9171,-0.2475,0.3151
20044,-106.7987,1.4651,-0.0104,-0.1129,-88.9154,0.0078,-0.1678,8.9451,-0.008,-0.0947,5.9171,-0.2475,0.3151
20060,-106.7987,1.4651,-0.0104,-0.1129,-88.9154,0.0078,-0.1678,8.9451,-0.008,-0.0947,5.9171,-0.2475,0.3151
20076,-106.8055,1.8228,-0.0105,-0.1154,-88.9106,0.025,-0.1708,9.1503,-0.003,-0.0776,5.2015,0.1285,0.2198
20092,-106.8055,1.8228,-0.0105,-0.1154,-88.9106,0.025,-0.1708,9.1503,-0.003,-0.0776,5.2015,0.1285,0.2198
20108,-106.8109,2.1072,-0.0106,-0.1132,-88.9077,0.0261,-0.1749,9.3083,-0.0009,-0.1322,5.1307,0.0679,0.1031
20132,-106.8148,2.3188,-0.0106,-0.1115,-88.9061,0.0249,-0.1782,9.4329,-0.0,-0.1434,5.5282,0.0378,0.0574
20140,-106.8148,2.3188,-0.0106,-0.1115,-88.9061,0.0249,-0.1782,9.4329,-0.0,-0.1434,5.5282,0.0378,0.0574
20156,-106.8211,2.6494,-0.0106,-0.1086,-88.9045,0.0218,-0.1829,9.6258,0.0007,-0.1376,5.575,0.0205,0.0225
20172,-106.8211,2.6494,-0.0106,-0.1086,-88.9045,0.0218,-0.1829,9.6258,0.0007,-0.1376,5.575,0.0205,0.0225
20188,-106.8211,2.6494,-0.0106,-0.1086,-88.9045,0.0218,-0.1829,9.6258,0.0007,-0.1376,5.575,0.0205,0.0225
20204,-106.828,3.0138,-0.0106,-0.1052,-88.9038,0.0182,-0.1875,9.8214,0.001,-0.1215,5.2338,0.008,-0.0232
20220,-106.828,3.0138,-0.0106,-0.1052,-88.9038,0.0182,-0.1875,9.8214,0.001,-0.1215,5.2338,0.008,-0.0232
20236,-106.828,3.0138,-0.0106,-0.1052,-88.9038,0.0182,-0.1875,9.8214,0.001,-0.1215,5.2338,0.008,-0.0232
20252,-106.8363,3.4448,-0.0106,-0.101,-88.9028,0.0147,-0.1922,10.041,0.001,-0.1091,5.0702,0.0002,0.0755
20268,-106.8363,3.4448,-0.0106,-0.101,-88.9028,0.0147,-0.1922,10.041,0.001,-0.1091,5.0702,0.0002,0.0755
20284,-106.8438,3.8377,-0.0106,-0.0971,-88.9021,0.0119,-0.1959,10.2249,0.0009,-0.0974,4.7538,-0.0021,0.2023
20300,-106.8438,3.8377,-0.0106,-0.0971,-88.9021,0.0119,-0.1959,10.2249,0.0009,-0.0974,4.7538,-0.0021,0.2023
20316,-106.8491,4.117,-0.0106,-0.0943,-88.9049,0.0103,-0.1983,10.341,0.0008,-0.0874,4.2815,-0.0045,-0.3105
20332,-106.8491,4.117,-0.0106,-0.0943,-88.9049,0.0103,-0.1983,10.341,0.0008,-0.0874,4.2815,-0.0045,-0.3105
20356,-106.8585,4.6075,-0.0106,-0.0897,-88.901,0.0079,-0.2023,10.547,0.0007,-0.0845,4.3954,-0.0029,0.5756
20366,-106.8585,4.6075,-0.0106,-0.0897,-88.901,0.0079,-0.2023,10.547,0.0007,-0.0845,4.3954,-0.0029,0.5756
20395,-106.8585,4.6075,-0.0106,-0.0897,-88.901,0.0079,-0.2023,10.547,0.0007,-0.0845,4.3954,-0.0029,0.5756
20411,-106.8686,5.1401,-0.0106,-0.0844,-88.9102,0.006,-0.2061,10.7408,0.0005,-0.0758,3.882,-0.0034,-1.1776
20427,-106.8686,5.1401,-0.0106,-0.0844,-88.9102,0.006,-0.2061,10.7408,0.0005,-0.0758,3.882,-0.0034,-1.1776
20452,-106.8749,5.4637,-0.0106,-0.0811,-88.8966,0.0051,-0.208,10.8475,0.0004,-0.0662,3.5634,-0.0029,1.3779
20477,-106.8825,5.8586,-0.0106,-0.0778,-88.8977,0.0042,-0.2108,10.9892,0.0003,-0.0755,3.9215,-0.0028,0.7988
20483,-106.8825,5.8586,-0.0106,-0.0778,-88.8977,0.0042,-0.2108,10.9892,0.0003,-0.0755,3.9215,-0.0028,0.7988
20499,-106.8825,5.8586,-0.0106,-0.0778,-88.8977,0.0042,-0.2108,10.9892,0.0003,-0.0755,3.9215,-0.0028,0.7988
20515,-106.8903,6.2667,-0.0106,-0.0754,-88.8974,0.0034,-0.2137,11.1381,0.0003,-0.0793,4.0443,-0.0013,0.6869
20539,-106.8958,6.5519,-0.0106,-0.0742,-88.9012,0.003,-0.2158,11.2412,0.0002,-0.083,4.0499,-0.0014,-0.3815
20547,-106.8958,6.5519,-0.0106,-0.0742,-88.9012,0.003,-0.2158,11.2412,0.0002,-0.083,4.0499,-0.0014,-0.3815
20566,-106.9033,6.9426,-0.0106,-0.0728,-88.9005,0.0025,-0.2186,11.3798,0.0002,-0.0797,4.0196,-0.0011,-0.2573
20579,-106.9033,6.9426,-0.0106,-0.0728,-88.9005,0.0025,-0.2186,11.3798,0.0002,-0.0797,4.0196,-0.0011,-0.2573
20595,-106.9085,7.2158,-0.0106,-0.072,-88.899,0.0022,-0.2204,11.4739,0.0001,-0.0764,3.9426,-0.0014,0.1222
20611,-106.9085,7.2158,-0.0106,-0.072,-88.899,0.0022,-0.2204,11.4739,0.0001,-0.0764,3.9426,-0.0014,0.1222
20631,-106.9159,7.6021,-0.0107,-0.0709,-88.8991,0.0018,-0.2229,11.6023,0.0001,-0.0752,3.8388,-0.0011,0.0634
20643,-106.9159,7.6021,-0.0107,-0.0709,-88.8991,0.0018,-0.2229,11.6023,0.0001,-0.0752,3.8388,-0.0011,0.0634
20662,-106.9241,8.0297,-0.0107,-0.0695,-88.899,0.0015,-0.2255,11.7378,0.0001,-0.0719,3.7044,-0.0002,0.0645
20675,-106.9241,8.0297,-0.0107,-0.0695,-88.899,0.0015,-0.2255,11.7378,0.0001,-0.0719,3.7044,-0.0002,0.0645
20691,-106.9313,8.4016,-0.0107,-0.0683,-88.8991,0.0013,-0.2277,11.8508,0.0001,-0.0698,3.5871,-0.0009,0.0181
20724,-106.9359,8.642,-0.0107,-0.0675,-88.8991,0.0011,-0.2291,11.9216,0.0001,-0.068,3.5054,-0.0004,-0.0007
20734,-106.9359,8.642,-0.0107,-0.0675,-88.8991,0.0011,-0.2291,11.9216,0.0001,-0.068,3.5054,-0.0004,-0.0007
20752,-106.9359,8.642,-0.0107,-0.0675,-88.8991,0.0011,-0.2291,11.9216,0.0001,-0.068,3.5054,-0.0004,-0.0007
20765,-106.946,9.1685,-0.0107,-0.0656,-88.899,0.0009,-0.232,12.0712,0.0,-0.066,3.4136,-0.0003,0.0015
20781,-106.946,9.1685,-0.0107,-0.0656,-88.899,0.0009,-0.232,12.0712,0.0,-0.066,3.4136,-0.0003,0.0015
20797,-106.9535,9.5568,-0.0107,-0.0642,-88.899,0.0008,-0.234,12.1771,0.0,-0.0639,3.3103,-0.0007,0.0006
20823,-106.9605,9.9213,-0.0107,-0.0628,-88.899,0.0006,-0.2359,12.2734,0.0,-0.0623,3.234,0.0002,-0.0001
20829,-106.9605,9.9213,-0.0107,-0.0628,-88.899,0.0006,-0.2359,12.2734,0.0,-0.0623,3.234,0.0002,-0.0001
20845,-106.9605,9.9213,-0.0107,-0.0628,-88.899,0.0006,-0.2359,12.2734,0.0,-0.0623,3.234,0.0002,-0.0001
20861,-106.9682,10.3206,-0.0107,-0.0614,-88.899,0.0005,-0.2379,12.3757,0.0,-0.0608,3.1588,-0.0005,0.0
20877,-106.9682,10.3206,-0.0107,-0.0614,-88.899,0.0005,-0.2379,12.3757,0.0,-0.0608,3.1588,-0.0005,0.0
20893,-106.9771,10.7834,-0.0107,-0.0598,-88.899,0.0004,-0.2401,12.4902,0.0,-0.0592,3.0811,0.0003,-0.0
20916,-106.9821,11.044,-0.0107,-0.0589,-88.899,0.0004,-0.2413,12.553,0.0,-0.0579,3.0168,-0.0003,0.0001
20925,-106.9821,11.044,-0.0107,-0.0589,-88.899,0.0004,-0.2413,12.553,0.0,-0.0579,3.0168,-0.0003,0.0001
20941,-106.9908,11.4998,-0.0107,-0.0574,-88.899,0.0003,-0.2433,12.6587,0.0,-0.0562,2.928,-0.0002,0.0
20957,-106.9908,11.4998,-0.0107,-0.0574,-88.899,0.0003,-0.2433,12.6587,0.0,-0.0562,2.928,-0.0002,0.0
20973,-106.9908,11.4998,-0.0107,-0.0574,-88.899,0.0003,-0.2433,12.6587,0.0,-0.0562,2.928,-0.0002,0.0
20994,-106.9991,11.9322,-0.0107,-0.0557,-88.899,0.0003,-0.245,12.7468,0.0,-0.0498,2.5912,0.0001,0.0
21010,-106.9991,11.9322,-0.0107,-0.0557,-88.899,0.0003,-0.245,12.7468,0.0,-0.0498,2.5912,0.0001,0.0
21026,-107.0096,12.4789,-0.0108,-0.0529,-88.899,0.0002,-0.2468,12.842,0.0,-0.0427,2.229,-0.0001,0.0
21042,-107.0096,12.4789,-0.0108,-0.0529,-88.899,0.0002,-0.2468,12.842,0.0,-0.0427,2.229,-0.0001,0.0
21058,-107.0171,12.8649,-0.0108,-0.0505,-88.899,0.0002,-0.2479,12.9003,0.0,-0.0374,1.9459,0.0001,-0.0
21074,-107.0171,12.8649,-0.0108,-0.0505,-88.899,0.0002,-0.2479,12.9003,0.0,-0.0374,1.9459,0.0001,-0.0
21094,-107.0272,13.392,-0.0108,-0.0469,-88.899,0.0001,-0.2492,12.9685,0.0,-0.0321,1.6741,-0.0002,0.0
21115,-107.0334,13.7124,-0.0108,-0.0446,-88.899,0.0001,-0.2499,13.0047,0.0,-0.0282,1.4666,-0.0,-0.0
21122,-107.0334,13.7124,-0.0108,-0.0446,-88.899,0.0001,-0.2499,13.0047,0.0,-0.0282,1.4666,-0.0,-0.0
21138,-107.0334,13.7124,-0.0108,-0.0446,-88.899,0.0001,-0.2499,13.0047,0.0,-0.0282,1.4666,-0.0,-0.0
21154,-107.0408,14.1013,-0.0109,-0.0417,-88.899,0.0001,-0.2507,13.0446,0.0,-0.0256,1.3373,-0.0,0.0
21170,-107.0479,14.4679,-0.0109,-0.039,-88.899,0.0001,-0.2513,13.078,-0.0,-0.0228,1.1902,-0.0006,-0.0
21210,-107.0577,14.9812,-0.0109,-0.0352,-88.899,0.0001,-0.2521,13.1189,-0.0,-0.0201,1.0452,0.0001,-0.0
21226,-107.0577,14.9812,-0.0109,-0.0352,-88.899,0.0001,-0.2521,13.1189,-0.0,-0.0201,1.0452,0.0001,-0.0
21246,-107.067,15.3684,-0.0109,-0.0323,-88.9789,0.0131,-0.3845,13.1319,0.0001,-4.489,0.4414,0.0027,-4.5466
21258,-107.067,15.3684,-0.0109,-0.0323,-88.9789,0.0131,-0.3845,13.1319,0.0001,-4.489,0.4414,0.0027,-4.5466
21288,-107.0801,15.7379,-0.0109,-0.0285,-89.2512,0.0446,-0.6085,13.1155,0.0004,-7.9575,-0.5844,0.0106,-12.4895
21294,-107.0801,15.7379,-0.0109,-0.0285,-89.2512,0.0446,-0.6085,13.1155,0.0004,-7.9575,-0.5844,0.0106,-12.4895
21313,-107.1073,16.2451,-0.011,-0.0205,-90.0865,0.108,-0.9964,13.0477,0.0009,-9.9983,-1.7465,0.0134,-27.3449
21326,-107.1073,16.2451,-0.011,-0.0205,-90.0865,0.108,-0.9964,13.0477,0.0009,-9.9983,-1.7465,0.0134,-27.3449
21342,-107.1294,16.557,-0.011,-0.0144,-90.9081,0.1472,-1.2403,12.9883,0.0011,-10.1727,-2.477,0.0093,-37.7903
21358,-107.1294,16.557,-0.011,-0.0144,-90.9081,0.1472,-1.2403,12.9883,0.0011,-10.1727,-2.477,0.0093,-37.7903
21374,-107.1294,16.557,-0.011,-0.0144,-90.9081,0.1472,-1.2403,12.9883,0.0011,-10.1727,-2.477,0.0093,-37.7903
21390,-107.1886,17.2113,-0.011,0.002,-93.5711,0.2227,-1.7456,12.8216,0.0012,-9.9453,-3.282,0.0022,-63.3532
21414,-107.2225,17.5267,-0.0111,0.0105,-95.3604,0.2483,-1.9523,12.7363,0.0011,-8.3377,-3.4413,-0.0038,-76.6628
21425,-107.2225,17.5267,-0.0111,0.0105,-95.3604,0.2483,-1.9523,12.7363,0.0011,-8.3377,-3.4413,-0.0038,-76.6628
21452,-107.2778,17.9994,-0.0111,0.023,-98.7462,0.2702,-2.2133,12.6036,0.0008,-6.9428,-3.5283,-0.009,-98.1656
21456,-107.2778,17.9994,-0.0111,0.023,-98.7462,0.2702,-2.2133,12.6036,0.0008,-6.9428,-3.5283,-0.009,-98.1656
21475,-107.2778,17.9994,-0.0111,0.023,-98.7462,0.2702,-2.2133,12.6036,0.0008,-6.9428,-3.5283,-0.009,-98.1656
21488,-107.3306,18.4308,-0.0112,0.0318,-102.612,0.2692,-2.3693,12.4938,0.0004,-4.4768,-3.1516,-0.0122,-118.7033
21504,-107.3306,18.4308,-0.0112,0.0318,-102.612,0.2692,-2.3693,12.4938,0.0004,-4.4768,-3.1516,-0.0122,-118.7033
21533,-107.3837,18.868,-0.0112,0.0368,-107.3561,0.2477,-2.4375,12.3982,-0.0001,-1.8997,-2.6654,-0.0136,-140.3041
21536,-107.3837,18.868,-0.0112,0.0368,-107.3561,0.2477,-2.4375,12.3982,-0.0001,-1.8997,-2.6654,-0.0136,-140.3041
21552,-107.3837,18.868,-0.0112,0.0368,-107.3561,0.2477,-2.4375,12.3982,-0.0001,-1.8997,-2.6654,-0.0136,-140.3041
21568,-107.4442,19.4094,-0.0112,0.0348,-114.4724,0.1947,-2.3791,12.3067,-0.0007,1.2862,-2.0168,-0.0127,-167.8555
21587,-107.4442,19.4094,-0.0112,0.0348,-114.4724,0.1947,-2.3791,12.3067,-0.0007,1.2862,-2.0168,-0.0127,-167.8555
21600,-107.4803,19.7988,-0.0112,0.0251,-120.45,0.1382,-2.1575,12.2869,-0.001,6.6478,-0.5947,-0.0105,-185.4124
21616,-107.4803,19.7988,-0.0112,0.0251,-120.45,0.1382,-2.1575,12.2869,-0.001,6.6478,-0.5947,-0.0105,-185.4124
21632,-107.4803,19.7988,-0.0112,0.0251,-120.45,0.1382,-2.1575,12.2869,-0.001,6.6478,-0.5947,-0.0105,-185.4124
21662,-107.5083,20.369,-0.011,-0.0128,-130.2049,0.0109,-1.4357,12.3126,-0.0018,14.5176,0.518,-0.0146,-202.2152
21664,-107.5083,20.369,-0.011,-0.0128,-130.2049,0.0109,-1.4357,12.3126,-0.0018,14.5176,0.518,-0.0146,-202.2152
21685,-107.5029,20.7989,-0.0107,-0.0559,-138.1531,-0.1004,-0.6732,12.28,-0.0001,19.9159,-0.851,0.0428,-210.4668
21696,-107.5029,20.7989,-0.0107,-0.0559,-138.1531,-0.1004,-0.6732,12.28,-0.0001,19.9159,-0.851,0.0428,-210.4668
21712,-107.48,21.127,-0.0104,-0.0941,-144.5334,-0.1879,-0.0071,12.1904,0.0011,22.3061,-3.0017,0.0401,-215.108
21728,-107.48,21.127,-0.0104,-0.0941,-144.5334,-0.1879,-0.0071,12.1904,0.0011,22.3061,-3.0017,0.0401,-215.108
21744,-107.4465,21.4094,-0.0101,-0.1273,-150.2445,-0.2589,0.6093,12.052,0.0017,23.4476,-5.2654,0.0237,-218.2794
21760,-107.4465,21.4094,-0.0101,-0.1273,-150.2445,-0.2589,0.6093,12.052,0.0017,23.4476,-5.2654,0.0237,-218.2794
21776,-107.3957,21.7056,-0.0098,-0.1627,-156.4883,-0.3328,1.2871,11.8358,0.002,23.9125,-7.6269,0.0114,-221.2341
21792,-107.3957,21.7056,-0.0098,-0.1627,-156.4883,-0.3328,1.2871,11.8358,0.002,23.9125,-7.6269,0.0114,-221.2341
21834,-107.2429,22.2928,-0.0092,-0.2279,-169.8338,-0.4648,2.6808,11.145,0.002,23.0069,-13.1364,-0.0033,-226.8611
21840,-107.2429,22.2928,-0.0092,-0.2279,-169.8338,-0.4648,2.6808,11.145,0.002,23.0069,-13.1364,-0.0033,-226.8611
21856,-107.2429,22.2928,-0.0092,-0.2279,-169.8338,-0.4648,2.6808,11.145,0.002,23.0069,-13.1364,-0.0033,-226.8611
21872,-107.1155,22.6403,-0.0089,-0.2596,-178.6165,-0.5502,3.3765,10.4002,0.0022,18.0589,-19.3336,0.0032,-228.5972
21888,-107.1155,22.6403,-0.0089,-0.2596,-178.6165,-0.5502,3.3765,10.4002,0.0022,18.0589,-19.3336,0.0032,-228.5972
21919,-106.9922,22.9242,-0.0087,-0.2756,173.415,-0.6342,3.7757,9.5572,0.0022,11.499,-24.2885,0.0009,-229.994
21924,-106.9922,22.9242,-0.0087,-0.2756,173.415,-0.6342,3.7757,9.5572,0.0022,11.499,-24.2885,0.0009,-229.994
21954,-106.8665,23.1801,-0.0085,-0.2824,165.3412,-0.7228,3.9689,8.6195,0.0021,5.5104,-26.733,-0.0015,-230.0814
21964,-106.8665,23.1801,-0.0085,-0.2824,165.3412,-0.7228,3.9689,8.6195,0.0021,5.5104,-26.733,-0.0015,-230.0814
21994,-106.7415,23.4409,-0.0087,-0.2608,156.554,-0.7968,3.415,7.8861,-0.0035,-13.9466,-18.4662,-0.1426,-212.6986
21996,-106.7415,23.4409,-0.0087,-0.2608,156.554,-0.7968,3.415,7.8861,-0.0035,-13.9466,-18.4662,-0.1426,-212.6986
22012,-106.6704,23.6367,-0.009,-0.2169,150.1986,-0.8378,2.7152,7.4472,0.0039,-22.4306,-14.0673,0.2395,-199.0651
22028,-106.6704,23.6367,-0.009,-0.2169,150.1986,-0.8378,2.7152,7.4472,0.0039,-22.4306,-14.0673,0.2395,-199.0651
22044,-106.6286,23.8067,-0.0093,-0.1677,144.7185,-0.88,2.0603,7.1148,0.0027,-23.1979,-11.7737,-0.0438,-191.9248
22060,-106.6286,23.8067,-0.0093,-0.1677,144.7185,-0.88,2.0603,7.1148,0.0027,-23.1979,-11.7737,-0.0438,-191.9248
22076,-106.6066,24.0062,-0.0096,-0.1092,138.512,-0.9126,1.2034,6.9577,0.0016,-25.5167,-4.6783,-0.0326,-179.3261
22092,-106.6066,24.0062,-0.0096,-0.1092,138.512,-0.9126,1.2034,6.9577,0.0016,-25.5167,-4.6783,-0.0326,-179.3261
22108,-106.6136,24.2103,-0.0101,-0.0466,132.9207,-0.9125,0.3579,7.0616,0.0007,-25.4506,3.1265,-0.0267,-161.3616
22124,-106.6136,24.2103,-0.0101,-0.0466,132.9207,-0.9125,0.3579,7.0616,0.0007,-25.4506,3.1265,-0.0267,-161.3616
22140,-106.6482,24.4358,-0.0106,0.0196,127.7933,-0.8853,-0.4527,7.3168,-0.0001,-23.4874,7.3935,-0.0226,-140.5915
22156,-106.6482,24.4358,-0.0106,0.0196,127.7933,-0.8853,-0.4527,7.3168,-0.0001,-23.4874,7.3935,-0.0226,-140.5915
22182,-106.715,24.7158,-0.0111,0.0883,122.8096,-0.8244,-1.1645,7.7277,-0.0008,-17.9409,10.3593,-0.0183,-117.4396
22188,-106.715,24.7158,-0.0111,0.0883,122.8096,-0.8244,-1.1645,7.7277,-0.0008,-17.9409,10.3593,-0.0183,-117.4396
22207,-106.7802,24.9585,-0.0114,0.1282,119.2947,-0.7443,-1.4279,8.0844,-0.0013,-8.2077,11.1146,-0.0146,-105.5804
22220,-106.7802,24.9585,-0.0114,0.1282,119.2947,-0.7443,-1.4279,8.0844,-0.0013,-8.2077,11.1146,-0.0146,-105.5804
22236,-106.7802,24.9585,-0.0114,0.1282,119.2947,-0.7443,-1.4279,8.0844,-0.0013,-8.2077,11.1146,-0.0146,-105.5804
22252,-106.8579,25.2553,-0.0117,0.158,115.5533,-0.6083,-1.4342,8.4616,-0.002,-0.1703,10.1751,-0.0196,-98.9666
22268,-106.8579,25.2553,-0.0117,0.158,115.5533,-0.6083,-1.4342,8.4616,-0.002,-0.1703,10.1751,-0.0196,-98.9666
22284,-106.9386,25.6078,-0.0119,0.1723,111.479,-0.4316,-1.1819,8.8281,-0.0028,6.0271,8.756,-0.0183,-96.7022
22300,-106.9386,25.6078,-0.0119,0.1723,111.479,-0.4316,-1.1819,8.8281,-0.0028,6.0271,8.756,-0.0183,-96.7022
22332,-106.9787,25.8166,-0.012,0.1741,109.1699,-0.3285,-0.9653,9.009,-0.0031,9.0507,7.5606,-0.0129,-96.4205
22352,-107.0401,26.1901,-0.0121,0.1736,105.4114,-0.1892,-0.8587,9.317,-0.0032,2.5702,7.4294,-0.0034,-84.7289
22364,-107.0401,26.1901,-0.0121,0.1736,105.4114,-0.1892,-0.8587,9.317,-0.0032,2.5702,7.4294,-0.0034,-84.7289
22384,-107.0853,26.4799,-0.0122,0.1703,103.0827,-0.1432,-0.989,9.4803,-0.0027,-4.176,5.2339,0.0167,-68.0028
22396,-107.0853,26.4799,-0.0122,0.1703,103.0827,-0.1432,-0.989,9.4803,-0.0027,-4.176,5.2339,0.0167,-68.0028
22412,-107.0853,26.4799,-0.0122,0.1703,103.0827,-0.1432,-0.989,9.4803,-0.0027,-4.176,5.2339,0.0167,-68.0028
22428,-107.1473,26.8542,-0.0122,0.1585,101.0444,-0.1473,-1.3221,9.5703,-0.0016,-8.4244,2.2766,0.0285,-41.8979
22444,-107.1473,26.8542,-0.0122,0.1585,101.0444,-0.1473,-1.3221,9.5703,-0.0016,-8.4244,2.2766,0.0285,-41.8979
22460,-107.1894,27.0965,-0.0122,0.1479,100.2044,-0.1585,-1.4615,9.6181,-0.0007,-5.4966,1.884,0.0345,-29.1587
22491,-107.2393,27.3824,-0.0121,0.1339,99.5584,-0.1612,-1.5458,9.6754,-0.0002,-2.8363,1.9291,0.0161,-18.5038
22500,-107.2393,27.3824,-0.0121,0.1339,99.5584,-0.1612,-1.5458,9.6754,-0.0002,-2.8363,1.9291,0.0161,-18.5038
22516,-107.2393,27.3824,-0.0121,0.1339,99.5584,-0.1612,-1.5458,9.6754,-0.0002,-2.8363,1.9291,0.0161,-18.5038
22532,-107.3235,27.8779,-0.0117,0.1212,98.9435,-0.1059,-1.5735,9.7535,0.0307,-0.5428,1.5303,0.605,-8.397
22552,-107.3625,28.1181,-0.0109,0.1511,98.7692,0.0284,-1.5736,9.7783,0.0428,-0.006,1.0103,0.4955,-6.5987
22564,-107.3625,28.1181,-0.0109,0.1511,98.7692,0.0284,-1.5736,9.7783,0.0428,-0.006,1.0103,0.4955,-6.5987
22580,-107.3625,28.1181,-0.0109,0.1511,98.7692,0.0284,-1.5736,9.7783,0.0428,-0.006,1.0103,0.4955,-6.5987
22604,-107.4343,28.561,-0.0106,0.1302,98.5947,0.0171,-1.5436,9.83,-0.0232,0.6643,1.1454,-1.4621,-2.3623
22614,-107.4343,28.561,-0.0106,0.1302,98.5947,0.0171,-1.5436,9.83,-0.0232,0.6643,1.1454,-1.4621,-2.3623
22630,-107.4343,28.561,-0.0106,0.1302,98.5947,0.0171,-1.5436,9.83,-0.0232,0.6643,1.1454,-1.4621,-2.3623
22646,-107.4343,28.561,-0.0106,0.1302,98.5947,0.0171,-1.5436,9.83,-0.0232,0.6643,1.1454,-1.4621,-2.3623
22662,-107.5242,29.1369,-0.0111,0.0793,98.497,-0.0295,-1.5079,9.8743,-0.0102,0.612,0.7568,0.2219,0.2571
22678,-107.5242,29.1369,-0.0111,0.0793,98.497,-0.0295,-1.5079,9.8743,-0.0102,0.612,0.7568,0.2219,0.2571
22694,-107.5785,29.4933,-0.0112,0.0624,98.4686,-0.0271,-1.4983,9.9026,-0.006,0.2638,0.7865,0.1176,0.3118
22710,-107.5785,29.4933,-0.0112,0.0624,98.4686,-0.0271,-1.4983,9.9026,-0.006,0.2638,0.7865,0.1176,0.3118
22735,-107.6233,29.7896,-0.0113,0.0521,98.4472,-0.0224,-1.493,9.9189,-0.004,0.1773,0.5435,0.0672,-1.2855
22742,-107.6589,30.0268,-0.0113,0.0459,98.4449,-0.0189,-1.4908,9.9375,-0.0027,0.0934,0.7808,0.0521,0.1352
22758,-107.6589,30.0268,-0.0113,0.0459,98.4449,-0.0189,-1.4908,9.9375,-0.0027,0.0934,0.7808,0.0521,0.1352
22777,-107.6936,30.2583,-0.0113,0.0411,98.4384,-0.0157,-1.4897,9.9573,-0.002,0.0464,0.8501,0.0329,-0.4424
22790,-107.6936,30.2583,-0.0113,0.0411,98.4384,-0.0157,-1.4897,9.9573,-0.002,0.0464,0.8501,0.0329,-0.4424
22809,-107.7524,30.6538,-0.0107,0.0013,98.4314,0.0313,-1.4892,9.975,0.0183,0.0144,0.4461,0.51,-0.8504
22822,-107.7524,30.6538,-0.0107,0.0013,98.4314,0.0313,-1.4892,9.975,0.0183,0.0144,0.4461,0.51,-0.8504
22838,-107.8002,30.9755,-0.0101,-0.0328,98.4318,0.062,-1.4936,9.9984,-0.0131,-0.1383,0.7269,-0.9732,-0.4344
22854,-107.8002,30.9755,-0.0101,-0.0328,98.4318,0.062,-1.4936,9.9984,-0.0131,-0.1383,0.7269,-0.9732,-0.4344
22870,-107.8002,30.9755,-0.0101,-0.0328,98.4318,0.062,-1.4936,9.9984,-0.0131,-0.1383,0.7269,-0.9732,-0.4344
22887,-107.857,31.3554,-0.0107,-0.0008,98.434,0.0154,-1.4882,10.0183,-0.0084,0.1424,0.5234,0.1235,-0.7083
22903,-107.857,31.3554,-0.0107,-0.0008,98.434,0.0154,-1.4882,10.0183,-0.0084,0.1424,0.5234,0.1235,-0.7083
22919,-107.857,31.3554,-0.0107,-0.0008,98.434,0.0154,-1.4882,10.0183,-0.0084,0.1424,0.5234,0.1235,-0.7083
22935,-107.934,31.8733,-0.0111,0.0137,98.4364,0.0004,-1.4903,10.0472,-0.0039,-0.0411,0.5606,0.0863,-0.4362
22951,-107.934,31.8733,-0.0111,0.0137,98.4364,0.0004,-1.4903,10.0472,-0.0039,-0.0411,0.5606,0.0863,-0.4362
22970,-107.9834,32.2067,-0.0112,0.0163,98.4372,-0.0016,-1.4932,10.0673,-0.0023,-0.0863,0.6058,0.0498,-0.3653
22983,-107.9834,32.2067,-0.0112,0.0163,98.4372,-0.0016,-1.4932,10.0673,-0.0023,-0.0863,0.6058,0.0498,-0.3653
23001,-108.0399,32.5873,-0.0112,0.0166,98.4365,-0.002,-1.4955,10.082,-0.0012,-0.0616,0.3893,0.0288,-0.6338
23015,-108.0399,32.5873,-0.0112,0.0166,98.4365,-0.002,-1.4955,10.082,-0.0012,-0.0616,0.3893,0.0288,-0.6338
23031,-108.0761,32.832,-0.0113,0.0161,98.4402,-0.002,-1.4977,10.0965,-0.0008,-0.0898,0.5994,0.0188,0.3679
23047,-108.0761,32.832,-0.0113,0.0161,98.4402,-0.002,-1.4977,10.0965,-0.0008,-0.0898,0.5994,0.0188,0.3679
23063,-108.0761,32.832,-0.0113,0.0161,98.4402,-0.002,-1.4977,10.0965,-0.0008,-0.0898,0.5994,0.0188,0.3679
23080,-108.1454,33.2987,-0.0113,0.0149,98.4357,-0.0017,-1.5008,10.1166,-0.0003,-0.067,0.4344,0.0104,-0.5926
23095,-108.1454,33.2987,-0.0113,0.0149,98.4357,-0.0017,-1.5008,10.1166,-0.0003,-0.067,0.4344,0.0104,-0.5926
23111,-108.2021,33.6806,-0.0113,0.0135,98.4356,-0.0014,-1.5027,10.1292,-0.0001,-0.0509,0.3347,0.0052,-0.6481
23127,-108.2021,33.6806,-0.0113,0.0135,98.4356,-0.0014,-1.5027,10.1292,-0.0001,-0.0509,0.3347,0.0052,-0.6481
23143,-108.2021,33.6806,-0.0113,0.0135,98.4356,-0.0014,-1.5027,10.1292,-0.0001,-0.0509,0.3347,0.0052,-0.6481
23159,-108.2652,34.1066,-0.0113,0.0125,98.4396,-0.0011,-1.5064,10.1541,0.0,-0.0867,0.5944,0.0023,0.3965
23175,-108.2652,34.1066,-0.0113,0.0125,98.4396,-0.0011,-1.5064,10.1541,0.0,-0.0867,0.5944,0.0023,0.3965
23195,-108.3209,34.4822,-0.0113,0.0118,98.4403,-0.0009,-1.5088,10.1706,0.0001,-0.0648,0.4448,0.0012,0.5799
23210,-108.3546,34.709,-0.0113,0.0115,98.4379,-0.0008,-1.5111,10.186,0.0001,-0.1055,0.6928,-0.0005,-0.2299
23223,-108.3546,34.709,-0.0113,0.0115,98.4379,-0.0008,-1.5111,10.186,0.0001,-0.1055,0.6928,-0.0005,-0.2299
23239,-108.3546,34.709,-0.0113,0.0115,98.4379,-0.0008,-1.5111,10.186,0.0001,-0.1055,0.6928,-0.0005,-0.2299
23255,-108.4099,35.0815,-0.0113,0.0112,98.4368,-0.0007,-1.5141,10.2054,0.0001,-0.081,0.5301,0.0004,-0.4928
23271,-108.4099,35.0815,-0.0113,0.0112,98.4368,-0.0007,-1.5141,10.2054,0.0001,-0.081,0.5301,0.0004,-0.4928
23287,-108.4628,35.4385,-0.0112,0.0108,98.437,-0.0005,-1.5164,10.2211,0.0001,-0.0676,0.451,-0.0003,-0.4623
23303,-108.4628,35.4385,-0.0112,0.0108,98.437,-0.0005,-1.5164,10.2211,0.0001,-0.0676,0.451,-0.0003,-0.4623
23322,-108.5179,35.8097,-0.0112,0.0103,98.4368,-0.0005,-1.5186,10.2358,0.0001,-0.0607,0.4033,0.0003,-0.5357
23335,-108.5179,35.8097,-0.0112,0.0103,98.4368,-0.0005,-1.5186,10.2358,0.0001,-0.0607,0.4033,0.0003,-0.5357
23358,-108.5643,36.1228,-0.0112,0.0101,98.4376,-0.0004,-1.5215,10.2551,0.0,-0.0924,0.6311,-0.0007,-0.2344
23367,-108.5643,36.1228,-0.0112,0.0101,98.4376,-0.0004,-1.5215,10.2551,0.0,-0.0924,0.6311,-0.0007,-0.2344
23383,-108.5643,36.1228,-0.0112,0.0101,98.4376,-0.0004,-1.5215,10.2551,0.0,-0.0924,0.6311,-0.0007,-0.2344
23399,-108.6224,36.5138,-0.0112,0.0099,98.4359,-0.0003,-1.5239,10.2711,0.0,-0.0631,0.4214,-0.0,-0.5836
23415,-108.6224,36.5138,-0.0112,0.0099,98.4359,-0.0003,-1.5239,10.2711,0.0,-0.0631,0.4214,-0.0,-0.5836
23431,-108.6745,36.8652,-0.0112,0.0096,98.4364,-0.0002,-1.5261,10.2864,0.0,-0.0649,0.4467,-0.0007,-0.4162
23447,-108.6745,36.8652,-0.0112,0.0096,98.4364,-0.0002,-1.5261,10.2864,0.0,-0.0649,0.4467,-0.0007,-0.4162
23463,-108.7222,37.1868,-0.0112,0.0095,98.4369,-0.0002,-1.5287,10.3045,0.0,-0.0843,0.5802,-0.0002,-0.2503
23479,-108.7222,37.1868,-0.0112,0.0095,98.4369,-0.0002,-1.5287,10.3045,0.0,-0.0843,0.5802,-0.0002,-0.2503
23495,-108.7752,37.5438,-0.0112,0.0095,98.4364,-0.0002,-1.5312,10.3217,0.0,-0.0733,0.4981,0.0002,-0.3765
23511,-108.7752,37.5438,-0.0112,0.0095,98.4364,-0.0002,-1.5312,10.3217,0.0,-0.0733,0.4981,0.0002,-0.3765
