timestamp,x,y,z,pitch,yaw,roll,vx,vy,vz,ax,ay,az,yaw_rate
66064,-106.6867,-4.8475,-0.08,0.0,-89.3578,0.0,0.0,-0.0,0.0476,-0.0,0.0,7.0703,0.0
66080,-106.6867,-4.8475,-0.08,0.0,-89.3578,0.0,0.0,-0.0,0.0476,-0.0,0.0,7.0703,0.0
66096,-106.6867,-4.8475,-0.08,0.0,-89.3578,0.0,0.0,-0.0,0.0476,-0.0,0.0,7.0703,0.0
66112,-106.6867,-4.8475,-0.08,0.0,-89.3578,0.0,0.0,-0.0,0.0476,-0.0,0.0,7.0703,0.0
66128,-106.6867,-4.8475,-0.08,0.0,-89.3578,0.0,0.0,-0.0,0.0476,-0.0,0.0,7.0703,0.0
66144,-106.6867,-4.8475,-0.08,0.0,-89.3578,0.0,0.0,-0.0,0.0476,-0.0,0.0,7.0703,0.0
66160,-106.6867,-4.8475,-0.08,0.0,-89.3578,0.0,0.0,-0.0,0.0476,-0.0,0.0,7.0703,0.0
66176,-106.6867,-4.8475,-0.08,0.0,-89.3578,0.0,0.0,-0.0,0.0476,-0.0,0.0,7.0703,0.0
66192,-106.6867,-4.8475,-0.08,0.0,-89.3578,0.0,0.0,-0.0,0.0476,-0.0,0.0,7.0703,0.0
66208,-106.6867,-4.8475,-0.08,0.0,-89.3578,0.0,0.0,-0.0,0.0476,-0.0,0.0,7.0703,0.0
66224,-106.6867,-4.8475,-0.08,0.0,-89.3578,0.0,0.0,-0.0,0.0476,-0.0,0.0,7.0703,0.0
66240,-106.6867,-4.8475,-0.08,0.0,-89.3578,0.0,0.0,-0.0,0.0476,-0.0,0.0,7.0703,0.0
66256,-106.6867,-4.8475,-0.08,0.0,-89.3578,0.0,0.0,-0.0,0.0476,-0.0,0.0,7.0703,0.0
66272,-106.6867,-4.8475,-0.08,0.0,-89.3578,0.0,0.0,-0.0,0.0476,-0.0,0.0,7.0703,0.0
66288,-106.6867,-4.8458,-0.0607,-0.0016,-89.3578,0.0,-0.0004,0.0399,0.2371,-0.0021,0.1881,0.8942,0.0001
66304,-106.6867,-4.8458,-0.0607,-0.0016,-89.3578,0.0,-0.0004,0.0399,0.2371,-0.0021,0.1881,0.8942,0.0001
66320,-106.6867,-4.8458,-0.0607,-0.0016,-89.3578,0.0,-0.0004,0.0399,0.2371,-0.0021,0.1881,0.8942,0.0001
66336,-106.6867,-4.8458,-0.0607,-0.0016,-89.3578,0.0,-0.0004,0.0399,0.2371,-0.0021,0.1881,0.8942,0.0001
66352,-106.6867,-4.8458,-0.0607,-0.0016,-89.3578,0.0,-0.0004,0.0399,0.2371,-0.0021,0.1881,0.8942,0.0001
66368,-106.6867,-4.8458,-0.0607,-0.0016,-89.3578,0.0,-0.0004,0.0399,0.2371,-0.0021,0.1881,0.8942,0.0001
66384,-106.6867,-4.8458,-0.0607,-0.0016,-89.3578,0.0,-0.0004,0.0399,0.2371,-0.0021,0.1881,0.8942,0.0001
66400,-106.6867,-4.8458,-0.0607,-0.0016,-89.3578,0.0,-0.0004,0.0399,0.2371,-0.0021,0.1881,0.8942,0.0001
66416,-106.6867,-4.8458,-0.0607,-0.0016,-89.3578,0.0,-0.0004,0.0399,0.2371,-0.0021,0.1881,0.8942,0.0001
66434,-106.6868,-4.8411,-0.0395,-0.0049,-89.3578,0.0,-0.0011,0.1013,0.1796,-0.0045,0.4052,-0.3797,-0.0016
66448,-106.6868,-4.8411,-0.0395,-0.0049,-89.3578,0.0,-0.0011,0.1013,0.1796,-0.0045,0.4052,-0.3797,-0.0016
66464,-106.6868,-4.8411,-0.0395,-0.0049,-89.3578,0.0,-0.0011,0.1013,0.1796,-0.0045,0.4052,-0.3797,-0.0016
66480,-106.6868,-4.8411,-0.0395,-0.0049,-89.3578,0.0,-0.0011,0.1013,0.1796,-0.0045,0.4052,-0.3797,-0.0016
66496,-106.6868,-4.8411,-0.0395,-0.0049,-89.3578,0.0,-0.0011,0.1013,0.1796,-0.0045,0.4052,-0.3797,-0.0016
66512,-106.6868,-4.8411,-0.0395,-0.0049,-89.3578,0.0,-0.0011,0.1013,0.1796,-0.0045,0.4052,-0.3797,-0.0016
66530,-106.6871,-4.8067,-0.0263,-0.0279,-89.3583,0.0,-0.0065,0.5784,0.1087,-0.0575,5.0952,-0.7576,0.001
66544,-106.6871,-4.8067,-0.0263,-0.0279,-89.3583,0.0,-0.0065,0.5784,0.1087,-0.0575,5.0952,-0.7576,0.001
66560,-106.6871,-4.8067,-0.0263,-0.0279,-89.3583,0.0,-0.0065,0.5784,0.1087,-0.0575,5.0952,-0.7576,0.001
66576,-106.6871,-4.8067,-0.0263,-0.0279,-89.3583,0.0,-0.0065,0.5784,0.1087,-0.0575,5.0952,-0.7576,0.001
66592,-106.6871,-4.8067,-0.0263,-0.0279,-89.3583,0.0,-0.0065,0.5784,0.1087,-0.0575,5.0952,-0.7576,0.001
66608,-106.6871,-4.8067,-0.0263,-0.0279,-89.3583,0.0,-0.0065,0.5784,0.1087,-0.0575,5.0952,-0.7576,0.001
66626,-106.6881,-4.7242,-0.0183,-0.0478,-89.3569,0.0,-0.0099,0.887,0.0716,-0.0344,3.0965,-0.372,-0.0282
66640,-106.6881,-4.7242,-0.0183,-0.0478,-89.3569,0.0,-0.0099,0.887,0.0716,-0.0344,3.0965,-0.372,-0.0282
66656,-106.6881,-4.7242,-0.0183,-0.0478,-89.3569,0.0,-0.0099,0.887,0.0716,-0.0344,3.0965,-0.372,-0.0282
66672,-106.6881,-4.7242,-0.0183,-0.0478,-89.3569,0.0,-0.0099,0.887,0.0716,-0.0344,3.0965,-0.372,-0.0282
66688,-106.6881,-4.7242,-0.0183,-0.0478,-89.3569,0.0,-0.0099,0.887,0.0716,-0.0344,3.0965,-0.372,-0.0282
66704,-106.6881,-4.7242,-0.0183,-0.0478,-89.3569,0.0,-0.0099,0.887,0.0716,-0.0344,3.0965,-0.372,-0.0282
66720,-106.6891,-4.6167,-0.014,-0.0446,-89.3353,-0.0009,-0.0084,1.1002,0.0292,0.0153,2.1787,-0.4329,-1.5253
66736,-106.6891,-4.6167,-0.014,-0.0446,-89.3353,-0.0009,-0.0084,1.1002,0.0292,0.0153,2.1787,-0.4329,-1.5253
66752,-106.6891,-4.6167,-0.014,-0.0446,-89.3353,-0.0009,-0.0084,1.1002,0.0292,0.0153,2.1787,-0.4329,-1.5253
66768,-106.6891,-4.6167,-0.014,-0.0446,-89.3353,-0.0009,-0.0084,1.1002,0.0292,0.0153,2.1787,-0.4329,-1.5253
66784,-106.6891,-4.6167,-0.014,-0.0446,-89.3353,-0.0009,-0.0084,1.1002,0.0292,0.0153,2.1787,-0.4329,-1.5253
66800,-106.6891,-4.6167,-0.014,-0.0446,-89.3353,-0.0009,-0.0084,1.1002,0.0292,0.0153,2.1787,-0.4329,-1.5253
66818,-106.6896,-4.5151,-0.0124,-0.0265,-89.3542,-0.0009,-0.0052,1.0915,0.0125,0.035,-0.0935,-0.18,-2.2781
66832,-106.6896,-4.5151,-0.0124,-0.0265,-89.3542,-0.0009,-0.0052,1.0915,0.0125,0.035,-0.0935,-0.18,-2.2781
66848,-106.6896,-4.5151,-0.0124,-0.0265,-89.3542,-0.0009,-0.0052,1.0915,0.0125,0.035,-0.0935,-0.18,-2.2781
66864,-106.6896,-4.5151,-0.0124,-0.0265,-89.3542,-0.0009,-0.0052,1.0915,0.0125,0.035,-0.0935,-0.18,-2.2781
66880,-106.6896,-4.5151,-0.0124,-0.0265,-89.3542,-0.0009,-0.0052,1.0915,0.0125,0.035,-0.0935,-0.18,-2.2781
66896,-106.6896,-4.5151,-0.0124,-0.0265,-89.3542,-0.0009,-0.0052,1.0915,0.0125,0.035,-0.0935,-0.18,-2.2781
66913,-106.6895,-4.4083,-0.0117,-0.0149,-89.4086,-0.001,-0.0044,1.0987,0.0055,0.0083,0.0732,-0.0712,-2.587
66928,-106.6895,-4.4083,-0.0117,-0.0149,-89.4086,-0.001,-0.0044,1.0987,0.0055,0.0083,0.0732,-0.0712,-2.587
66944,-106.6895,-4.4083,-0.0117,-0.0149,-89.4086,-0.001,-0.0044,1.0987,0.0055,0.0083,0.0732,-0.0712,-2.587
66960,-106.6895,-4.4083,-0.0117,-0.0149,-89.4086,-0.001,-0.0044,1.0987,0.0055,0.0083,0.0732,-0.0712,-2.587
66976,-106.6895,-4.4083,-0.0117,-0.0149,-89.4086,-0.001,-0.0044,1.0987,0.0055,0.0083,0.0732,-0.0712,-2.587
66992,-106.6895,-4.4083,-0.0117,-0.0149,-89.4086,-0.001,-0.0044,1.0987,0.0055,0.0083,0.0732,-0.0712,-2.587
67008,-106.6901,-4.2772,-0.0112,-0.0367,-89.4495,-0.0005,-0.0075,1.7284,0.0026,-0.0326,6.5641,-0.0308,-4.3532
67024,-106.6901,-4.2772,-0.0112,-0.0367,-89.4495,-0.0005,-0.0075,1.7284,0.0026,-0.0326,6.5641,-0.0308,-4.3532
67040,-106.6901,-4.2772,-0.0112,-0.0367,-89.4495,-0.0005,-0.0075,1.7284,0.0026,-0.0326,6.5641,-0.0308,-4.3532
67056,-106.6901,-4.2772,-0.0112,-0.0367,-89.4495,-0.0005,-0.0075,1.7284,0.0026,-0.0326,6.5641,-0.0308,-4.3532
67072,-106.6901,-4.2772,-0.0112,-0.0367,-89.4495,-0.0005,-0.0075,1.7284,0.0026,-0.0326,6.5641,-0.0308,-4.3532
67088,-106.6901,-4.2772,-0.0112,-0.0367,-89.4495,-0.0005,-0.0075,1.7284,0.0026,-0.0326,6.5641,-0.0308,-4.3532
67106,-106.6912,-4.0916,-0.0108,-0.0709,-89.5104,0.0004,-0.0233,2.2952,0.0013,-0.176,6.3302,-0.0141,-4.7505
67120,-106.6912,-4.0916,-0.0108,-0.0709,-89.5104,0.0004,-0.0233,2.2952,0.0013,-0.176,6.3302,-0.0141,-4.7505
67136,-106.6912,-4.0916,-0.0108,-0.0709,-89.5104,0.0004,-0.0233,2.2952,0.0013,-0.176,6.3302,-0.0141,-4.7505
67152,-106.6912,-4.0916,-0.0108,-0.0709,-89.5104,0.0004,-0.0233,2.2952,0.0013,-0.176,6.3302,-0.0141,-4.7505
67168,-106.6912,-4.0916,-0.0108,-0.0709,-89.5104,0.0004,-0.0233,2.2952,0.0013,-0.176,6.3302,-0.0141,-4.7505
67184,-106.6912,-4.0916,-0.0108,-0.0709,-89.5104,0.0004,-0.0233,2.2952,0.0013,-0.176,6.3302,-0.0141,-4.7505
67202,-106.6935,-3.825,-0.0106,-0.0894,-89.537,0.0002,-0.026,2.9765,0.0006,-0.0275,6.9498,-0.0068,-2.6842
67216,-106.6935,-3.825,-0.0106,-0.0894,-89.537,0.0002,-0.026,2.9765,0.0006,-0.0275,6.9498,-0.0068,-2.6842
67232,-106.6935,-3.825,-0.0106,-0.0894,-89.537,0.0002,-0.026,2.9765,0.0006,-0.0275,6.9498,-0.0068,-2.6842
67248,-106.6935,-3.825,-0.0106,-0.0894,-89.537,0.0002,-0.026,2.9765,0.0006,-0.0275,6.9498,-0.0068,-2.6842
67264,-106.6935,-3.825,-0.0106,-0.0894,-89.537,0.0002,-0.026,2.9765,0.0006,-0.0275,6.9498,-0.0068,-2.6842
67280,-106.6935,-3.825,-0.0106,-0.0894,-89.537,0.0002,-0.026,2.9765,0.0006,-0.0275,6.9498,-0.0068,-2.6842
67297,-106.6956,-3.5087,-0.0105,-0.0881,-89.5966,-0.0009,-0.0265,3.4723,0.0003,-0.0059,5.0583,-0.0032,-4.833
67312,-106.6956,-3.5087,-0.0105,-0.0881,-89.5966,-0.0009,-0.0265,3.4723,0.0003,-0.0059,5.0583,-0.0032,-4.833
67328,-106.6956,-3.5087,-0.0105,-0.0881,-89.5966,-0.0009,-0.0265,3.4723,0.0003,-0.0059,5.0583,-0.0032,-4.833
67344,-106.6956,-3.5087,-0.0105,-0.0881,-89.5966,-0.0009,-0.0265,3.4723,0.0003,-0.0059,5.0583,-0.0032,-4.833
67360,-106.6956,-3.5087,-0.0105,-0.0881,-89.5966,-0.0009,-0.0265,3.4723,0.0003,-0.0059,5.0583,-0.0032,-4.833
67376,-106.6956,-3.5087,-0.0105,-0.0881,-89.5966,-0.0009,-0.0265,3.4723,0.0003,-0.0059,5.0583,-0.0032,-4.833
67394,-106.6991,-3.1528,-0.0105,-0.0934,-89.5247,-0.0001,-0.0331,4.1,0.0002,-0.0707,6.7312,-0.0017,1.8789
67408,-106.6991,-3.1528,-0.0105,-0.0934,-89.5247,-0.0001,-0.0331,4.1,0.0002,-0.0707,6.7312,-0.0017,1.8789
67424,-106.6991,-3.1528,-0.0105,-0.0934,-89.5247,-0.0001,-0.0331,4.1,0.0002,-0.0707,6.7312,-0.0017,1.8789
67440,-106.6991,-3.1528,-0.0105,-0.0934,-89.5247,-0.0001,-0.0331,4.1,0.0002,-0.0707,6.7312,-0.0017,1.8789
67456,-106.6991,-3.1528,-0.0105,-0.0934,-89.5247,-0.0001,-0.0331,4.1,0.0002,-0.0707,6.7312,-0.0017,1.8789
67472,-106.6991,-3.1528,-0.0105,-0.0934,-89.5247,-0.0001,-0.0331,4.1,0.0002,-0.0707,6.7312,-0.0017,1.8789
67490,-106.7017,-2.7447,-0.0105,-0.0872,-89.5966,-0.0009,-0.0333,4.5291,0.0001,-0.0018,4.4898,-0.0008,-2.609
67504,-106.7017,-2.7447,-0.0105,-0.0872,-89.5966,-0.0009,-0.0333,4.5291,0.0001,-0.0018,4.4898,-0.0008,-2.609
67520,-106.7017,-2.7447,-0.0105,-0.0872,-89.5966,-0.0009,-0.0333,4.5291,0.0001,-0.0018,4.4898,-0.0008,-2.609
67536,-106.7017,-2.7447,-0.0105,-0.0872,-89.5966,-0.0009,-0.0333,4.5291,0.0001,-0.0018,4.4898,-0.0008,-2.609
67552,-106.7017,-2.7447,-0.0105,-0.0872,-89.5966,-0.0009,-0.0333,4.5291,0.0001,-0.0018,4.4898,-0.0008,-2.609
67568,-106.7017,-2.7447,-0.0105,-0.0872,-89.5966,-0.0009,-0.0333,4.5291,0.0001,-0.0018,4.4898,-0.0008,-2.609
67586,-106.7042,-2.2887,-0.0105,-0.0887,-89.6523,-0.0018,-0.0295,5.0918,0.0001,0.0396,5.9025,-0.0003,1.4362
67600,-106.7042,-2.2887,-0.0105,-0.0887,-89.6523,-0.0018,-0.0295,5.0918,0.0001,0.0396,5.9025,-0.0003,1.4362
67616,-106.7042,-2.2887,-0.0105,-0.0887,-89.6523,-0.0018,-0.0295,5.0918,0.0001,0.0396,5.9025,-0.0003,1.4362
67632,-106.7042,-2.2887,-0.0105,-0.0887,-89.6523,-0.0018,-0.0295,5.0918,0.0001,0.0396,5.9025,-0.0003,1.4362
67648,-106.7042,-2.2887,-0.0105,-0.0887,-89.6523,-0.0018,-0.0295,5.0918,0.0001,0.0396,5.9025,-0.0003,1.4362
67664,-106.7042,-2.2887,-0.0105,-0.0887,-89.6523,-0.0018,-0.0295,5.0918,0.0001,0.0396,5.9025,-0.0003,1.4362
67682,-106.7069,-1.7643,-0.0105,-0.0958,-89.694,-0.0017,-0.0325,5.7233,0.0,-0.031,6.4988,-0.0003,-1.9016
67696,-106.7069,-1.7643,-0.0105,-0.0958,-89.694,-0.0017,-0.0325,5.7233,0.0,-0.031,6.4988,-0.0003,-1.9016
67712,-106.7069,-1.7643,-0.0105,-0.0958,-89.694,-0.0017,-0.0325,5.7233,0.0,-0.031,6.4988,-0.0003,-1.9016
67728,-106.7069,-1.7643,-0.0105,-0.0958,-89.694,-0.0017,-0.0325,5.7233,0.0,-0.031,6.4988,-0.0003,-1.9016
67744,-106.7069,-1.7643,-0.0105,-0.0958,-89.694,-0.0017,-0.0325,5.7233,0.0,-0.031,6.4988,-0.0003,-1.9016
67760,-106.7069,-1.7643,-0.0105,-0.0958,-89.694,-0.0017,-0.0325,5.7233,0.0,-0.031,6.4988,-0.0003,-1.9016
67777,-106.7101,-1.1815,-0.0104,-0.1048,-89.6837,-0.0012,-0.0344,6.4278,0.0,-0.019,7.332,-0.0002,1.3603
67792,-106.7101,-1.1815,-0.0104,-0.1048,-89.6837,-0.0012,-0.0344,6.4278,0.0,-0.019,7.332,-0.0002,1.3603
67808,-106.7101,-1.1815,-0.0104,-0.1048,-89.6837,-0.0012,-0.0344,6.4278,0.0,-0.019,7.332,-0.0002,1.3603
67824,-106.7101,-1.1815,-0.0104,-0.1048,-89.6837,-0.0012,-0.0344,6.4278,0.0,-0.019,7.332,-0.0002,1.3603
67840,-106.7101,-1.1815,-0.0104,-0.1048,-89.6837,-0.0012,-0.0344,6.4278,0.0,-0.019,7.332,-0.0002,1.3603
67856,-106.7101,-1.1815,-0.0104,-0.1048,-89.6837,-0.0012,-0.0344,6.4278,0.0,-0.019,7.332,-0.0002,1.3603
67874,-106.7136,-0.5424,-0.0103,-0.1171,-89.6914,-0.0007,-0.0394,7.2088,-0.0,-0.0534,8.343,-0.0001,-0.7614
67888,-106.7136,-0.5424,-0.0103,-0.1171,-89.6914,-0.0007,-0.0394,7.2088,-0.0,-0.0534,8.343,-0.0001,-0.7614
67904,-106.7136,-0.5424,-0.0103,-0.1171,-89.6914,-0.0007,-0.0394,7.2088,-0.0,-0.0534,8.343,-0.0001,-0.7614
67920,-106.7136,-0.5424,-0.0103,-0.1171,-89.6914,-0.0007,-0.0394,7.2088,-0.0,-0.0534,8.343,-0.0001,-0.7614
67936,-106.7136,-0.5424,-0.0103,-0.1171,-89.6914,-0.0007,-0.0394,7.2088,-0.0,-0.0534,8.343,-0.0001,-0.7614
67952,-106.7136,-0.5424,-0.0103,-0.1171,-89.6914,-0.0007,-0.0394,7.2088,-0.0,-0.0534,8.343,-0.0001,-0.7614
67968,-106.7174,0.1686,-0.0103,-0.1205,-89.6875,-0.0005,-0.0425,7.8811,-0.0,-0.0336,7.1493,-0.0,0.6678
67984,-106.7174,0.1686,-0.0103,-0.1205,-89.6875,-0.0005,-0.0425,7.8811,-0.0,-0.0336,7.1493,-0.0,0.6678
68000,-106.7174,0.1686,-0.0103,-0.1205,-89.6875,-0.0005,-0.0425,7.8811,-0.0,-0.0336,7.1493,-0.0,0.6678
68016,-106.7174,0.1686,-0.0103,-0.1205,-89.6875,-0.0005,-0.0425,7.8811,-0.0,-0.0336,7.1493,-0.0,0.6678
68032,-106.7174,0.1686,-0.0103,-0.1205,-89.6875,-0.0005,-0.0425,7.8811,-0.0,-0.0336,7.1493,-0.0,0.6678
68048,-106.7174,0.1686,-0.0103,-0.1205,-89.6875,-0.0005,-0.0425,7.8811,-0.0,-0.0336,7.1493,-0.0,0.6678
68064,-106.7216,0.9406,-0.0103,-0.1169,-89.6899,-0.0003,-0.0462,8.4935,0.0,-0.0387,6.5055,0.0001,-0.3139
68080,-106.7216,0.9406,-0.0103,-0.1169,-89.6899,-0.0003,-0.0462,8.4935,0.0,-0.0387,6.5055,0.0001,-0.3139
68096,-106.7216,0.9406,-0.0103,-0.1169,-89.6899,-0.0003,-0.0462,8.4935,0.0,-0.0387,6.5055,0.0001,-0.3139
68112,-106.7216,0.9406,-0.0103,-0.1169,-89.6899,-0.0003,-0.0462,8.4935,0.0,-0.0387,6.5055,0.0001,-0.3139
68128,-106.7216,0.9406,-0.0103,-0.1169,-89.6899,-0.0003,-0.0462,8.4935,0.0,-0.0387,6.5055,0.0001,-0.3139
68144,-106.7216,0.9406,-0.0103,-0.1169,-89.6899,-0.0003,-0.0462,8.4935,0.0,-0.0387,6.5055,0.0001,-0.3139
68160,-106.7262,1.7922,-0.0104,-0.1072,-89.6886,-0.0002,-0.0489,9.0126,-0.0,-0.0279,5.3446,-0.0001,0.1513
68176,-106.7262,1.7922,-0.0104,-0.1072,-89.6886,-0.0002,-0.0489,9.0126,-0.0,-0.0279,5.3446,-0.0001,0.1513
68192,-106.7262,1.7922,-0.0104,-0.1072,-89.6886,-0.0002,-0.0489,9.0126,-0.0,-0.0279,5.3446,-0.0001,0.1513
68208,-106.7262,1.7922,-0.0104,-0.1072,-89.6886,-0.0002,-0.0489,9.0126,-0.0,-0.0279,5.3446,-0.0001,0.1513
68224,-106.7262,1.7922,-0.0104,-0.1072,-89.6886,-0.0002,-0.0489,9.0126,-0.0,-0.0279,5.3446,-0.0001,0.1513
68240,-106.7262,1.7922,-0.0104,-0.1072,-89.6886,-0.0002,-0.0489,9.0126,-0.0,-0.0279,5.3446,-0.0001,0.1513
68258,-106.7312,2.7071,-0.0104,-0.0971,-89.6891,-0.0001,-0.0516,9.5051,-0.0,-0.0277,4.9882,0.0,-0.0369
68272,-106.7312,2.7071,-0.0104,-0.0971,-89.6891,-0.0001,-0.0516,9.5051,-0.0,-0.0277,4.9882,0.0,-0.0369
68288,-106.7312,2.7071,-0.0104,-0.0971,-89.6891,-0.0001,-0.0516,9.5051,-0.0,-0.0277,4.9882,0.0,-0.0369
68304,-106.7312,2.7071,-0.0104,-0.0971,-89.6891,-0.0001,-0.0516,9.5051,-0.0,-0.0277,4.9882,0.0,-0.0369
68320,-106.7312,2.7071,-0.0104,-0.0971,-89.6891,-0.0001,-0.0516,9.5051,-0.0,-0.0277,4.9882,0.0,-0.0369
68336,-106.7312,2.7071,-0.0104,-0.0971,-89.6891,-0.0001,-0.0516,9.5051,-0.0,-0.0277,4.9882,0.0,-0.0369
68352,-106.7362,3.6256,-0.0105,-0.0943,-89.689,-0.0001,-0.0545,10.0355,0.0,-0.0306,5.6481,0.0001,-0.0002
68368,-106.7362,3.6256,-0.0105,-0.0943,-89.689,-0.0001,-0.0545,10.0355,0.0,-0.0306,5.6481,0.0001,-0.0002
68384,-106.7362,3.6256,-0.0105,-0.0943,-89.689,-0.0001,-0.0545,10.0355,0.0,-0.0306,5.6481,0.0001,-0.0002
68400,-106.7362,3.6256,-0.0105,-0.0943,-89.689,-0.0001,-0.0545,10.0355,0.0,-0.0306,5.6481,0.0001,-0.0002
68416,-106.7362,3.6256,-0.0105,-0.0943,-89.689,-0.0001,-0.0545,10.0355,0.0,-0.0306,5.6481,0.0001,-0.0002
68432,-106.7362,3.6256,-0.0105,-0.0943,-89.689,-0.0001,-0.0545,10.0355,0.0,-0.0306,5.6481,0.0001,-0.0002
68449,-106.7417,4.6299,-0.0105,-0.0909,-89.689,-0.0,-0.0571,10.5162,0.0,-0.0268,4.9309,0.0001,-0.0001
68464,-106.7417,4.6299,-0.0105,-0.0909,-89.689,-0.0,-0.0571,10.5162,0.0,-0.0268,4.9309,0.0001,-0.0001
68480,-106.7417,4.6299,-0.0105,-0.0909,-89.689,-0.0,-0.0571,10.5162,0.0,-0.0268,4.9309,0.0001,-0.0001
68496,-106.7417,4.6299,-0.0105,-0.0909,-89.689,-0.0,-0.0571,10.5162,0.0,-0.0268,4.9309,0.0001,-0.0001
68512,-106.7417,4.6299,-0.0105,-0.0909,-89.689,-0.0,-0.0571,10.5162,0.0,-0.0268,4.9309,0.0001,-0.0001
68528,-106.7469,5.5915,-0.0105,-0.0832,-89.689,0.0,-0.059,10.8681,0.0,-0.0212,3.921,0.0,0.0001
68544,-106.7469,5.5915,-0.0105,-0.0832,-89.689,0.0,-0.059,10.8681,0.0,-0.0212,3.921,0.0,0.0001
68560,-106.7469,5.5915,-0.0105,-0.0832,-89.689,0.0,-0.059,10.8681,0.0,-0.0212,3.921,0.0,0.0001
68576,-106.7469,5.5915,-0.0105,-0.0832,-89.689,0.0,-0.059,10.8681,0.0,-0.0212,3.921,0.0,0.0001
68592,-106.7469,5.5915,-0.0105,-0.0832,-89.689,0.0,-0.059,10.8681,0.0,-0.0212,3.921,0.0,0.0001
68608,-106.7469,5.5915,-0.0105,-0.0832,-89.689,0.0,-0.059,10.8681,0.0,-0.0212,3.921,0.0,0.0001
68626,-106.7526,6.6412,-0.0106,-0.0775,-89.689,0.0,-0.0612,11.2735,-0.0,-0.0233,4.285,-0.0001,0.0
68640,-106.7526,6.6412,-0.0106,-0.0775,-89.689,0.0,-0.0612,11.2735,-0.0,-0.0233,4.285,-0.0001,0.0
68656,-106.7526,6.6412,-0.0106,-0.0775,-89.689,0.0,-0.0612,11.2735,-0.0,-0.0233,4.285,-0.0001,0.0
68672,-106.7526,6.6412,-0.0106,-0.0775,-89.689,0.0,-0.0612,11.2735,-0.0,-0.0233,4.285,-0.0001,0.0
68688,-106.7526,6.6412,-0.0106,-0.0775,-89.689,0.0,-0.0612,11.2735,-0.0,-0.0233,4.285,-0.0001,0.0
68704,-106.7526,6.6412,-0.0106,-0.0775,-89.689,0.0,-0.0612,11.2735,-0.0,-0.0233,4.285,-0.0001,0.0
68721,-106.7584,7.7167,-0.0106,-0.0737,-89.689,0.0,-0.0632,11.6531,-0.0,-0.022,4.0554,0.0,0.0002
68736,-106.7584,7.7167,-0.0106,-0.0737,-89.689,0.0,-0.0632,11.6531,-0.0,-0.022,4.0554,0.0,0.0002
68752,-106.7584,7.7167,-0.0106,-0.0737,-89.689,0.0,-0.0632,11.6531,-0.0,-0.022,4.0554,0.0,0.0002
68768,-106.7584,7.7167,-0.0106,-0.0737,-89.689,0.0,-0.0632,11.6531,-0.0,-0.022,4.0554,0.0,0.0002
68784,-106.7584,7.7167,-0.0106,-0.0737,-89.689,0.0,-0.0632,11.6531,-0.0,-0.022,4.0554,0.0,0.0002
68800,-106.7584,7.7167,-0.0106,-0.0737,-89.689,0.0,-0.0632,11.6531,-0.0,-0.022,4.0554,0.0,0.0002
68816,-106.7641,8.7761,-0.0106,-0.0694,-89.689,-0.0,-0.065,11.9829,0.0,-0.0201,3.685,0.0001,-0.0006
68832,-106.7641,8.7761,-0.0106,-0.0694,-89.689,-0.0,-0.065,11.9829,0.0,-0.0201,3.685,0.0001,-0.0006
68848,-106.7641,8.7761,-0.0106,-0.0694,-89.689,-0.0,-0.065,11.9829,0.0,-0.0201,3.685,0.0001,-0.0006
68864,-106.7641,8.7761,-0.0106,-0.0694,-89.689,-0.0,-0.065,11.9829,0.0,-0.0201,3.685,0.0001,-0.0006
68880,-106.7641,8.7761,-0.0106,-0.0694,-89.689,-0.0,-0.065,11.9829,0.0,-0.0201,3.685,0.0001,-0.0006
68896,-106.7702,9.8875,-0.0107,-0.0647,-89.689,0.0,-0.0667,12.2888,0.0,-0.0181,3.344,-0.0,-0.0004
68912,-106.7702,9.8875,-0.0107,-0.0647,-89.689,0.0,-0.0667,12.2888,0.0,-0.0181,3.344,-0.0,-0.0004
68928,-106.7702,9.8875,-0.0107,-0.0647,-89.689,0.0,-0.0667,12.2888,0.0,-0.0181,3.344,-0.0,-0.0004
68944,-106.7702,9.8875,-0.0107,-0.0647,-89.689,0.0,-0.0667,12.2888,0.0,-0.0181,3.344,-0.0,-0.0004
68960,-106.7702,9.8875,-0.0107,-0.0647,-89.689,0.0,-0.0667,12.2888,0.0,-0.0181,3.344,-0.0,-0.0004
68976,-106.7702,9.8875,-0.0107,-0.0647,-89.689,0.0,-0.0667,12.2888,0.0,-0.0181,3.344,-0.0,-0.0004
68994,-106.7762,10.9899,-0.0107,-0.0603,-89.689,-0.0,-0.0682,12.5651,0.0,-0.017,3.1194,-0.0,0.0007
69008,-106.7762,10.9899,-0.0107,-0.0603,-89.689,-0.0,-0.0682,12.5651,0.0,-0.017,3.1194,-0.0,0.0007
69024,-106.7762,10.9899,-0.0107,-0.0603,-89.689,-0.0,-0.0682,12.5651,0.0,-0.017,3.1194,-0.0,0.0007
69040,-106.7762,10.9899,-0.0107,-0.0603,-89.689,-0.0,-0.0682,12.5651,0.0,-0.017,3.1194,-0.0,0.0007
69056,-106.7762,10.9899,-0.0107,-0.0603,-89.689,-0.0,-0.0682,12.5651,0.0,-0.017,3.1194,-0.0,0.0007
69090,-106.7829,12.2266,-0.0108,-0.0548,-89.689,0.0,-0.0696,12.8198,0.0,-0.0142,2.6184,-0.0,0.0011
69104,-106.7829,12.2266,-0.0108,-0.0548,-89.689,0.0,-0.0696,12.8198,0.0,-0.0142,2.6184,-0.0,0.0011
69120,-106.7829,12.2266,-0.0108,-0.0548,-89.689,0.0,-0.0696,12.8198,0.0,-0.0142,2.6184,-0.0,0.0011
69136,-106.7829,12.2266,-0.0108,-0.0548,-89.689,0.0,-0.0696,12.8198,0.0,-0.0142,2.6184,-0.0,0.0011
69152,-106.7829,12.2266,-0.0108,-0.0548,-89.689,0.0,-0.0696,12.8198,0.0,-0.0142,2.6184,-0.0,0.0011
69168,-106.7829,12.2266,-0.0108,-0.0548,-89.689,0.0,-0.0696,12.8198,0.0,-0.0142,2.6184,-0.0,0.0011
69184,-106.8194,13.4983,-0.0108,-0.0375,-91.0854,0.1238,-0.9028,12.8226,0.001,-8.4217,0.0282,0.0104,-30.737
69200,-106.8194,13.4983,-0.0108,-0.0375,-91.0854,0.1238,-0.9028,12.8226,0.001,-8.4217,0.0282,0.0104,-30.737
69216,-106.8194,13.4983,-0.0108,-0.0375,-91.0854,0.1238,-0.9028,12.8226,0.001,-8.4217,0.0282,0.0104,-30.737
69232,-106.8194,13.4983,-0.0108,-0.0375,-91.0854,0.1238,-0.9028,12.8226,0.001,-8.4217,0.0282,0.0104,-30.737
69248,-106.8194,13.4983,-0.0108,-0.0375,-91.0854,0.1238,-0.9028,12.8226,0.001,-8.4217,0.0282,0.0104,-30.737
69264,-106.8194,13.4983,-0.0108,-0.0375,-91.0854,0.1238,-0.9028,12.8226,0.001,-8.4217,0.0282,0.0104,-30.737
69280,-106.9189,14.7255,-0.011,-0.002,-96.561,0.2573,-1.828,12.5655,0.0011,-9.5487,-2.6543,0.0009,-79.5933
69296,-106.9189,14.7255,-0.011,-0.002,-96.561,0.2573,-1.828,12.5655,0.0011,-9.5487,-2.6543,0.0009,-79.5933
69312,-106.9189,14.7255,-0.011,-0.002,-96.561,0.2573,-1.828,12.5655,0.0011,-9.5487,-2.6543,0.0009,-79.5933
69328,-106.9189,14.7255,-0.011,-0.002,-96.561,0.2573,-1.828,12.5655,0.0011,-9.5487,-2.6543,0.0009,-79.5933
69344,-106.9189,14.7255,-0.011,-0.002,-96.561,0.2573,-1.828,12.5655,0.0011,-9.5487,-2.6543,0.0009,-79.5933
69360,-106.9189,14.7255,-0.011,-0.002,-96.561,0.2573,-1.828,12.5655,0.0011,-9.5487,-2.6543,0.0009,-79.5933
69378,-107.0405,15.8495,-0.0111,0.0246,-106.4925,0.2579,-2.2517,12.3107,0.0,-4.6233,-2.7799,-0.0118,-132.689
69392,-107.0405,15.8495,-0.0111,0.0246,-106.4925,0.2579,-2.2517,12.3107,0.0,-4.6233,-2.7799,-0.0118,-132.689
69408,-107.0405,15.8495,-0.0111,0.0246,-106.4925,0.2579,-2.2517,12.3107,0.0,-4.6233,-2.7799,-0.0118,-132.689
69424,-107.0405,15.8495,-0.0111,0.0246,-106.4925,0.2579,-2.2517,12.3107,0.0,-4.6233,-2.7799,-0.0118,-132.689
69440,-107.0405,15.8495,-0.0111,0.0246,-106.4925,0.2579,-2.2517,12.3107,0.0,-4.6233,-2.7799,-0.0118,-132.689
69456,-107.0405,15.8495,-0.0111,0.0246,-106.4925,0.2579,-2.2517,12.3107,0.0,-4.6233,-2.7799,-0.0118,-132.689
69474,-107.1428,16.9855,-0.0111,0.0132,-122.3366,0.1227,-1.9108,12.1897,-0.0011,3.521,-1.2493,-0.0119,-186.8528
69488,-107.1428,16.9855,-0.0111,0.0132,-122.3366,0.1227,-1.9108,12.1897,-0.0011,3.521,-1.2493,-0.0119,-186.8528
69504,-107.1428,16.9855,-0.0111,0.0132,-122.3366,0.1227,-1.9108,12.1897,-0.0011,3.521,-1.2493,-0.0119,-186.8528
69520,-107.1428,16.9855,-0.0111,0.0132,-122.3366,0.1227,-1.9108,12.1897,-0.0011,3.521,-1.2493,-0.0119,-186.8528
69536,-107.1428,16.9855,-0.0111,0.0132,-122.3366,0.1227,-1.9108,12.1897,-0.0011,3.521,-1.2493,-0.0119,-186.8528
69552,-107.1428,16.9855,-0.0111,0.0132,-122.3366,0.1227,-1.9108,12.1897,-0.0011,3.521,-1.2493,-0.0119,-186.8528
69569,-107.1346,18.08,-0.0105,-0.0805,-142.1581,-0.1456,-0.1515,12.1285,0.0006,17.9781,-0.6259,0.0181,-211.8207
69584,-107.1346,18.08,-0.0105,-0.0805,-142.1581,-0.1456,-0.1515,12.1285,0.0006,17.9781,-0.6259,0.0181,-211.8207
69600,-107.1346,18.08,-0.0105,-0.0805,-142.1581,-0.1456,-0.1515,12.1285,0.0006,17.9781,-0.6259,0.0181,-211.8207
69616,-107.1346,18.08,-0.0105,-0.0805,-142.1581,-0.1456,-0.1515,12.1285,0.0006,17.9781,-0.6259,0.0181,-211.8207
69632,-107.1346,18.08,-0.0105,-0.0805,-142.1581,-0.1456,-0.1515,12.1285,0.0006,17.9781,-0.6259,0.0181,-211.8207
69648,-107.1346,18.08,-0.0105,-0.0805,-142.1581,-0.1456,-0.1515,12.1285,0.0006,17.9781,-0.6259,0.0181,-211.8207
69666,-106.9664,19.0535,-0.0095,-0.1941,-162.5738,-0.3898,2.043,11.4569,0.0021,23.4324,-7.1707,0.0156,-222.2179
69696,-106.9664,19.0535,-0.0095,-0.1941,-162.5738,-0.3898,2.043,11.4569,0.0021,23.4324,-7.1707,0.0156,-222.2179
69712,-106.9664,19.0535,-0.0095,-0.1941,-162.5738,-0.3898,2.043,11.4569,0.0021,23.4324,-7.1707,0.0156,-222.2179
69728,-106.9664,19.0535,-0.0095,-0.1941,-162.5738,-0.3898,2.043,11.4569,0.0021,23.4324,-7.1707,0.0156,-222.2179
69744,-106.9664,19.0535,-0.0095,-0.1941,-162.5738,-0.3898,2.043,11.4569,0.0021,23.4324,-7.1707,0.0156,-222.2179
69761,-106.6635,19.8974,-0.0088,-0.2584,175.9218,-0.6486,3.5018,9.4055,0.0024,15.1922,-21.3647,0.0034,-224.5048
69776,-106.6635,19.8974,-0.0088,-0.2584,175.9218,-0.6486,3.5018,9.4055,0.0024,15.1922,-21.3647,0.0034,-224.5048
69792,-106.6635,19.8974,-0.0088,-0.2584,175.9218,-0.6486,3.5018,9.4055,0.0024,15.1922,-21.3647,0.0034,-224.5048
69808,-106.6635,19.8974,-0.0088,-0.2584,175.9218,-0.6486,3.5018,9.4055,0.0024,15.1922,-21.3647,0.0034,-224.5048
69824,-106.6635,19.8974,-0.0088,-0.2584,175.9218,-0.6486,3.5018,9.4055,0.0024,15.1922,-21.3647,0.0034,-224.5048
69840,-106.6635,19.8974,-0.0088,-0.2584,175.9218,-0.6486,3.5018,9.4055,0.0024,15.1922,-21.3647,0.0034,-224.5048
69858,-106.4094,20.5145,-0.0091,-0.205,156.2607,-0.8496,2.5004,7.3939,-0.0019,-10.8658,-21.8283,-0.0468,-201.7722
69872,-106.4094,20.5145,-0.0091,-0.205,156.2607,-0.8496,2.5004,7.3939,-0.0019,-10.8658,-21.8283,-0.0468,-201.7722
69888,-106.4094,20.5145,-0.0091,-0.205,156.2607,-0.8496,2.5004,7.3939,-0.0019,-10.8658,-21.8283,-0.0468,-201.7722
69904,-106.4094,20.5145,-0.0091,-0.205,156.2607,-0.8496,2.5004,7.3939,-0.0019,-10.8658,-21.8283,-0.0468,-201.7722
69920,-106.4094,20.5145,-0.0091,-0.205,156.2607,-0.8496,2.5004,7.3939,-0.0019,-10.8658,-21.8283,-0.0468,-201.7722
69936,-106.3532,21.0073,-0.0099,-0.0694,139.8017,-0.9485,0.4595,6.6316,0.0016,-23.3967,-8.7381,0.0398,-170.9607
69952,-106.3532,21.0073,-0.0099,-0.0694,139.8017,-0.9485,0.4595,6.6316,0.0016,-23.3967,-8.7381,0.0398,-170.9607
69968,-106.3532,21.0073,-0.0099,-0.0694,139.8017,-0.9485,0.4595,6.6316,0.0016,-23.3967,-8.7381,0.0398,-170.9607
69984,-106.3532,21.0073,-0.0099,-0.0694,139.8017,-0.9485,0.4595,6.6316,0.0016,-23.3967,-8.7381,0.0398,-170.9607
70000,-106.3532,21.0073,-0.0099,-0.0694,139.8017,-0.9485,0.4595,6.6316,0.0016,-23.3967,-8.7381,0.0398,-170.9607
70016,-106.3532,21.0073,-0.0099,-0.0694,139.8017,-0.9485,0.4595,6.6316,0.0016,-23.3967,-8.7381,0.0398,-170.9607
70033,-106.492,21.5866,-0.0111,0.0993,126.7939,-0.8292,-1.5794,7.3789,-0.0009,-22.1122,8.1047,-0.0271,-117.2949
70048,-106.492,21.5866,-0.0111,0.0993,126.7939,-0.8292,-1.5794,7.3789,-0.0009,-22.1122,8.1047,-0.0271,-117.2949
70064,-106.492,21.5866,-0.0111,0.0993,126.7939,-0.8292,-1.5794,7.3789,-0.0009,-22.1122,8.1047,-0.0271,-117.2949
70080,-106.492,21.5866,-0.0111,0.0993,126.7939,-0.8292,-1.5794,7.3789,-0.0009,-22.1122,8.1047,-0.0271,-117.2949
70096,-106.492,21.5866,-0.0111,0.0993,126.7939,-0.8292,-1.5794,7.3789,-0.0009,-22.1122,8.1047,-0.0271,-117.2949
70112,-106.492,21.5866,-0.0111,0.0993,126.7939,-0.8292,-1.5794,7.3789,-0.0009,-22.1122,8.1047,-0.0271,-117.2949
70130,-106.7237,22.2846,-0.012,0.1858,117.3828,-0.5124,-1.8794,8.4031,-0.0025,-3.2603,11.13,-0.0169,-96.3827
70144,-106.7237,22.2846,-0.012,0.1858,117.3828,-0.5124,-1.8794,8.4031,-0.0025,-3.2603,11.13,-0.0169,-96.3827
70160,-106.7237,22.2846,-0.012,0.1858,117.3828,-0.5124,-1.8794,8.4031,-0.0025,-3.2603,11.13,-0.0169,-96.3827
70176,-106.7237,22.2846,-0.012,0.1858,117.3828,-0.5124,-1.8794,8.4031,-0.0025,-3.2603,11.13,-0.0169,-96.3827
70208,-106.7237,22.2846,-0.012,0.1858,117.3828,-0.5124,-1.8794,8.4031,-0.0025,-3.2603,11.13,-0.0169,-96.3827
70224,-106.916,23.0727,-0.0123,0.1853,108.6201,-0.1273,-1.0662,9.1531,-0.0034,8.8569,8.1696,-0.01,-95.8024
70240,-106.916,23.0727,-0.0123,0.1853,108.6201,-0.1273,-1.0662,9.1531,-0.0034,8.8569,8.1696,-0.01,-95.8024
70256,-106.916,23.0727,-0.0123,0.1853,108.6201,-0.1273,-1.0662,9.1531,-0.0034,8.8569,8.1696,-0.01,-95.8024
70272,-106.916,23.0727,-0.0123,0.1853,108.6201,-0.1273,-1.0662,9.1531,-0.0034,8.8569,8.1696,-0.01,-95.8024
70288,-106.916,23.0727,-0.0123,0.1853,108.6201,-0.1273,-1.0662,9.1531,-0.0034,8.8569,8.1696,-0.01,-95.8024
70304,-107.0608,23.9485,-0.0123,0.1615,101.4898,-0.0086,-1.2409,9.6413,-0.0017,-1.86,5.2,0.0181,-51.5203
70320,-107.0608,23.9485,-0.0123,0.1615,101.4898,-0.0086,-1.2409,9.6413,-0.0017,-1.86,5.2,0.0181,-51.5203
70336,-107.0608,23.9485,-0.0123,0.1615,101.4898,-0.0086,-1.2409,9.6413,-0.0017,-1.86,5.2,0.0181,-51.5203
70352,-107.0608,23.9485,-0.0123,0.1615,101.4898,-0.0086,-1.2409,9.6413,-0.0017,-1.86,5.2,0.0181,-51.5203
70368,-107.0608,23.9485,-0.0123,0.1615,101.4898,-0.0086,-1.2409,9.6413,-0.0017,-1.86,5.2,0.0181,-51.5203
70384,-107.0608,23.9485,-0.0123,0.1615,101.4898,-0.0086,-1.2409,9.6413,-0.0017,-1.86,5.2,0.0181,-51.5203
70401,-107.2233,24.8921,-0.012,0.1167,98.9393,-0.0642,-1.5522,9.8153,0.0004,-3.2012,1.7888,0.0213,-14.2506
70416,-107.2233,24.8921,-0.012,0.1167,98.9393,-0.0642,-1.5522,9.8153,0.0004,-3.2012,1.7888,0.0213,-14.2506
70432,-107.2233,24.8921,-0.012,0.1167,98.9393,-0.0642,-1.5522,9.8153,0.0004,-3.2012,1.7888,0.0213,-14.2506
70448,-107.2233,24.8921,-0.012,0.1167,98.9393,-0.0642,-1.5522,9.8153,0.0004,-3.2012,1.7888,0.0213,-14.2506
70464,-107.2233,24.8921,-0.012,0.1167,98.9393,-0.0642,-1.5522,9.8153,0.0004,-3.2012,1.7888,0.0213,-14.2506
70480,-107.2233,24.8921,-0.012,0.1167,98.9393,-0.0642,-1.5522,9.8153,0.0004,-3.2012,1.7888,0.0213,-14.2506
70496,-107.2233,24.8921,-0.012,0.1167,98.9393,-0.0642,-1.5522,9.8153,0.0004,-3.2012,1.7888,0.0213,-14.2506
70512,-107.3797,25.8704,-0.0117,0.0756,98.2974,-0.0334,-1.5093,9.9154,0.0,0.4328,1.0094,-0.0039,-4.1172
70528,-107.3797,25.8704,-0.0117,0.0756,98.2974,-0.0334,-1.5093,9.9154,0.0,0.4328,1.0094,-0.0039,-4.1172
70544,-107.3797,25.8704,-0.0117,0.0756,98.2974,-0.0334,-1.5093,9.9154,0.0,0.4328,1.0094,-0.0039,-4.1172
70560,-107.3797,25.8704,-0.0117,0.0756,98.2974,-0.0334,-1.5093,9.9154,0.0,0.4328,1.0094,-0.0039,-4.1172
70576,-107.3797,25.8704,-0.0117,0.0756,98.2974,-0.0334,-1.5093,9.9154,0.0,0.4328,1.0094,-0.0039,-4.1172
70592,-107.5153,26.7739,-0.0115,0.051,98.1353,-0.0093,-1.4684,10.0038,-0.0001,0.4511,0.9744,-0.0011,-1.5576
70608,-107.5153,26.7739,-0.0115,0.051,98.1353,-0.0093,-1.4684,10.0038,-0.0001,0.4511,0.9744,-0.0011,-1.5576
70624,-107.5153,26.7739,-0.0115,0.051,98.1353,-0.0093,-1.4684,10.0038,-0.0001,0.4511,0.9744,-0.0011,-1.5576
70640,-107.5153,26.7739,-0.0115,0.051,98.1353,-0.0093,-1.4684,10.0038,-0.0001,0.4511,0.9744,-0.0011,-1.5576
70656,-107.5153,26.7739,-0.0115,0.051,98.1353,-0.0093,-1.4684,10.0038,-0.0001,0.4511,0.9744,-0.0011,-1.5576
70672,-107.5153,26.7739,-0.0115,0.051,98.1353,-0.0093,-1.4684,10.0038,-0.0001,0.4511,0.9744,-0.0011,-1.5576
70688,-107.6569,27.7482,-0.0114,0.0334,98.0855,0.0017,-1.4468,10.0581,0.0,0.2227,0.5598,0.0012,-1.0037
70704,-107.6569,27.7482,-0.0114,0.0334,98.0855,0.0017,-1.4468,10.0581,0.0,0.2227,0.5598,0.0012,-1.0037
70720,-107.6569,27.7482,-0.0114,0.0334,98.0855,0.0017,-1.4468,10.0581,0.0,0.2227,0.5598,0.0012,-1.0037
70736,-107.6569,27.7482,-0.0114,0.0334,98.0855,0.0017,-1.4468,10.0581,0.0,0.2227,0.5598,0.0012,-1.0037
70752,-107.6569,27.7482,-0.0114,0.0334,98.0855,0.0017,-1.4468,10.0581,0.0,0.2227,0.5598,0.0012,-1.0037
70768,-107.6569,27.7482,-0.0114,0.0334,98.0855,0.0017,-1.4468,10.0581,0.0,0.2227,0.5598,0.0012,-1.0037
70784,-107.7901,28.6775,-0.0109,0.0383,98.0811,0.0335,-1.445,10.121,-0.0064,0.0187,0.6826,-0.0698,-0.5608
70800,-107.7901,28.6775,-0.0109,0.0383,98.0811,0.0335,-1.445,10.121,-0.0064,0.0187,0.6826,-0.0698,-0.5608
70816,-107.7901,28.6775,-0.0109,0.0383,98.0811,0.0335,-1.445,10.121,-0.0064,0.0187,0.6826,-0.0698,-0.5608
70832,-107.7901,28.6775,-0.0109,0.0383,98.0811,0.0335,-1.445,10.121,-0.0064,0.0187,0.6826,-0.0698,-0.5608
70848,-107.7901,28.6775,-0.0109,0.0383,98.0811,0.0335,-1.445,10.121,-0.0064,0.0187,0.6826,-0.0698,-0.5608
70864,-107.7901,28.6775,-0.0109,0.0383,98.0811,0.0335,-1.445,10.121,-0.0064,0.0187,0.6826,-0.0698,-0.5608
70881,-107.9301,29.6598,-0.0111,0.0211,98.079,0.0123,-1.4443,10.1601,-0.0021,0.0076,0.4035,0.0444,-0.7201
70896,-107.9301,29.6598,-0.0111,0.0211,98.079,0.0123,-1.4443,10.1601,-0.0021,0.0076,0.4035,0.0444,-0.7201
70912,-107.9301,29.6598,-0.0111,0.0211,98.079,0.0123,-1.4443,10.1601,-0.0021,0.0076,0.4035,0.0444,-0.7201
70928,-107.9301,29.6598,-0.0111,0.0211,98.079,0.0123,-1.4443,10.1601,-0.0021,0.0076,0.4035,0.0444,-0.7201
70944,-107.9301,29.6598,-0.0111,0.0211,98.079,0.0123,-1.4443,10.1601,-0.0021,0.0076,0.4035,0.0444,-0.7201
70960,-107.9301,29.6598,-0.0111,0.0211,98.079,0.0123,-1.4443,10.1601,-0.0021,0.0076,0.4035,0.0444,-0.7201
70978,-108.0703,30.6481,-0.0108,-0.0062,98.0775,0.0343,-1.4485,10.1983,0.0153,-0.0431,0.3934,0.1791,-0.7708
70992,-108.0703,30.6481,-0.0108,-0.0062,98.0775,0.0343,-1.4485,10.1983,0.0153,-0.0431,0.3934,0.1791,-0.7708
71008,-108.0703,30.6481,-0.0108,-0.0062,98.0775,0.0343,-1.4485,10.1983,0.0153,-0.0431,0.3934,0.1791,-0.7708
71024,-108.0703,30.6481,-0.0108,-0.0062,98.0775,0.0343,-1.4485,10.1983,0.0153,-0.0431,0.3934,0.1791,-0.7708
71040,-108.0703,30.6481,-0.0108,-0.0062,98.0775,0.0343,-1.4485,10.1983,0.0153,-0.0431,0.3934,0.1791,-0.7708
71056,-108.0703,30.6481,-0.0108,-0.0062,98.0775,0.0343,-1.4485,10.1983,0.0153,-0.0431,0.3934,0.1791,-0.7708
71074,-108.2103,31.6318,-0.0114,0.0223,98.0712,-0.0076,-1.4533,10.2449,-0.0013,-0.05,0.4852,-0.1727,-0.7432
71088,-108.2103,31.6318,-0.0114,0.0223,98.0712,-0.0076,-1.4533,10.2449,-0.0013,-0.05,0.4852,-0.1727,-0.7432
71104,-108.2103,31.6318,-0.0114,0.0223,98.0712,-0.0076,-1.4533,10.2449,-0.0013,-0.05,0.4852,-0.1727,-0.7432
71120,-108.2103,31.6318,-0.0114,0.0223,98.0712,-0.0076,-1.4533,10.2449,-0.0013,-0.05,0.4852,-0.1727,-0.7432
71136,-108.2103,31.6318,-0.0114,0.0223,98.0712,-0.0076,-1.4533,10.2449,-0.0013,-0.05,0.4852,-0.1727,-0.7432
71152,-108.2103,31.6318,-0.0114,0.0223,98.0712,-0.0076,-1.4533,10.2449,-0.0013,-0.05,0.4852,-0.1727,-0.7432
71169,-108.3432,32.5686,-0.0114,0.0195,98.0683,-0.0059,-1.46,10.2931,0.0003,-0.0735,0.5278,0.0181,-0.5693
71184,-108.3432,32.5686,-0.0114,0.0195,98.0683,-0.0059,-1.46,10.2931,0.0003,-0.0735,0.5278,0.0181,-0.5693
71200,-108.3432,32.5686,-0.0114,0.0195,98.0683,-0.0059,-1.46,10.2931,0.0003,-0.0735,0.5278,0.0181,-0.5693
71216,-108.3432,32.5686,-0.0114,0.0195,98.0683,-0.0059,-1.46,10.2931,0.0003,-0.0735,0.5278,0.0181,-0.5693
71232,-108.3432,32.5686,-0.0114,0.0195,98.0683,-0.0059,-1.46,10.2931,0.0003,-0.0735,0.5278,0.0181,-0.5693
71248,-108.3432,32.5686,-0.0114,0.0195,98.0683,-0.0059,-1.46,10.2931,0.0003,-0.0735,0.5278,0.0181,-0.5693
71265,-108.4869,33.582,-0.0113,0.0143,98.0667,-0.0035,-1.4644,10.3253,0.0004,-0.0446,0.3278,0.0012,-0.7203
71280,-108.4869,33.582,-0.0113,0.0143,98.0667,-0.0035,-1.4644,10.3253,0.0004,-0.0446,0.3278,0.0012,-0.7203
71296,-108.4869,33.582,-0.0113,0.0143,98.0667,-0.0035,-1.4644,10.3253,0.0004,-0.0446,0.3278,0.0012,-0.7203
71312,-108.4869,33.582,-0.0113,0.0143,98.0667,-0.0035,-1.4644,10.3253,0.0004,-0.0446,0.3278,0.0012,-0.7203
71328,-108.4869,33.582,-0.0113,0.0143,98.0667,-0.0035,-1.4644,10.3253,0.0004,-0.0446,0.3278,0.0012,-0.7203
71344,-108.4869,33.582,-0.0113,0.0143,98.0667,-0.0035,-1.4644,10.3253,0.0004,-0.0446,0.3278,0.0012,-0.7203
71362,-108.6268,34.5684,-0.0113,0.0113,98.0667,-0.002,-1.47,10.3664,0.0003,-0.0591,0.431,-0.0015,-0.641
71376,-108.6268,34.5684,-0.0113,0.0113,98.0667,-0.002,-1.47,10.3664,0.0003,-0.0591,0.431,-0.0015,-0.641
