timestamp,x,y,z,pitch,yaw,roll,vx,vy,vz,ax,ay,az,yaw_rate
34274,-106.6867,-4.8475,0.4735,0.0,-89.3578,0.0,0.0,0.0,-1.5289,0.0,0.0,-9.8,0.0
34290,-106.6867,-4.8475,0.4543,0.0,-89.3578,0.0,0.0,0.0,-1.6454,0.0,0.0,-9.8,0.0
34306,-106.6867,-4.8475,0.4543,0.0,-89.3578,0.0,0.0,0.0,-1.6454,0.0,0.0,-9.8,0.0
34322,-106.6867,-4.8475,0.4543,0.0,-89.3578,0.0,0.0,0.0,-1.6454,0.0,0.0,-9.8,0.0
34340,-106.6867,-4.8475,0.3734,0.0,-89.3578,0.0,0.0,0.0,-2.0631,0.0,0.0,-9.8,0.0
34356,-106.6867,-4.8475,0.3195,0.0,-89.3578,0.0,0.0,0.0,-2.3009,0.0,0.0,-9.8,0.0
34370,-106.6867,-4.8475,0.3195,0.0,-89.3578,0.0,0.0,0.0,-2.3009,0.0,0.0,-9.8,0.0
34388,-106.6867,-4.8475,0.2619,0.0,-89.3578,0.0,0.0,0.0,-2.5308,0.0,0.0,-9.8,0.0
34404,-106.6867,-4.8475,0.1984,0.0,-89.3578,0.0,0.0,0.0,-2.7629,0.0,0.0,-9.8,0.0
34418,-106.6867,-4.8475,0.1984,0.0,-89.3578,0.0,0.0,0.0,-2.7629,0.0,0.0,-9.8,0.0
34434,-106.6867,-4.8475,0.1305,0.0,-89.3578,0.0,0.0,0.0,-2.991,0.0,0.0,-9.8,0.0
34451,-106.6867,-4.8475,0.0568,0.0,-89.3578,0.0,0.0,0.0,-3.2207,0.0,0.0,-9.8,0.0
34466,-106.6867,-4.8475,0.0568,0.0,-89.3578,0.0,0.0,0.0,-3.2207,0.0,0.0,-9.8,0.0
34482,-106.6867,-4.8457,0.0001,-0.0025,-89.3578,0.0,-0.0013,0.1171,-2.1846,-0.058,5.173,45.7821,-0.0
34500,-106.6868,-4.8454,-0.0362,-0.0018,-89.3578,0.0,0.0004,-0.0351,-1.449,0.0788,-7.0282,33.9657,0.0
34514,-106.6868,-4.8431,-0.0616,-0.0043,-89.3578,0.0,-0.0017,0.1539,-0.8644,-0.0871,7.7873,24.0846,-0.0023
34530,-106.6868,-4.8431,-0.0616,-0.0043,-89.3578,0.0,-0.0017,0.1539,-0.8644,-0.0871,7.7873,24.0846,-0.0023
34548,-106.6867,-4.8403,-0.0746,-0.0063,-89.3663,-0.0001,0.0003,0.1265,-0.4869,0.0953,-1.2672,17.4588,-0.0945
34564,-106.6867,-4.8348,-0.0812,-0.0112,-89.3854,0.0001,-0.0051,0.2635,-0.2197,-0.2486,6.284,12.255,-0.369
34578,-106.6867,-4.8348,-0.0812,-0.0112,-89.3854,0.0001,-0.0051,0.2635,-0.2197,-0.2486,6.284,12.255,-0.369
34594,-106.6866,-4.8262,-0.0831,-0.0178,-89.4106,0.0002,-0.0063,0.4153,-0.0258,-0.0545,6.5513,8.3664,-0.2951
34612,-106.6868,-4.8154,-0.0818,-0.0246,-89.408,0.0001,-0.0061,0.5394,0.0944,0.0093,5.768,5.5898,0.6075
34626,-106.687,-4.8005,-0.0782,-0.0326,-89.4083,0.0002,-0.0086,0.6572,0.1759,-0.1048,5.0816,3.5108,1.1167
34642,-106.687,-4.8005,-0.0782,-0.0326,-89.4083,0.0002,-0.0086,0.6572,0.1759,-0.1048,5.0816,3.5108,1.1167
34658,-106.6872,-4.7826,-0.0732,-0.0397,-89.4039,0.0002,-0.0093,0.7865,0.2225,-0.031,5.4838,1.9767,-0.3999
34674,-106.6874,-4.7614,-0.0675,-0.0462,-89.4152,0.0001,-0.0095,0.9304,0.2438,-0.0099,6.0396,0.8969,-0.1819
34690,-106.6874,-4.7614,-0.0675,-0.0462,-89.4152,0.0001,-0.0095,0.9304,0.2438,-0.0099,6.0396,0.8969,-0.1819
34708,-106.6874,-4.7365,-0.0612,-0.0524,-89.443,-0.0002,-0.0104,1.0582,0.2783,-0.0333,5.24,1.4151,-2.9186
34722,-106.6879,-4.7125,-0.0554,-0.0547,-89.4006,-0.0003,-0.0101,1.1227,0.2612,0.0114,2.8488,-0.7555,4.6717
34738,-106.6879,-4.7125,-0.0554,-0.0547,-89.4006,-0.0003,-0.0101,1.1227,0.2612,0.0114,2.8488,-0.7555,4.6717
34756,-106.6878,-4.6838,-0.0493,-0.0573,-89.432,-0.0009,-0.0073,1.1749,0.2395,0.116,2.1312,-0.8876,-0.7851
34770,-106.6878,-4.6557,-0.0443,-0.0587,-89.4695,-0.0009,-0.0124,1.2618,0.2131,-0.2297,3.8996,-1.1837,-0.3396
34786,-106.6878,-4.6557,-0.0443,-0.0587,-89.4695,-0.0009,-0.0124,1.2618,0.2131,-0.2297,3.8996,-1.1837,-0.3396
34802,-106.6878,-4.6268,-0.0398,-0.057,-89.4978,-0.0006,-0.012,1.2712,0.1906,0.0171,0.411,-0.9939,-1.9983
34820,-106.6881,-4.5988,-0.036,-0.0534,-89.4998,-0.0004,-0.0125,1.2669,0.1685,-0.0239,-0.1926,-0.9979,0.8618
34834,-106.6882,-4.5713,-0.0326,-0.0488,-89.5141,-0.0002,-0.0132,1.2648,0.1486,-0.0306,-0.0979,-0.9137,-1.422
34850,-106.6882,-4.5713,-0.0326,-0.0488,-89.5141,-0.0002,-0.0132,1.2648,0.1486,-0.0306,-0.0979,-0.9137,-1.422
34868,-106.6886,-4.5442,-0.0298,-0.0442,-89.5054,-0.0001,-0.0129,1.2659,0.1306,0.0123,0.0509,-0.8399,1.3106
34884,-106.6888,-4.5169,-0.0272,-0.0397,-89.5152,-0.0002,-0.012,1.271,0.1145,0.0436,0.2382,-0.7454,-1.3123
34898,-106.6888,-4.5169,-0.0272,-0.0397,-89.5152,-0.0002,-0.012,1.271,0.1145,0.0436,0.2382,-0.7454,-1.3123
34914,-106.6891,-4.4882,-0.0249,-0.0354,-89.5033,-0.0002,-0.0116,1.2832,0.0999,0.019,0.5439,-0.6517,1.5127
34932,-106.6893,-4.4572,-0.0227,-0.0318,-89.5191,-0.0004,-0.0108,1.3088,0.0859,0.0296,1.0636,-0.5785,-1.7906
34946,-106.6897,-4.4267,-0.021,-0.0311,-89.497,-0.0003,-0.0128,1.4079,0.0731,-0.0876,4.432,-0.5728,2.7607
34962,-106.6897,-4.4267,-0.021,-0.0311,-89.497,-0.0003,-0.0128,1.4079,0.0731,-0.0876,4.432,-0.5728,2.7607
34979,-106.6898,-4.3925,-0.0195,-0.0341,-89.5201,-0.0003,-0.0136,1.4852,0.0628,-0.0339,3.3999,-0.4531,-0.4002
34994,-106.6899,-4.354,-0.0181,-0.0393,-89.5488,-0.0006,-0.0119,1.6899,0.0537,0.0714,8.7734,-0.3926,-2.5409
35010,-106.6899,-4.354,-0.0181,-0.0393,-89.5488,-0.0006,-0.0119,1.6899,0.0537,0.0714,8.7734,-0.3926,-2.5409
35026,-106.6903,-4.316,-0.017,-0.0432,-89.5364,-0.0006,-0.013,1.786,0.0457,-0.0484,4.3861,-0.3647,2.6716
35043,-106.6904,-4.2755,-0.0161,-0.0482,-89.5557,-0.0008,-0.0131,1.8761,0.0393,-0.0068,4.1821,-0.2981,0.3994
35058,-106.6906,-4.2311,-0.0153,-0.0535,-89.569,-0.0009,-0.0142,2.0731,0.0337,-0.0501,8.9179,-0.2503,0.8161
35074,-106.6906,-4.2311,-0.0153,-0.0535,-89.569,-0.0009,-0.0142,2.0731,0.0337,-0.0501,8.9179,-0.2503,0.8161
35090,-106.6907,-4.1848,-0.0146,-0.0549,-89.5978,-0.001,-0.0124,2.0547,0.0288,0.0804,-0.8096,-0.2165,-1.0345
35107,-106.6908,-4.1375,-0.014,-0.0575,-89.6196,-0.0011,-0.0134,2.2265,0.0245,-0.0472,7.8729,-0.1974,0.6607
35122,-106.6908,-4.1375,-0.014,-0.0575,-89.6196,-0.0011,-0.0134,2.2265,0.0245,-0.0472,7.8729,-0.1974,0.6607
35138,-106.6911,-4.0877,-0.0135,-0.0593,-89.6236,-0.0011,-0.0125,2.3083,0.021,0.042,3.6907,-0.1607,0.1464
35154,-106.6913,-4.033,-0.013,-0.065,-89.64,-0.0012,-0.0153,2.5366,0.0179,-0.125,10.2917,-0.1396,-2.1994
35170,-106.6918,-3.9762,-0.0127,-0.0674,-89.6233,-0.0009,-0.0171,2.5685,0.0152,-0.0809,1.4229,-0.1193,0.4118
35186,-106.6918,-3.9762,-0.0127,-0.0674,-89.6233,-0.0009,-0.0171,2.5685,0.0152,-0.0809,1.4229,-0.1193,0.4118
35202,-106.6924,-3.9178,-0.0123,-0.0712,-89.5925,-0.0004,-0.0212,2.7642,0.0129,-0.1903,9.044,-0.105,0.0398
35220,-106.693,-3.8563,-0.0121,-0.0734,-89.575,-0.0001,-0.0207,2.8111,0.011,0.0242,2.1271,-0.0858,2.3153
35234,-106.6935,-3.7917,-0.0118,-0.0765,-89.5833,0.0001,-0.0215,3.0117,0.0094,-0.0388,9.1618,-0.0749,1.0227
35250,-106.6935,-3.7917,-0.0118,-0.0765,-89.5833,0.0001,-0.0215,3.0117,0.0094,-0.0388,9.1618,-0.0749,1.0227
35268,-106.6941,-3.7256,-0.0116,-0.0797,-89.5734,0.0003,-0.024,3.1728,0.008,-0.116,7.53,-0.0647,0.4653
35284,-106.6946,-3.6512,-0.0114,-0.085,-89.5808,0.0005,-0.0279,3.3769,0.0068,-0.1727,9.0161,-0.0518,-0.0215
35298,-106.6953,-3.5769,-0.0113,-0.0876,-89.5617,0.0006,-0.0274,3.4252,0.0058,0.0218,2.2122,-0.0481,2.2046
35314,-106.6953,-3.5769,-0.0113,-0.0876,-89.5617,0.0006,-0.0274,3.4252,0.0058,0.0218,2.2122,-0.0481,2.2046
35332,-106.6959,-3.4986,-0.0111,-0.0904,-89.5641,0.0006,-0.0284,3.6228,0.0049,-0.0453,8.988,-0.0396,1.2406
35347,-106.6966,-3.4161,-0.011,-0.0915,-89.5632,0.0006,-0.0299,3.6861,0.0042,-0.0674,2.8116,-0.0333,-1.2472
35362,-106.6966,-3.4161,-0.011,-0.0915,-89.5632,0.0006,-0.0299,3.6861,0.0042,-0.0674,2.8116,-0.0333,-1.2472
35378,-106.6975,-3.327,-0.0109,-0.0932,-89.5461,0.0006,-0.0322,3.892,0.0035,-0.0977,8.8344,-0.0276,-0.752
35395,-106.6982,-3.242,-0.0109,-0.0932,-89.5348,0.0006,-0.0323,3.9597,0.003,-0.0037,3.1259,-0.0248,1.7332
35410,-106.6989,-3.1512,-0.0108,-0.0949,-89.5397,0.0005,-0.0335,4.1674,0.0025,-0.0521,9.3785,-0.0213,1.1248
35426,-106.6989,-3.1512,-0.0108,-0.0949,-89.5397,0.0005,-0.0335,4.1674,0.0025,-0.0521,9.3785,-0.0213,1.1248
35444,-106.6997,-3.0561,-0.0107,-0.0957,-89.5422,0.0005,-0.0348,4.2524,0.0021,-0.0612,3.7784,-0.0158,-1.1448
35460,-106.7006,-2.9603,-0.0107,-0.0978,-89.5289,0.0005,-0.0373,4.4705,0.0018,-0.1111,10.0113,-0.0156,-0.6915
35474,-106.7006,-2.9603,-0.0107,-0.0978,-89.5289,0.0005,-0.0373,4.4705,0.0018,-0.1111,10.0113,-0.0156,-0.6915
35490,-106.7015,-2.8623,-0.0106,-0.0995,-89.5216,0.0005,-0.0381,4.5868,0.0015,-0.0403,5.3994,-0.0121,1.0947
35508,-106.7023,-2.758,-0.0106,-0.1027,-89.5261,0.0005,-0.0395,4.8147,0.0013,-0.0625,10.3595,-0.0108,0.9132
35522,-106.7031,-2.6538,-0.0105,-0.1049,-89.5296,0.0004,-0.0406,4.9311,0.0011,-0.0521,5.4644,-0.0089,-0.5985
35538,-106.7031,-2.6538,-0.0105,-0.1049,-89.5296,0.0004,-0.0406,4.9311,0.0011,-0.0521,5.4644,-0.0089,-0.5985
35554,-106.7041,-2.54,-0.0105,-0.1082,-89.5257,0.0004,-0.0431,5.1638,0.0009,-0.1107,10.3988,-0.0078,-0.7998
35572,-106.7051,-2.4231,-0.0105,-0.11,-89.5191,0.0004,-0.044,5.2687,0.0008,-0.0411,4.6993,-0.0064,0.4552
35586,-106.7061,-2.3071,-0.0104,-0.1122,-89.5231,0.0004,-0.0454,5.4882,0.0007,-0.0636,10.2489,-0.006,0.6196
35602,-106.7061,-2.3071,-0.0104,-0.1122,-89.5231,0.0004,-0.0454,5.4882,0.0007,-0.0636,10.2489,-0.006,0.6196
35620,-106.7071,-2.1815,-0.0104,-0.114,-89.5269,0.0003,-0.0466,5.63,0.0006,-0.0548,6.3054,-0.0044,-0.2274
35634,-106.7082,-2.0524,-0.0104,-0.116,-89.5253,0.0003,-0.0487,5.8329,0.0005,-0.0916,9.0595,-0.0041,-0.6677
35650,-106.7082,-2.0524,-0.0104,-0.116,-89.5253,0.0003,-0.0487,5.8329,0.0005,-0.0916,9.0595,-0.0041,-0.6677
35666,-106.7093,-1.9232,-0.0104,-0.1165,-89.5213,0.0003,-0.0496,5.9475,0.0004,-0.043,5.2377,-0.0037,0.2555
35684,-106.7104,-1.7864,-0.0103,-0.1175,-89.5232,0.0002,-0.051,6.1531,0.0004,-0.062,9.1531,-0.0024,0.4841
35698,-106.7115,-1.6478,-0.0103,-0.1176,-89.5262,0.0002,-0.052,6.2742,0.0003,-0.0454,5.4467,-0.0029,-0.1621
35714,-106.7115,-1.6478,-0.0103,-0.1176,-89.5262,0.0002,-0.052,6.2742,0.0003,-0.0454,5.4467,-0.0029,-0.1621
35732,-106.7128,-1.4973,-0.0103,-0.1179,-89.525,0.0002,-0.0538,6.4677,0.0003,-0.0783,8.2343,-0.0013,-0.4116
35747,-106.714,-1.3571,-0.0103,-0.1171,-89.5226,0.0002,-0.0548,6.5801,0.0002,-0.0439,5.2386,-0.0022,0.124
35762,-106.714,-1.3571,-0.0103,-0.1171,-89.5226,0.0002,-0.0548,6.5801,0.0002,-0.0439,5.2386,-0.0022,0.124
35778,-106.7152,-1.2009,-0.0103,-0.1173,-89.5242,0.0001,-0.0563,6.7828,0.0002,-0.0658,8.7195,-0.0015,0.0991
35796,-106.7165,-1.0443,-0.0103,-0.117,-89.5245,0.0001,-0.0574,6.9149,0.0001,-0.0487,5.7963,-0.0014,-0.0097
35810,-106.7165,-1.0443,-0.0103,-0.117,-89.5245,0.0001,-0.0574,6.9149,0.0001,-0.0487,5.7963,-0.0014,-0.0097
35826,-106.7178,-0.8868,-0.0103,-0.1171,-89.5244,0.0001,-0.0589,7.0956,0.0001,-0.0672,8.0721,-0.0005,-0.0077
35844,-106.7192,-0.7228,-0.0103,-0.1167,-89.5244,0.0001,-0.06,7.2323,0.0001,-0.0493,5.9898,-0.0011,0.0001
35859,-106.7205,-0.5647,-0.0103,-0.1166,-89.5244,0.0001,-0.0614,7.3995,0.0001,-0.0643,7.769,-0.0007,0.0
35874,-106.7205,-0.5647,-0.0103,-0.1166,-89.5244,0.0001,-0.0614,7.3995,0.0001,-0.0643,7.769,-0.0007,0.0
35891,-106.722,-0.3902,-0.0103,-0.1161,-89.5244,0.0001,-0.0626,7.542,0.0001,-0.0507,6.1191,-0.0005,0.0
35908,-106.7234,-0.2174,-0.0103,-0.1156,-89.5244,0.0001,-0.064,7.7038,0.0001,-0.0594,7.1658,-0.0006,-0.0001
35922,-106.7234,-0.2174,-0.0103,-0.1156,-89.5244,0.0001,-0.064,7.7038,0.0001,-0.0594,7.1658,-0.0006,-0.0001
35938,-106.7248,-0.0509,-0.0103,-0.1148,-89.5244,0.0,-0.065,7.8306,0.0001,-0.0493,5.9311,-0.0005,0.0001
35956,-106.7263,0.1242,-0.0103,-0.114,-89.5244,0.0,-0.0663,7.9811,0.0,-0.0564,6.8146,-0.0009,-0.0
35970,-106.7277,0.3033,-0.0103,-0.1131,-89.5244,0.0,-0.0674,8.1143,0.0,-0.0499,6.0025,0.0006,0.0
35986,-106.7277,0.3033,-0.0103,-0.1131,-89.5244,0.0,-0.0674,8.1143,0.0,-0.0499,6.0025,0.0006,0.0
36002,-106.7292,0.4829,-0.0103,-0.1121,-89.5244,0.0,-0.0685,8.2539,0.0,-0.0529,6.3771,-0.0007,-0.0001
36020,-106.7309,0.6802,-0.0103,-0.1108,-89.5244,0.0,-0.0697,8.3925,0.0,-0.0486,5.8628,-0.0004,0.0003
36034,-106.7324,0.8622,-0.0104,-0.1096,-89.5244,0.0,-0.0707,8.5217,0.0,-0.0501,6.0224,-0.0002,-0.0003
36050,-106.7324,0.8622,-0.0104,-0.1096,-89.5244,0.0,-0.0707,8.5217,0.0,-0.0501,6.0224,-0.0002,-0.0003
36068,-106.734,1.0569,-0.0104,-0.1082,-89.5244,0.0,-0.0718,8.6506,0.0,-0.0473,5.6968,0.0002,0.0002
36082,-106.7357,1.2567,-0.0104,-0.1067,-89.5244,0.0,-0.0729,8.7812,0.0,-0.0474,5.7088,-0.0004,-0.0004
36098,-106.7357,1.2567,-0.0104,-0.1067,-89.5244,0.0,-0.0729,8.7812,0.0,-0.0474,5.7088,-0.0004,-0.0004
36114,-106.7372,1.4476,-0.0104,-0.1053,-89.5244,0.0,-0.0739,8.8998,0.0,-0.0457,5.509,-0.0,0.0002
36132,-106.739,1.6539,-0.0104,-0.1037,-89.5244,0.0,-0.0749,9.0252,0.0,-0.0453,5.4601,0.0001,-0.0003
36146,-106.7406,1.8481,-0.0104,-0.1022,-89.5244,0.0,-0.0759,9.139,0.0,-0.0443,5.3322,-0.0001,0.0002
36162,-106.7406,1.8481,-0.0104,-0.1022,-89.5244,0.0,-0.0759,9.139,0.0,-0.0443,5.3322,-0.0001,0.0002
36179,-106.7423,2.0541,-0.0104,-0.1007,-89.5244,0.0,-0.0768,9.2565,0.0,-0.0436,5.2569,-0.0,-0.0002
36196,-106.7441,2.2705,-0.0104,-0.099,-89.5244,0.0,-0.0778,9.3761,0.0,-0.0429,5.1591,-0.0002,0.0001
36210,-106.7441,2.2705,-0.0104,-0.099,-89.5244,0.0,-0.0778,9.3761,0.0,-0.0429,5.1591,-0.0002,0.0001
36226,-106.7458,2.4808,-0.0104,-0.0975,-89.5244,-0.0,-0.0788,9.489,-0.0,-0.0421,5.0758,-0.0009,-0.0002
36244,-106.7476,2.6925,-0.0105,-0.0959,-89.5244,0.0,-0.0797,9.5996,0.0,-0.0413,4.9924,0.0005,0.0001
36258,-106.7493,2.9009,-0.0105,-0.0945,-89.5244,0.0,-0.0806,9.7055,0.0,-0.0408,4.9157,0.0005,-0.0001
36274,-106.7493,2.9009,-0.0105,-0.0945,-89.5244,0.0,-0.0806,9.7055,0.0,-0.0408,4.9157,0.0005,-0.0001
36290,-106.7511,3.1142,-0.0105,-0.093,-89.5244,0.0,-0.0814,9.8111,0.0,-0.0402,4.8407,-0.0004,0.0
36308,-106.7529,3.3298,-0.0105,-0.0916,-89.5244,0.0,-0.0823,9.9152,0.0,-0.0396,4.7678,0.0002,-0.0
36322,-106.7547,3.5495,-0.0105,-0.0901,-89.5244,0.0,-0.0832,10.0185,0.0,-0.039,4.6962,-0.0001,-0.0
36338,-106.7547,3.5495,-0.0105,-0.0901,-89.5244,0.0,-0.0832,10.0185,0.0,-0.039,4.6962,-0.0001,-0.0
36355,-106.7565,3.7739,-0.0105,-0.0887,-89.5244,0.0,-0.084,10.1214,0.0,-0.0384,4.6258,-0.0001,-0.0
36370,-106.7585,4.0133,-0.0105,-0.0873,-89.5244,0.0,-0.0849,10.2284,-0.0,-0.0378,4.5548,-0.0011,-0.0
36386,-106.7585,4.0133,-0.0105,-0.0873,-89.5244,0.0,-0.0849,10.2284,-0.0,-0.0378,4.5548,-0.0011,-0.0
36403,-106.7605,4.2551,-0.0105,-0.0858,-89.5244,0.0,-0.0858,10.3337,0.0,-0.0372,4.4831,0.0011,0.0
36420,-106.7626,4.5022,-0.0105,-0.0844,-89.5244,0.0,-0.0867,10.4385,-0.0,-0.0366,4.4127,-0.0006,-0.0
36434,-106.7626,4.5022,-0.0105,-0.0844,-89.5244,0.0,-0.0867,10.4385,-0.0,-0.0366,4.4127,-0.0006,-0.0
36450,-106.7645,4.7329,-0.0105,-0.0832,-89.5244,0.0,-0.0874,10.5339,0.0,-0.0361,4.3455,0.0005,-0.0
36468,-106.7664,4.9606,-0.0106,-0.082,-89.5244,0.0,-0.0882,10.626,0.0,-0.0356,4.283,0.0002,-0.0
36482,-106.7683,5.1943,-0.0106,-0.0808,-89.5244,0.0,-0.089,10.7183,0.0,-0.0351,4.2219,-0.0001,-0.0
36498,-106.7683,5.1943,-0.0106,-0.0808,-89.5244,0.0,-0.089,10.7183,0.0,-0.0351,4.2219,-0.0001,-0.0
36514,-106.7704,5.4403,-0.0106,-0.0795,-89.5244,0.0,-0.0898,10.8132,0.0,-0.0345,4.1599,0.0,-0.0
36532,-106.7724,5.688,-0.0106,-0.0783,-89.5244,0.0,-0.0905,10.9065,0.0,-0.034,4.0975,0.0002,-0.0
36546,-106.7724,5.688,-0.0106,-0.0783,-89.5244,0.0,-0.0905,10.9065,0.0,-0.034,4.0975,0.0002,-0.0
36562,-106.7744,5.929,-0.0106,-0.0772,-89.5244,0.0,-0.0913,10.9953,0.0,-0.0335,4.0371,0.0,-0.0
36579,-106.7766,6.1927,-0.0106,-0.076,-89.5244,0.0,-0.0921,11.0901,0.0,-0.033,3.9769,-0.0002,-0.0
36594,-106.7787,6.4432,-0.0106,-0.0748,-89.5244,-0.0,-0.0928,11.1781,0.0,-0.0325,3.9162,0.0003,-0.0
36610,-106.7787,6.4432,-0.0106,-0.0748,-89.5244,-0.0,-0.0928,11.1781,0.0,-0.0325,3.9162,0.0003,-0.0
36627,-106.7808,6.6905,-0.0106,-0.0738,-89.5244,0.0,-0.0935,11.2631,0.0,-0.0321,3.8593,-0.0,-0.0
36644,-106.7829,6.9512,-0.0106,-0.0727,-89.5244,0.0,-0.0942,11.3506,0.0,-0.0315,3.8026,-0.0003,-0.0
36658,-106.7829,6.9512,-0.0106,-0.0727,-89.5244,0.0,-0.0942,11.3506,0.0,-0.0315,3.8026,-0.0003,-0.0
36674,-106.785,7.1999,-0.0106,-0.0717,-89.5244,0.0,-0.0949,11.4323,-0.0,-0.0311,3.7465,-0.0002,-0.0
36692,-106.7871,7.4547,-0.0106,-0.0706,-89.5244,0.0,-0.0956,11.5142,0.0,-0.0307,3.6927,0.0001,-0.0
36706,-106.7892,7.7029,-0.0106,-0.0696,-89.5244,0.0,-0.0962,11.5923,-0.0,-0.0302,3.6399,-0.0001,-0.0
36722,-106.7892,7.7029,-0.0106,-0.0696,-89.5244,0.0,-0.0962,11.5923,-0.0,-0.0302,3.6399,-0.0001,-0.0
36738,-106.7914,7.9712,-0.0107,-0.0686,-89.5244,0.0,-0.0969,11.675,-0.0,-0.0298,3.5873,-0.0,-0.0
36755,-106.7935,8.2323,-0.0107,-0.0676,-89.5244,0.0,-0.0976,11.7537,-0.0,-0.0294,3.534,0.0,-0.0
36770,-106.7935,8.2323,-0.0107,-0.0676,-89.5244,0.0,-0.0976,11.7537,-0.0,-0.0294,3.534,0.0,-0.0
36786,-106.7959,8.5105,-0.0107,-0.0666,-89.5244,0.0,-0.0982,11.8357,-0.0,-0.0289,3.4814,-0.001,-0.0
36804,-106.7983,8.7985,-0.0107,-0.0656,-89.5244,0.0,-0.0989,11.9187,0.0,-0.0284,3.4271,0.0014,-0.0
36818,-106.7983,8.7985,-0.0107,-0.0656,-89.5244,0.0,-0.0989,11.9187,0.0,-0.0284,3.4271,0.0014,-0.0
36834,-106.8005,9.0636,-0.0107,-0.0646,-89.5244,0.0,-0.0996,11.9934,-0.0,-0.028,3.3748,-0.0004,-0.0
36851,-106.8026,9.3196,-0.0107,-0.0638,-89.5244,0.0,-0.1001,12.0642,0.0,-0.0276,3.3269,0.0001,-0.0
36866,-106.8048,9.5809,-0.0107,-0.0629,-89.5244,0.0,-0.1007,12.135,0.0,-0.0273,3.2805,0.0001,-0.0
36882,-106.8048,9.5809,-0.0107,-0.0629,-89.5244,0.0,-0.1007,12.135,0.0,-0.0273,3.2805,0.0001,-0.0
36898,-106.8073,9.8851,-0.0107,-0.0619,-89.5244,0.0,-0.1014,12.2156,0.0,-0.0268,3.2312,0.0001,-0.0
36916,-106.8095,10.1591,-0.0107,-0.061,-89.5244,0.0,-0.102,12.2867,-0.0,-0.0264,3.1807,-0.0006,-0.0
36931,-106.8095,10.1591,-0.0107,-0.061,-89.5244,0.0,-0.102,12.2867,-0.0,-0.0264,3.1807,-0.0006,-0.0
36946,-106.8119,10.4407,-0.0107,-0.0602,-89.5244,0.0,-0.1026,12.3582,-0.0,-0.0259,3.134,-0.0005,0.0
36964,-106.8143,10.7248,-0.0107,-0.0593,-89.5244,0.0,-0.1032,12.4289,-0.0,-0.0256,3.0871,0.0007,-0.0
36978,-106.8143,10.7248,-0.0107,-0.0593,-89.5244,0.0,-0.1032,12.4289,-0.0,-0.0256,3.0871,0.0007,-0.0
36994,-106.8166,11.0068,-0.0107,-0.0584,-89.5244,0.0,-0.1037,12.4977,0.0,-0.0252,3.0412,0.0007,-0.0
37012,-106.8189,11.2851,-0.0107,-0.0576,-89.5244,0.0,-0.1043,12.5642,0.0,-0.0249,2.9967,-0.0003,-0.0
37027,-106.8213,11.569,-0.0107,-0.0568,-89.5244,0.0,-0.1048,12.6306,0.0,-0.0245,2.9483,-0.0001,-0.0
37042,-106.8213,11.569,-0.0107,-0.0568,-89.5244,0.0,-0.1048,12.6306,0.0,-0.0245,2.9483,-0.0001,-0.0
37059,-106.8238,11.875,-0.0107,-0.0558,-89.5244,-0.0,-0.1054,12.6969,0.0,-0.0228,2.7467,0.0001,-0.0
37075,-106.8261,12.1525,-0.0108,-0.0548,-89.5244,-0.0,-0.1059,12.7514,-0.0,-0.0208,2.5029,-0.0005,-0.0
37091,-106.8261,12.1525,-0.0108,-0.0548,-89.5244,-0.0,-0.1059,12.7514,-0.0,-0.0208,2.5029,-0.0005,-0.0
37106,-106.8286,12.4506,-0.0108,-0.0534,-89.5244,0.0,-0.1063,12.8049,-0.0,-0.019,2.2935,-0.0012,-0.0
37122,-106.831,12.7409,-0.0108,-0.0519,-89.5244,0.0,-0.1067,12.8522,-0.0,-0.0174,2.0931,0.0004,-0.0
37138,-106.8334,13.0291,-0.0108,-0.0502,-89.5244,0.0,-0.107,12.895,0.0,-0.0158,1.9128,0.0016,-0.0
37154,-106.8334,13.0291,-0.0108,-0.0502,-89.5244,0.0,-0.107,12.895,0.0,-0.0158,1.9128,0.0016,-0.0
37172,-106.8357,13.3124,-0.0108,-0.0484,-89.5244,0.0,-0.1074,12.9334,0.0,-0.0146,1.7497,-0.0003,-0.0
37187,-106.8382,13.6098,-0.0108,-0.0463,-89.5244,0.0,-0.1077,12.9702,0.0,-0.0133,1.6036,0.0001,-0.0
37203,-106.8382,13.6098,-0.0108,-0.0463,-89.5244,0.0,-0.1077,12.9702,0.0,-0.0133,1.6036,0.0001,-0.0
37218,-106.8406,13.899,-0.0108,-0.0443,-89.5244,0.0,-0.1079,13.0028,-0.0,-0.0122,1.4636,-0.0002,-0.0
37235,-106.843,14.1911,-0.0108,-0.0422,-89.5244,0.0,-0.1082,13.0328,0.0,-0.0111,1.3383,0.0002,-0.0
37250,-106.8454,14.4765,-0.0109,-0.0401,-89.5244,0.0,-0.1084,13.0595,0.0,-0.0101,1.2226,-0.0002,-0.0
37266,-106.8454,14.4765,-0.0109,-0.0401,-89.5244,0.0,-0.1084,13.0595,0.0,-0.0101,1.2226,-0.0002,-0.0
37300,-106.8502,15.0536,-0.0109,-0.0359,-89.5244,0.0,-0.1088,13.1068,0.0,-0.0085,1.0265,0.0005,-0.0
37314,-106.8502,15.0536,-0.0109,-0.0359,-89.5244,0.0,-0.1088,13.1068,0.0,-0.0085,1.0265,0.0005,-0.0
37330,-106.8536,15.3559,-0.0109,-0.0337,-89.5638,0.0067,-0.193,13.1221,0.0,-3.6553,0.6656,0.0011,-2.8862
37348,-106.859,15.6415,-0.0109,-0.0312,-89.699,0.0246,-0.3416,13.1208,0.0002,-6.8288,-0.0627,0.0082,-8.0641
37364,-106.8678,15.9384,-0.0109,-0.0277,-89.9885,0.0541,-0.5413,13.1018,0.0005,-8.8159,-0.8365,0.0125,-15.2732
37378,-106.8678,15.9384,-0.0109,-0.0277,-89.9885,0.0541,-0.5413,13.1018,0.0005,-8.8159,-0.8365,0.0125,-15.2732
37396,-106.8819,16.2662,-0.011,-0.0225,-90.5303,0.0956,-0.7933,13.0609,0.0008,-10.0488,-1.6336,0.0134,-24.9058
37411,-106.8985,16.5614,-0.011,-0.0169,-91.2408,0.1341,-1.0282,13.0096,0.0011,-10.3636,-2.2605,0.0107,-34.6395
37426,-106.8985,16.5614,-0.011,-0.0169,-91.2408,0.1341,-1.0282,13.0096,0.0011,-10.3636,-2.2605,0.0107,-34.6395
37442,-106.9184,16.8511,-0.011,-0.0104,-92.17,0.1709,-1.2581,12.9481,0.0012,-10.2846,-2.7512,0.0057,-45.0797
37459,-106.9414,17.1382,-0.011,-0.0032,-93.3391,0.204,-1.4778,12.8788,0.0013,-9.8551,-3.1117,0.0025,-56.1986
37474,-106.9414,17.1382,-0.011,-0.0032,-93.3391,0.204,-1.4778,12.8788,0.0013,-9.8551,-3.1117,0.0025,-56.1986
37490,-106.9669,17.421,-0.0111,0.0043,-94.7517,0.2315,-1.6795,12.8051,0.0012,-9.1277,-3.3355,-0.0018,-67.816
37507,-106.9962,17.7174,-0.0111,0.0124,-96.5341,0.2536,-1.8707,12.7243,0.0011,-8.1908,-3.459,-0.0059,-80.6675
37522,-107.0275,18.0121,-0.0111,0.0201,-98.6312,0.2674,-2.033,12.6441,0.0009,-6.9326,-3.4257,-0.0091,-94.0157
37538,-107.0275,18.0121,-0.0111,0.0201,-98.6312,0.2674,-2.033,12.6441,0.0009,-6.9326,-3.4257,-0.0091,-94.0157
37555,-107.0582,18.2905,-0.0111,0.0266,-100.9243,0.2721,-2.1548,12.5716,0.0006,-5.4525,-3.2484,-0.011,-107.036
37572,-107.0891,18.5663,-0.0112,0.0319,-103.5117,0.2686,-2.2422,12.5043,0.0004,-3.9147,-3.0105,-0.0119,-120.2878
37587,-107.1188,18.8334,-0.0112,0.0354,-106.332,0.2575,-2.2912,12.4454,0.0,-2.2426,-2.695,-0.0139,-133.3921
37602,-107.1188,18.8334,-0.0112,0.0354,-106.332,0.2575,-2.2912,12.4454,0.0,-2.2426,-2.695,-0.0139,-133.3921
37620,-107.1491,19.1146,-0.0112,0.037,-109.6541,0.2375,-2.3043,12.39,-0.0003,-0.562,-2.3836,-0.013,-147.4776
37634,-107.1756,19.3761,-0.0112,0.0363,-113.0757,0.2124,-2.2745,12.3466,-0.0005,1.361,-1.98,-0.0129,-160.6865
37650,-107.1756,19.3761,-0.0112,0.0363,-113.0757,0.2124,-2.2745,12.3466,-0.0005,1.361,-1.98,-0.0129,-160.6865
37668,-107.1993,19.6309,-0.0112,0.0331,-116.7321,0.1819,-2.2045,12.3117,-0.0008,3.2401,-1.6178,-0.0119,-173.6011
37684,-107.2199,19.8933,-0.0112,0.0258,-120.8126,0.1416,-2.0328,12.3035,-0.001,7.6315,-0.3646,-0.0097,-184.8805
37698,-107.2199,19.8933,-0.0112,0.0258,-120.8126,0.1416,-2.0328,12.3035,-0.001,7.6315,-0.3646,-0.0097,-184.8805
37714,-107.2351,20.1583,-0.0111,0.0125,-125.195,0.0896,-1.7493,12.3137,-0.0013,12.351,0.4459,-0.0133,-193.741
37732,-107.2428,20.4232,-0.011,-0.0068,-129.7984,0.0283,-1.3788,12.3212,-0.0017,15.9808,0.3207,-0.0146,-200.7788
37746,-107.2428,20.4232,-0.011,-0.0068,-129.7984,0.0283,-1.3788,12.3212,-0.0017,15.9808,0.3207,-0.0146,-200.7788
37762,-107.2422,20.676,-0.0109,-0.0298,-134.3722,-0.0354,-0.9598,12.3112,-0.0013,18.7334,-0.4464,0.0161,-206.1829
37780,-107.2326,20.9287,-0.0107,-0.0564,-139.1077,-0.102,-0.4897,12.2737,-0.0,20.7673,-1.6538,0.0567,-210.6067
37794,-107.212,21.1947,-0.0104,-0.0873,-144.2707,-0.1735,0.0485,12.196,0.001,22.2226,-3.212,0.0401,-214.3932
37810,-107.212,21.1947,-0.0104,-0.0873,-144.2707,-0.1735,0.0485,12.196,0.001,22.2226,-3.212,0.0401,-214.3932
37828,-107.1802,21.4566,-0.0102,-0.119,-149.5353,-0.2422,0.6132,12.0716,0.0016,23.2217,-5.1117,0.0259,-217.4649
37843,-107.1393,21.7031,-0.0099,-0.1486,-154.668,-0.3042,1.1691,11.9035,0.0019,23.734,-7.1775,0.0146,-219.9699
37858,-107.1393,21.7031,-0.0099,-0.1486,-154.668,-0.3042,1.1691,11.9035,0.0019,23.734,-7.1775,0.0146,-219.9699
37875,-107.0905,21.9339,-0.0097,-0.1758,-159.6552,-0.3597,1.7055,11.695,0.0021,23.8138,-9.2584,0.0067,-222.1403
37906,-107.0381,22.1395,-0.0094,-0.199,-164.2636,-0.4066,2.1911,11.4631,0.0021,23.539,-11.2407,0.001,-224.0398
37922,-106.9719,22.3582,-0.0092,-0.2231,-169.3794,-0.4555,2.7122,11.1659,0.0021,22.9701,-13.1015,-0.002,-226.2136
37939,-106.9069,22.5447,-0.009,-0.2417,-173.9441,-0.4969,3.1195,10.8185,0.0021,20.2491,-17.2724,0.0023,-227.1829
37956,-106.8297,22.7418,-0.0089,-0.2579,-179.0467,-0.549,3.4686,10.3363,0.0022,15.6049,-21.5502,0.0031,-228.5014
37970,-106.7548,22.915,-0.0087,-0.2688,176.1743,-0.5998,3.723,9.8374,0.0022,12.1965,-23.9194,0.0016,-229.4134
37986,-106.7548,22.915,-0.0087,-0.2688,176.1743,-0.5998,3.723,9.8374,0.0022,12.1965,-23.9194,0.0016,-229.4134
38003,-106.6794,23.076,-0.0086,-0.2762,171.4244,-0.6518,3.904,9.3068,0.0022,8.7558,-25.6682,-0.0006,-229.8997
38020,-106.6021,23.2299,-0.0086,-0.2804,166.5422,-0.706,4.012,8.7357,0.0021,5.0885,-26.8948,-0.0032,-229.8886
38035,-106.5324,23.3684,-0.0085,-0.2762,161.9462,-0.7531,3.7875,8.3012,0.002,-11.049,-21.3791,-0.0044,-222.4589
38050,-106.5324,23.3684,-0.0085,-0.2762,161.9462,-0.7531,3.7875,8.3012,0.002,-11.049,-21.3791,-0.0044,-222.4589
38066,-106.4705,23.5076,-0.0087,-0.257,157.4231,-0.7863,3.3758,7.9808,-0.0011,-19.5301,-15.1968,-0.1464,-210.7122
38084,-106.4169,23.651,-0.0089,-0.2265,152.8629,-0.8154,2.8923,7.6589,-0.0008,-21.6017,-14.3848,0.0095,-200.6848
38100,-106.3814,23.7708,-0.0092,-0.1938,149.0717,-0.8451,2.4516,7.3875,0.0036,-22.801,-14.0379,0.2281,-194.7095
38114,-106.3814,23.7708,-0.0092,-0.1938,149.0717,-0.8451,2.4516,7.3875,0.0036,-22.801,-14.0379,0.2281,-194.7095
38130,-106.3541,23.894,-0.0093,-0.1601,145.1634,-0.8755,1.9757,7.1495,0.0026,-23.3634,-11.6873,-0.0492,-190.4265
38147,-106.3382,24.0136,-0.0095,-0.1266,141.4242,-0.9001,1.4695,7.0115,0.002,-25.2263,-6.8748,-0.0278,-183.8929
38163,-106.334,24.1333,-0.0098,-0.089,137.8936,-0.9147,0.9532,6.9757,0.0016,-25.8938,-1.7986,-0.0213,-174.6377
38179,-106.34,24.2554,-0.01,-0.051,134.581,-0.9162,0.4448,7.0247,0.0011,-25.5925,2.4707,-0.0267,-164.0266
38194,-106.3554,24.3814,-0.0103,-0.0128,131.4942,-0.9071,-0.0455,7.1326,0.0006,-24.6963,5.4316,-0.025,-152.585
38210,-106.3554,24.3814,-0.0103,-0.0128,131.4942,-0.9071,-0.0455,7.1326,0.0006,-24.6963,5.4316,-0.025,-152.585
38228,-106.3802,24.5184,-0.0106,0.0234,128.494,-0.8913,-0.5249,7.279,0.0,-23.0141,7.0304,-0.0249,-139.6117
38244,-106.4143,24.6648,-0.0108,0.0589,125.7043,-0.8676,-0.9684,7.4617,-0.0003,-20.7324,8.5389,-0.0179,-125.8458
38258,-106.4143,24.6648,-0.0108,0.0589,125.7043,-0.8676,-0.9684,7.4617,-0.0003,-20.7324,8.5389,-0.0179,-125.8458
38274,-106.4576,24.8249,-0.0111,0.0926,123.0816,-0.8322,-1.3323,7.6872,-0.0008,-16.2517,10.0697,-0.0182,-113.1204
38292,-106.5049,24.9899,-0.0113,0.1203,120.7069,-0.7799,-1.5242,7.9283,-0.0011,-8.6762,10.8986,-0.016,-104.9688
38309,-106.5568,25.1721,-0.0115,0.1427,118.3255,-0.7027,-1.5849,8.1753,-0.0015,-2.58,10.5143,-0.0177,-99.8555
38322,-106.5568,25.1721,-0.0115,0.1427,118.3255,-0.7027,-1.5849,8.1753,-0.0015,-2.58,10.5143,-0.0177,-99.8555
38340,-106.6091,25.3653,-0.0117,0.1583,115.9702,-0.6071,-1.5333,8.4102,-0.0021,2.1412,9.7604,-0.0219,-97.1539
38355,-106.6606,25.5719,-0.0118,0.1678,113.5715,-0.4981,-1.3955,8.6331,-0.0026,5.5293,8.9417,-0.0207,-95.8638
38370,-106.6606,25.5719,-0.0118,0.1678,113.5715,-0.4981,-1.3955,8.6331,-0.0026,5.5293,8.9417,-0.0207,-95.8638
38388,-106.7046,25.7692,-0.0119,0.1718,111.356,-0.3962,-1.2126,8.8208,-0.003,7.8865,8.0907,-0.0167,-95.449
38418,-106.7454,25.9799,-0.012,0.1723,109.0495,-0.2903,-0.981,8.9979,-0.0032,9.5792,7.3278,-0.0115,-95.4302
38436,-106.7811,26.1913,-0.0121,0.1712,106.8416,-0.2007,-0.8473,9.1752,-0.0034,5.6356,7.4775,-0.0055,-91.3884
38450,-106.8147,26.4056,-0.0122,0.1697,104.832,-0.1396,-0.8487,9.3338,-0.0032,-0.0583,6.747,0.0062,-82.1627
38466,-106.8147,26.4056,-0.0122,0.1697,104.832,-0.1396,-0.8487,9.3338,-0.0032,-0.0583,6.747,0.0062,-82.1627
38483,-106.8492,26.6305,-0.0122,0.1666,103.0536,-0.1083,-0.9565,9.4549,-0.0028,-4.4518,5.0041,0.019,-68.8676
38498,-106.8492,26.6305,-0.0122,0.1666,103.0536,-0.1083,-0.9565,9.4549,-0.0028,-4.4518,5.0041,0.019,-68.8676
38514,-106.8883,26.8754,-0.0122,0.1601,101.5586,-0.1068,-1.1695,9.5256,-0.002,-8.19,2.7159,0.0288,-51.5836
38532,-106.9268,27.1041,-0.0122,0.1513,100.5547,-0.121,-1.3479,9.5684,-0.0011,-7.4078,1.7776,0.0376,-37.107
38546,-106.9649,27.3261,-0.0121,0.1414,99.8625,-0.1327,-1.4541,9.6122,-0.0004,-4.5694,1.8836,0.0284,-26.4741
38562,-106.9649,27.3261,-0.0121,0.1414,99.8625,-0.1327,-1.4541,9.6122,-0.0004,-4.5694,1.8836,0.0284,-26.4741
38580,-107.005,27.5597,-0.0121,0.1304,99.3561,-0.1367,-1.5131,9.6574,-0.0001,-2.4299,1.8611,0.0149,-18.3351
38596,-107.0459,27.8023,-0.012,0.119,98.9993,-0.1318,-1.5372,9.7017,0.0,-0.9584,1.7646,0.0045,-12.3963
38610,-107.0459,27.8023,-0.012,0.119,98.9993,-0.1318,-1.5372,9.7017,0.0,-0.9584,1.7646,0.0045,-12.3963
38628,-107.085,28.0428,-0.0111,0.1508,98.7483,0.0079,-1.5421,9.7245,0.0336,-0.1966,0.9212,1.3569,-8.7991
38642,-107.085,28.0428,-0.0111,0.1508,98.7483,0.0079,-1.5421,9.7245,0.0336,-0.1966,0.9212,1.3569,-8.7991
38658,-107.1267,28.2969,-0.0112,0.1255,98.5643,-0.03,-1.5316,9.7487,0.0109,0.3989,0.9287,-0.8688,-6.2867
38676,-107.1639,28.5298,-0.0113,0.1063,98.453,-0.0481,-1.5148,9.7821,-0.0085,0.7072,1.3973,-0.8133,-3.8636
38690,-107.1639,28.5298,-0.0113,0.1063,98.453,-0.0481,-1.5148,9.7821,-0.0085,0.7072,1.3973,-0.8133,-3.8636
38708,-107.2018,28.7723,-0.0114,0.091,98.3693,-0.05,-1.4983,9.81,-0.0061,0.6634,1.1267,0.099,-3.3373
38722,-107.2408,29.0278,-0.0114,0.0782,98.3198,-0.0447,-1.4835,9.8317,-0.0044,0.5722,0.8354,0.065,-1.0005
38738,-107.2408,29.0278,-0.0114,0.0782,98.3198,-0.0447,-1.4835,9.8317,-0.0044,0.5722,0.8354,0.065,-1.0005
38756,-107.2798,29.2863,-0.0114,0.0678,98.2734,-0.0372,-1.4729,9.8576,-0.0031,0.4006,0.9876,0.0465,-2.3474
38770,-107.2798,29.2863,-0.0114,0.0678,98.2734,-0.0372,-1.4729,9.8576,-0.0031,0.4006,0.9876,0.0465,-2.3474
38786,-107.3151,29.5229,-0.0114,0.06,98.2586,-0.0306,-1.4639,9.8712,-0.0023,0.3786,0.5657,0.0342,0.0772
38803,-107.3518,29.7705,-0.0114,0.053,98.2344,-0.0244,-1.4579,9.8917,-0.0017,0.2393,0.8164,0.023,-1.6375
38818,-107.3518,29.7705,-0.0114,0.053,98.2344,-0.0244,-1.4579,9.8917,-0.0017,0.2393,0.8164,0.023,-1.6375
38834,-107.3875,30.0138,-0.0114,0.0472,98.233,-0.0193,-1.453,9.9072,-0.0013,0.1961,0.6314,0.0177,0.744
38852,-107.4226,30.253,-0.0114,0.0422,98.2173,-0.0152,-1.45,9.9228,-0.001,0.1266,0.6483,0.0136,-1.3056
38866,-107.4226,30.253,-0.0114,0.0422,98.2173,-0.0152,-1.45,9.9228,-0.001,0.1266,0.6483,0.0136,-1.3056
38884,-107.4576,30.4943,-0.0112,0.0282,98.2209,0.0012,-1.4466,9.9369,0.0128,0.1378,0.5803,0.5678,0.8955
38900,-107.4929,30.7384,-0.0104,-0.0174,98.2061,0.0546,-1.449,9.9483,0.02,-0.0971,0.461,0.2903,-1.326
38914,-107.4929,30.7384,-0.0104,-0.0174,98.2061,0.0546,-1.449,9.9483,0.02,-0.0971,0.461,0.2903,-1.326
38931,-107.5287,30.9817,-0.0107,-0.002,98.1971,0.0258,-1.4498,9.954,-0.0052,-0.0323,0.2365,-1.0275,0.2727
38948,-107.5647,31.2282,-0.0108,0.0051,98.1778,0.0143,-1.4463,9.972,-0.0041,0.1407,0.7259,0.0444,-1.4026
38962,-107.5647,31.2282,-0.0108,0.0051,98.1778,0.0143,-1.4463,9.972,-0.0041,0.1407,0.7259,0.0444,-1.4026
38980,-107.6012,31.4804,-0.0109,0.0091,98.1794,0.0091,-1.4439,9.9856,-0.0031,0.0962,0.5403,0.0368,0.9219
38994,-107.6012,31.4804,-0.0109,0.0091,98.1794,0.0091,-1.4439,9.9856,-0.0031,0.0962,0.5403,0.0368,0.9219
39010,-107.6386,31.738,-0.011,0.0111,98.1626,0.0067,-1.4427,9.9982,-0.0024,0.0448,0.4875,0.0303,-1.562
39029,-107.6746,31.9886,-0.0111,0.012,98.1696,0.0056,-1.4422,10.0112,-0.0018,0.0207,0.5168,0.0234,1.1268
39042,-107.6746,31.9886,-0.0111,0.012,98.1696,0.0056,-1.4422,10.0112,-0.0018,0.0207,0.5168,0.0234,1.1268
39058,-107.7096,32.2306,-0.0111,0.0123,98.1581,0.0051,-1.4426,10.025,-0.0013,-0.0152,0.5721,0.0176,-1.1421
39075,-107.7444,32.4733,-0.0111,0.0123,98.1645,0.0047,-1.4432,10.0391,-0.001,-0.0245,0.584,0.013,0.9277
39090,-107.7444,32.4733,-0.0111,0.0123,98.1645,0.0047,-1.4432,10.0391,-0.001,-0.0245,0.584,0.013,0.9277
39106,-107.7802,32.722,-0.0112,0.0122,98.1545,0.0044,-1.4441,10.0527,-0.0008,-0.0384,0.5478,0.0097,-1.1236
39124,-107.8155,32.9683,-0.0112,0.012,98.1623,0.004,-1.4451,10.0658,-0.0006,-0.0399,0.5387,0.0073,1.016
39138,-107.8155,32.9683,-0.0112,0.012,98.1623,0.004,-1.4451,10.0658,-0.0006,-0.0399,0.5387,0.0073,1.016
39154,-107.8504,33.2109,-0.0112,0.0118,98.1537,0.0037,-1.4465,10.0791,-0.0005,-0.0563,0.5511,0.0054,-0.9848
39172,-107.8864,33.4624,-0.0112,0.0116,98.1619,0.0034,-1.4478,10.0921,-0.0004,-0.052,0.5211,0.0041,1.0675
39186,-107.8864,33.4624,-0.0112,0.0116,98.1619,0.0034,-1.4478,10.0921,-0.0004,-0.052,0.5211,0.0041,1.0675
39204,-107.9243,33.7257,-0.0112,0.0112,98.1506,0.0031,-1.4491,10.1037,-0.0003,-0.0523,0.443,0.0036,-1.3662
39218,-107.9611,33.983,-0.0112,0.0109,98.1615,0.0027,-1.4504,10.115,-0.0002,-0.0479,0.4461,0.0022,1.2876
39234,-107.9611,33.983,-0.0112,0.0109,98.1615,0.0027,-1.4504,10.115,-0.0002,-0.0479,0.4461,0.0022,1.2876
39252,-107.9967,34.2307,-0.0112,0.0106,98.152,0.0025,-1.452,10.1276,-0.0002,-0.0691,0.5138,0.0023,-1.0874
39266,-108.0324,34.48,-0.0112,0.0104,98.1605,0.0022,-1.4537,10.1405,-0.0001,-0.0659,0.5275,0.0016,1.0408
39282,-108.0324,34.48,-0.0112,0.0104,98.1605,0.0022,-1.4537,10.1405,-0.0001,-0.0659,0.5275,0.0016,1.0408
39299,-108.0667,34.719,-0.0112,0.0102,98.1533,0.002,-1.4555,10.1537,-0.0001,-0.0791,0.5569,-0.0,-0.8457
39314,-108.0667,34.719,-0.0112,0.0102,98.1533,0.002,-1.4555,10.1537,-0.0001,-0.0791,0.5569,-0.0,-0.8457
39330,-108.103,34.9726,-0.0112,0.0101,98.1612,0.0018,-1.4573,10.1667,-0.0001,-0.0696,0.5221,0.0014,1.0082
39348,-108.1393,35.2253,-0.0112,0.01,98.1525,0.0015,-1.459,10.1788,-0.0001,-0.0718,0.4858,0.0008,-1.0543
39363,-108.1393,35.2253,-0.0112,0.01,98.1525,0.0015,-1.459,10.1788,-0.0001,-0.0718,0.4858,0.0008,-1.0543
39378,-108.1761,35.4828,-0.0112,0.0099,98.1619,0.0013,-1.4606,10.1905,-0.0001,-0.0623,0.4652,0.0009,1.1462
39396,-108.2123,35.7348,-0.0112,0.0097,98.153,0.0012,-1.4624,10.2023,-0.0,-0.0718,0.4759,0.0005,-1.0648
39410,-108.2123,35.7348,-0.0112,0.0097,98.153,0.0012,-1.4624,10.2023,-0.0,-0.0718,0.4759,0.0005,-1.0648
39428,-108.2497,35.9965,-0.0112,0.0096,98.1628,0.001,-1.464,10.2138,-0.0,-0.0617,0.4508,-0.0002,1.2107
39442,-108.2876,36.2598,-0.0112,0.0094,98.152,0.0009,-1.4657,10.2247,-0.0,-0.0651,0.4219,0.0005,-1.2827
39458,-108.2876,36.2598,-0.0112,0.0094,98.152,0.0009,-1.4657,10.2247,-0.0,-0.0651,0.4219,0.0005,-1.2827
39476,-108.3237,36.5125,-0.0112,0.0092,98.1614,0.0008,-1.4672,10.2364,-0.0,-0.0638,0.4748,0.0006,1.0809
39490,-108.3237,36.5125,-0.0112,0.0092,98.1614,0.0008,-1.4672,10.2364,-0.0,-0.0638,0.4748,0.0006,1.0809
39506,-108.3611,36.7729,-0.0112,0.0091,98.1518,0.0007,-1.469,10.2483,-0.0,-0.0695,0.466,0.0,-1.1627
39523,-108.399,37.0381,-0.0112,0.009,98.1625,0.0006,-1.4705,10.2594,-0.0,-0.0573,0.4298,-0.0001,1.2716
39538,-108.399,37.0381,-0.0112,0.009,98.1625,0.0006,-1.4705,10.2594,-0.0,-0.0573,0.4298,-0.0001,1.2716
39554,-108.4364,37.2982,-0.0112,0.0089,98.1522,0.0005,-1.4722,10.2706,-0.0,-0.0679,0.4441,0.0003,-1.1922
39572,-108.4737,37.5587,-0.0112,0.0087,98.1621,0.0004,-1.4738,10.2822,-0.0,-0.062,0.4582,-0.0003,1.1673
39586,-108.4737,37.5587,-0.0112,0.0087,98.1621,0.0004,-1.4738,10.2822,-0.0,-0.062,0.4582,-0.0003,1.1673
