timestamp,x,y,z,pitch,yaw,roll,vx,vy,vz,ax,ay,az,yaw_rate
110623,-106.6867,-4.8475,-0.0793,0.0,-89.3578,0.0,-0.0,0.0,0.0683,0.0,0.0,6.5273,-0.0
110639,-106.6867,-4.8475,-0.0793,0.0,-89.3578,0.0,-0.0,0.0,0.0683,0.0,0.0,6.5273,-0.0
110655,-106.6867,-4.8475,-0.0793,0.0,-89.3578,0.0,-0.0,0.0,0.0683,0.0,0.0,6.5273,-0.0
110671,-106.6867,-4.8475,-0.0793,0.0,-89.3578,0.0,-0.0,0.0,0.0683,0.0,0.0,6.5273,-0.0
110687,-106.6867,-4.8475,-0.0793,0.0,-89.3578,0.0,-0.0,0.0,0.0683,0.0,0.0,6.5273,-0.0
110703,-106.6867,-4.8475,-0.0793,0.0,-89.3578,0.0,-0.0,0.0,0.0683,0.0,0.0,6.5273,-0.0
110719,-106.6867,-4.8475,-0.0793,0.0,-89.3578,0.0,-0.0,0.0,0.0683,0.0,0.0,6.5273,-0.0
110735,-106.6867,-4.8475,-0.0793,0.0,-89.3578,0.0,-0.0,0.0,0.0683,0.0,0.0,6.5273,-0.0
110751,-106.6867,-4.8475,-0.0793,0.0,-89.3578,0.0,-0.0,0.0,0.0683,0.0,0.0,6.5273,-0.0
110767,-106.6867,-4.8475,-0.0793,0.0,-89.3578,0.0,-0.0,0.0,0.0683,0.0,0.0,6.5273,-0.0
110783,-106.6867,-4.8475,-0.0793,0.0,-89.3578,0.0,-0.0,0.0,0.0683,0.0,0.0,6.5273,-0.0
110799,-106.6867,-4.8475,-0.0793,0.0,-89.3578,0.0,-0.0,0.0,0.0683,0.0,0.0,6.5273,-0.0
110815,-106.6867,-4.8475,-0.0793,0.0,-89.3578,0.0,-0.0,0.0,0.0683,0.0,0.0,6.5273,-0.0
110831,-106.6867,-4.8475,-0.0793,0.0,-89.3578,0.0,-0.0,0.0,0.0683,0.0,0.0,6.5273,-0.0
110847,-106.6867,-4.8475,-0.0793,0.0,-89.3578,0.0,-0.0,0.0,0.0683,0.0,0.0,6.5273,-0.0
110863,-106.6867,-4.8475,-0.0793,0.0,-89.3578,0.0,-0.0,0.0,0.0683,0.0,0.0,6.5273,-0.0
110879,-106.6867,-4.8475,-0.0793,0.0,-89.3578,0.0,-0.0,0.0,0.0683,0.0,0.0,6.5273,-0.0
110895,-106.6867,-4.8475,-0.0793,0.0,-89.3578,0.0,-0.0,0.0,0.0683,0.0,0.0,6.5273,-0.0
110911,-106.6867,-4.8475,-0.0793,0.0,-89.3578,0.0,-0.0,0.0,0.0683,0.0,0.0,6.5273,-0.0
110927,-106.6867,-4.8475,-0.0793,0.0,-89.3578,0.0,-0.0,0.0,0.0683,0.0,0.0,6.5273,-0.0
110943,-106.6867,-4.8475,-0.0793,0.0,-89.3578,0.0,-0.0,0.0,0.0683,0.0,0.0,6.5273,-0.0
110959,-106.6867,-4.8475,-0.0793,0.0,-89.3578,0.0,-0.0,0.0,0.0683,0.0,0.0,6.5273,-0.0
110975,-106.6867,-4.8475,-0.0793,0.0,-89.3578,0.0,-0.0,0.0,0.0683,0.0,0.0,6.5273,-0.0
110991,-106.6867,-4.8475,-0.0793,0.0,-89.3578,0.0,-0.0,0.0,0.0683,0.0,0.0,6.5273,-0.0
111007,-106.6867,-4.8475,-0.0793,0.0,-89.3578,0.0,-0.0,0.0,0.0683,0.0,0.0,6.5273,-0.0
111023,-106.6867,-4.8475,-0.0793,0.0,-89.3578,0.0,-0.0,0.0,0.0683,0.0,0.0,6.5273,-0.0
111039,-106.6867,-4.8456,-0.0595,-0.0017,-89.3578,-0.0,-0.0005,0.0421,0.2357,-0.0012,0.1052,0.4187,0.0
111055,-106.6867,-4.8456,-0.0595,-0.0017,-89.3578,-0.0,-0.0005,0.0421,0.2357,-0.0012,0.1052,0.4187,0.0
111071,-106.6867,-4.8456,-0.0595,-0.0017,-89.3578,-0.0,-0.0005,0.0421,0.2357,-0.0012,0.1052,0.4187,0.0
111087,-106.6867,-4.8456,-0.0595,-0.0017,-89.3578,-0.0,-0.0005,0.0421,0.2357,-0.0012,0.1052,0.4187,0.0
111103,-106.6867,-4.8456,-0.0595,-0.0017,-89.3578,-0.0,-0.0005,0.0421,0.2357,-0.0012,0.1052,0.4187,0.0
111119,-106.6867,-4.8456,-0.0595,-0.0017,-89.3578,-0.0,-0.0005,0.0421,0.2357,-0.0012,0.1052,0.4187,0.0
111135,-106.6867,-4.8456,-0.0595,-0.0017,-89.3578,-0.0,-0.0005,0.0421,0.2357,-0.0012,0.1052,0.4187,0.0
111151,-106.6867,-4.8456,-0.0595,-0.0017,-89.3578,-0.0,-0.0005,0.0421,0.2357,-0.0012,0.1052,0.4187,0.0
111167,-106.6867,-4.8456,-0.0595,-0.0017,-89.3578,-0.0,-0.0005,0.0421,0.2357,-0.0012,0.1052,0.4187,0.0
111183,-106.6868,-4.8406,-0.0387,-0.0051,-89.3577,0.0,-0.0012,0.1085,0.1753,-0.0052,0.4656,-0.4242,0.0036
111199,-106.6868,-4.8406,-0.0387,-0.0051,-89.3577,0.0,-0.0012,0.1085,0.1753,-0.0052,0.4656,-0.4242,0.0036
111215,-106.6868,-4.8406,-0.0387,-0.0051,-89.3577,0.0,-0.0012,0.1085,0.1753,-0.0052,0.4656,-0.4242,0.0036
111231,-106.6868,-4.8406,-0.0387,-0.0051,-89.3577,0.0,-0.0012,0.1085,0.1753,-0.0052,0.4656,-0.4242,0.0036
111247,-106.6868,-4.8406,-0.0387,-0.0051,-89.3577,0.0,-0.0012,0.1085,0.1753,-0.0052,0.4656,-0.4242,0.0036
111263,-106.6868,-4.8406,-0.0387,-0.0051,-89.3577,0.0,-0.0012,0.1085,0.1753,-0.0052,0.4656,-0.4242,0.0036
111284,-106.6871,-4.8008,-0.0252,-0.0314,-89.3673,-0.0001,-0.0067,0.6319,0.1015,-0.0547,5.2367,-0.7385,-0.0066
111295,-106.6871,-4.8008,-0.0252,-0.0314,-89.3673,-0.0001,-0.0067,0.6319,0.1015,-0.0547,5.2367,-0.7385,-0.0066
111311,-106.6871,-4.8008,-0.0252,-0.0314,-89.3673,-0.0001,-0.0067,0.6319,0.1015,-0.0547,5.2367,-0.7385,-0.0066
111327,-106.6871,-4.8008,-0.0252,-0.0314,-89.3673,-0.0001,-0.0067,0.6319,0.1015,-0.0547,5.2367,-0.7385,-0.0066
111343,-106.6871,-4.8008,-0.0252,-0.0314,-89.3673,-0.0001,-0.0067,0.6319,0.1015,-0.0547,5.2367,-0.7385,-0.0066
111359,-106.6871,-4.8008,-0.0252,-0.0314,-89.3673,-0.0001,-0.0067,0.6319,0.1015,-0.0547,5.2367,-0.7385,-0.0066
111383,-106.6881,-4.7172,-0.0179,-0.0492,-89.3574,0.0001,-0.0117,1.0191,0.0537,-0.0519,3.9879,-0.4915,0.1296
111391,-106.6881,-4.7172,-0.0179,-0.0492,-89.3574,0.0001,-0.0117,1.0191,0.0537,-0.0519,3.9879,-0.4915,0.1296
111407,-106.6881,-4.7172,-0.0179,-0.0492,-89.3574,0.0001,-0.0117,1.0191,0.0537,-0.0519,3.9879,-0.4915,0.1296
111423,-106.6881,-4.7172,-0.0179,-0.0492,-89.3574,0.0001,-0.0117,1.0191,0.0537,-0.0519,3.9879,-0.4915,0.1296
111439,-106.6881,-4.7172,-0.0179,-0.0492,-89.3574,0.0001,-0.0117,1.0191,0.0537,-0.0519,3.9879,-0.4915,0.1296
111455,-106.6881,-4.7172,-0.0179,-0.0492,-89.3574,0.0001,-0.0117,1.0191,0.0537,-0.0519,3.9879,-0.4915,0.1296
111471,-106.6881,-4.7172,-0.0179,-0.0492,-89.3574,0.0001,-0.0117,1.0191,0.0537,-0.0519,3.9879,-0.4915,0.1296
111487,-106.6894,-4.6054,-0.0138,-0.0487,-89.3744,0.0002,-0.0164,1.2004,0.0278,-0.0443,1.7326,-0.248,-1.9147
111503,-106.6894,-4.6054,-0.0138,-0.0487,-89.3744,0.0002,-0.0164,1.2004,0.0278,-0.0443,1.7326,-0.248,-1.9147
111519,-106.6894,-4.6054,-0.0138,-0.0487,-89.3744,0.0002,-0.0164,1.2004,0.0278,-0.0443,1.7326,-0.248,-1.9147
111535,-106.6894,-4.6054,-0.0138,-0.0487,-89.3744,0.0002,-0.0164,1.2004,0.0278,-0.0443,1.7326,-0.248,-1.9147
111551,-106.6894,-4.6054,-0.0138,-0.0487,-89.3744,0.0002,-0.0164,1.2004,0.0278,-0.0443,1.7326,-0.248,-1.9147
111567,-106.6894,-4.6054,-0.0138,-0.0487,-89.3744,0.0002,-0.0164,1.2004,0.0278,-0.0443,1.7326,-0.248,-1.9147
111583,-106.6894,-4.6054,-0.0138,-0.0487,-89.3744,0.0002,-0.0164,1.2004,0.0278,-0.0443,1.7326,-0.248,-1.9147
111599,-106.6894,-4.6054,-0.0138,-0.0487,-89.3744,0.0002,-0.0164,1.2004,0.0278,-0.0443,1.7326,-0.248,-1.9147
111615,-106.6903,-4.4733,-0.0121,-0.0392,-89.4197,-0.0008,-0.0115,1.3263,0.0109,0.0385,1.0089,-0.1356,-0.6737
111631,-106.6903,-4.4733,-0.0121,-0.0392,-89.4197,-0.0008,-0.0115,1.3263,0.0109,0.0385,1.0089,-0.1356,-0.6737
111647,-106.6903,-4.4733,-0.0121,-0.0392,-89.4197,-0.0008,-0.0115,1.3263,0.0109,0.0385,1.0089,-0.1356,-0.6737
111663,-106.6903,-4.4733,-0.0121,-0.0392,-89.4197,-0.0008,-0.0115,1.3263,0.0109,0.0385,1.0089,-0.1356,-0.6737
111679,-106.6903,-4.4733,-0.0121,-0.0392,-89.4197,-0.0008,-0.0115,1.3263,0.0109,0.0385,1.0089,-0.1356,-0.6737
111695,-106.6903,-4.4733,-0.0121,-0.0392,-89.4197,-0.0008,-0.0115,1.3263,0.0109,0.0385,1.0089,-0.1356,-0.6737
111711,-106.6914,-4.3357,-0.0115,-0.0254,-89.424,-0.0005,-0.0132,1.3714,0.0046,-0.0164,0.4465,-0.062,1.3713
111727,-106.6914,-4.3357,-0.0115,-0.0254,-89.424,-0.0005,-0.0132,1.3714,0.0046,-0.0164,0.4465,-0.062,1.3713
111743,-106.6914,-4.3357,-0.0115,-0.0254,-89.424,-0.0005,-0.0132,1.3714,0.0046,-0.0164,0.4465,-0.062,1.3713
111759,-106.6914,-4.3357,-0.0115,-0.0254,-89.424,-0.0005,-0.0132,1.3714,0.0046,-0.0164,0.4465,-0.062,1.3713
111775,-106.6914,-4.3357,-0.0115,-0.0254,-89.424,-0.0005,-0.0132,1.3714,0.0046,-0.0164,0.4465,-0.062,1.3713
111791,-106.6914,-4.3357,-0.0115,-0.0254,-89.424,-0.0005,-0.0132,1.3714,0.0046,-0.0164,0.4465,-0.062,1.3713
111807,-106.6914,-4.3357,-0.0115,-0.0254,-89.424,-0.0005,-0.0132,1.3714,0.0046,-0.0164,0.4465,-0.062,1.3713
111829,-106.6926,-4.1577,-0.0111,-0.0496,-89.4584,-0.0002,-0.0226,2.134,0.0021,-0.0818,6.6729,-0.0222,1.7713
111839,-106.6926,-4.1577,-0.0111,-0.0496,-89.4584,-0.0002,-0.0226,2.134,0.0021,-0.0818,6.6729,-0.0222,1.7713
111855,-106.6926,-4.1577,-0.0111,-0.0496,-89.4584,-0.0002,-0.0226,2.134,0.0021,-0.0818,6.6729,-0.0222,1.7713
111871,-106.6926,-4.1577,-0.0111,-0.0496,-89.4584,-0.0002,-0.0226,2.134,0.0021,-0.0818,6.6729,-0.0222,1.7713
111887,-106.6926,-4.1577,-0.0111,-0.0496,-89.4584,-0.0002,-0.0226,2.134,0.0021,-0.0818,6.6729,-0.0222,1.7713
111903,-106.6926,-4.1577,-0.0111,-0.0496,-89.4584,-0.0002,-0.0226,2.134,0.0021,-0.0818,6.6729,-0.0222,1.7713
111919,-106.6926,-4.1577,-0.0111,-0.0496,-89.4584,-0.0002,-0.0226,2.134,0.0021,-0.0818,6.6729,-0.0222,1.7713
111935,-106.6951,-3.9104,-0.0107,-0.0754,-89.4531,0.0009,-0.0318,2.6814,0.001,-0.0816,4.8424,-0.0096,1.0168
111951,-106.6951,-3.9104,-0.0107,-0.0754,-89.4531,0.0009,-0.0318,2.6814,0.001,-0.0816,4.8424,-0.0096,1.0168
111967,-106.6951,-3.9104,-0.0107,-0.0754,-89.4531,0.0009,-0.0318,2.6814,0.001,-0.0816,4.8424,-0.0096,1.0168
111983,-106.6951,-3.9104,-0.0107,-0.0754,-89.4531,0.0009,-0.0318,2.6814,0.001,-0.0816,4.8424,-0.0096,1.0168
111999,-106.6951,-3.9104,-0.0107,-0.0754,-89.4531,0.0009,-0.0318,2.6814,0.001,-0.0816,4.8424,-0.0096,1.0168
112015,-106.6951,-3.9104,-0.0107,-0.0754,-89.4531,0.0009,-0.0318,2.6814,0.001,-0.0816,4.8424,-0.0096,1.0168
112031,-106.6951,-3.9104,-0.0107,-0.0754,-89.4531,0.0009,-0.0318,2.6814,0.001,-0.0816,4.8424,-0.0096,1.0168
112047,-106.6985,-3.6266,-0.0107,-0.0697,-89.3994,0.0006,-0.0344,3.0644,0.0004,-0.0249,3.6134,-0.0049,1.3109
112063,-106.6985,-3.6266,-0.0107,-0.0697,-89.3994,0.0006,-0.0344,3.0644,0.0004,-0.0249,3.6134,-0.0049,1.3109
112079,-106.6985,-3.6266,-0.0107,-0.0697,-89.3994,0.0006,-0.0344,3.0644,0.0004,-0.0249,3.6134,-0.0049,1.3109
112095,-106.6985,-3.6266,-0.0107,-0.0697,-89.3994,0.0006,-0.0344,3.0644,0.0004,-0.0249,3.6134,-0.0049,1.3109
112111,-106.6985,-3.6266,-0.0107,-0.0697,-89.3994,0.0006,-0.0344,3.0644,0.0004,-0.0249,3.6134,-0.0049,1.3109
112127,-106.6985,-3.6266,-0.0107,-0.0697,-89.3994,0.0006,-0.0344,3.0644,0.0004,-0.0249,3.6134,-0.0049,1.3109
112143,-106.702,-3.3003,-0.0107,-0.0727,-89.4059,0.0004,-0.0355,3.4807,0.0002,-0.0115,4.2445,-0.0021,-2.2273
112159,-106.702,-3.3003,-0.0107,-0.0727,-89.4059,0.0004,-0.0355,3.4807,0.0002,-0.0115,4.2445,-0.0021,-2.2273
112175,-106.702,-3.3003,-0.0107,-0.0727,-89.4059,0.0004,-0.0355,3.4807,0.0002,-0.0115,4.2445,-0.0021,-2.2273
112191,-106.702,-3.3003,-0.0107,-0.0727,-89.4059,0.0004,-0.0355,3.4807,0.0002,-0.0115,4.2445,-0.0021,-2.2273
112207,-106.702,-3.3003,-0.0107,-0.0727,-89.4059,0.0004,-0.0355,3.4807,0.0002,-0.0115,4.2445,-0.0021,-2.2273
112223,-106.702,-3.3003,-0.0107,-0.0727,-89.4059,0.0004,-0.0355,3.4807,0.0002,-0.0115,4.2445,-0.0021,-2.2273
112239,-106.7059,-2.9175,-0.0106,-0.0805,-89.4366,0.0,-0.0428,4.1752,0.0001,-0.0708,6.7488,-0.0012,-1.6584
112255,-106.7059,-2.9175,-0.0106,-0.0805,-89.4366,0.0,-0.0428,4.1752,0.0001,-0.0708,6.7488,-0.0012,-1.6584
112271,-106.7059,-2.9175,-0.0106,-0.0805,-89.4366,0.0,-0.0428,4.1752,0.0001,-0.0708,6.7488,-0.0012,-1.6584
112287,-106.7059,-2.9175,-0.0106,-0.0805,-89.4366,0.0,-0.0428,4.1752,0.0001,-0.0708,6.7488,-0.0012,-1.6584
112303,-106.7059,-2.9175,-0.0106,-0.0805,-89.4366,0.0,-0.0428,4.1752,0.0001,-0.0708,6.7488,-0.0012,-1.6584
112319,-106.7059,-2.9175,-0.0106,-0.0805,-89.4366,0.0,-0.0428,4.1752,0.0001,-0.0708,6.7488,-0.0012,-1.6584
112335,-106.7059,-2.9175,-0.0106,-0.0805,-89.4366,0.0,-0.0428,4.1752,0.0001,-0.0708,6.7488,-0.0012,-1.6584
112351,-106.7095,-2.4765,-0.0105,-0.0867,-89.5004,-0.0014,-0.0406,4.738,0.0001,0.0213,5.4667,-0.0004,1.027
112367,-106.7095,-2.4765,-0.0105,-0.0867,-89.5004,-0.0014,-0.0406,4.738,0.0001,0.0213,5.4667,-0.0004,1.027
112383,-106.7095,-2.4765,-0.0105,-0.0867,-89.5004,-0.0014,-0.0406,4.738,0.0001,0.0213,5.4667,-0.0004,1.027
112399,-106.7095,-2.4765,-0.0105,-0.0867,-89.5004,-0.0014,-0.0406,4.738,0.0001,0.0213,5.4667,-0.0004,1.027
112415,-106.7095,-2.4765,-0.0105,-0.0867,-89.5004,-0.0014,-0.0406,4.738,0.0001,0.0213,5.4667,-0.0004,1.027
112431,-106.7095,-2.4765,-0.0105,-0.0867,-89.5004,-0.0014,-0.0406,4.738,0.0001,0.0213,5.4667,-0.0004,1.027
112447,-106.7131,-1.9792,-0.0109,-0.0708,-89.5731,0.0225,-0.0401,5.3156,-0.0089,0.0058,5.7726,-0.0895,-0.9512
112463,-106.7131,-1.9792,-0.0109,-0.0708,-89.5731,0.0225,-0.0401,5.3156,-0.0089,0.0058,5.7726,-0.0895,-0.9512
112479,-106.7131,-1.9792,-0.0109,-0.0708,-89.5731,0.0225,-0.0401,5.3156,-0.0089,0.0058,5.7726,-0.0895,-0.9512
112495,-106.7131,-1.9792,-0.0109,-0.0708,-89.5731,0.0225,-0.0401,5.3156,-0.0089,0.0058,5.7726,-0.0895,-0.9512
112511,-106.7131,-1.9792,-0.0109,-0.0708,-89.5731,0.0225,-0.0401,5.3156,-0.0089,0.0058,5.7726,-0.0895,-0.9512
112527,-106.7131,-1.9792,-0.0109,-0.0708,-89.5731,0.0225,-0.0401,5.3156,-0.0089,0.0058,5.7726,-0.0895,-0.9512
112548,-106.7169,-1.407,-0.0111,-0.0725,-89.6089,0.0296,-0.0416,6.0546,0.0008,-0.0154,7.3473,0.0961,1.3105
112559,-106.7169,-1.407,-0.0111,-0.0725,-89.6089,0.0296,-0.0416,6.0546,0.0008,-0.0154,7.3473,0.0961,1.3105
112575,-106.7169,-1.407,-0.0111,-0.0725,-89.6089,0.0296,-0.0416,6.0546,0.0008,-0.0154,7.3473,0.0961,1.3105
112591,-106.7169,-1.407,-0.0111,-0.0725,-89.6089,0.0296,-0.0416,6.0546,0.0008,-0.0154,7.3473,0.0961,1.3105
112607,-106.7169,-1.407,-0.0111,-0.0725,-89.6089,0.0296,-0.0416,6.0546,0.0008,-0.0154,7.3473,0.0961,1.3105
112623,-106.7169,-1.407,-0.0111,-0.0725,-89.6089,0.0296,-0.0416,6.0546,0.0008,-0.0154,7.3473,0.0961,1.3105
112639,-106.7169,-1.407,-0.0111,-0.0725,-89.6089,0.0296,-0.0416,6.0546,0.0008,-0.0154,7.3473,0.0961,1.3105
112655,-106.7213,-0.7692,-0.0108,-0.087,-89.602,0.0179,-0.048,6.7117,0.0015,-0.0616,6.2942,0.0072,-1.3451
112671,-106.7213,-0.7692,-0.0108,-0.087,-89.602,0.0179,-0.048,6.7117,0.0015,-0.0616,6.2942,0.0072,-1.3451
112687,-106.7213,-0.7692,-0.0108,-0.087,-89.602,0.0179,-0.048,6.7117,0.0015,-0.0616,6.2942,0.0072,-1.3451
112703,-106.7213,-0.7692,-0.0108,-0.087,-89.602,0.0179,-0.048,6.7117,0.0015,-0.0616,6.2942,0.0072,-1.3451
112719,-106.7213,-0.7692,-0.0108,-0.087,-89.602,0.0179,-0.048,6.7117,0.0015,-0.0616,6.2942,0.0072,-1.3451
112735,-106.7213,-0.7692,-0.0108,-0.087,-89.602,0.0179,-0.048,6.7117,0.0015,-0.0616,6.2942,0.0072,-1.3451
112751,-106.7213,-0.7692,-0.0108,-0.087,-89.602,0.0179,-0.048,6.7117,0.0015,-0.0616,6.2942,0.0072,-1.3451
112767,-106.7263,-0.0634,-0.0106,-0.0992,-89.5932,0.0103,-0.0522,7.4128,0.001,-0.0374,6.3232,-0.0045,1.1361
112783,-106.7263,-0.0634,-0.0106,-0.0992,-89.5932,0.0103,-0.0522,7.4128,0.001,-0.0374,6.3232,-0.0045,1.1361
112799,-106.7263,-0.0634,-0.0106,-0.0992,-89.5932,0.0103,-0.0522,7.4128,0.001,-0.0374,6.3232,-0.0045,1.1361
112815,-106.7263,-0.0634,-0.0106,-0.0992,-89.5932,0.0103,-0.0522,7.4128,0.001,-0.0374,6.3232,-0.0045,1.1361
112831,-106.7263,-0.0634,-0.0106,-0.0992,-89.5932,0.0103,-0.0522,7.4128,0.001,-0.0374,6.3232,-0.0045,1.1361
112847,-106.7263,-0.0634,-0.0106,-0.0992,-89.5932,0.0103,-0.0522,7.4128,0.001,-0.0374,6.3232,-0.0045,1.1361
112863,-106.7263,-0.0634,-0.0106,-0.0992,-89.5932,0.0103,-0.0522,7.4128,0.001,-0.0374,6.3232,-0.0045,1.1361
112879,-106.7317,0.6921,-0.0104,-0.1086,-89.596,0.0061,-0.0579,8.1193,0.0006,-0.0585,7.2721,-0.0046,-0.6214
112895,-106.7317,0.6921,-0.0104,-0.1086,-89.596,0.0061,-0.0579,8.1193,0.0006,-0.0585,7.2721,-0.0046,-0.6214
112911,-106.7317,0.6921,-0.0104,-0.1086,-89.596,0.0061,-0.0579,8.1193,0.0006,-0.0585,7.2721,-0.0046,-0.6214
112927,-106.7317,0.6921,-0.0104,-0.1086,-89.596,0.0061,-0.0579,8.1193,0.0006,-0.0585,7.2721,-0.0046,-0.6214
112943,-106.7317,0.6921,-0.0104,-0.1086,-89.596,0.0061,-0.0579,8.1193,0.0006,-0.0585,7.2721,-0.0046,-0.6214
112959,-106.7317,0.6921,-0.0104,-0.1086,-89.596,0.0061,-0.0579,8.1193,0.0006,-0.0585,7.2721,-0.0046,-0.6214
112975,-106.7377,1.535,-0.0104,-0.1072,-89.5915,0.0035,-0.0618,8.7104,0.0003,-0.0365,5.5555,-0.0028,0.6384
112991,-106.7377,1.535,-0.0104,-0.1072,-89.5915,0.0035,-0.0618,8.7104,0.0003,-0.0365,5.5555,-0.0028,0.6384
113007,-106.7377,1.535,-0.0104,-0.1072,-89.5915,0.0035,-0.0618,8.7104,0.0003,-0.0365,5.5555,-0.0028,0.6384
113023,-106.7377,1.535,-0.0104,-0.1072,-89.5915,0.0035,-0.0618,8.7104,0.0003,-0.0365,5.5555,-0.0028,0.6384
113039,-106.7377,1.535,-0.0104,-0.1072,-89.5915,0.0035,-0.0618,8.7104,0.0003,-0.0365,5.5555,-0.0028,0.6384
113055,-106.7377,1.535,-0.0104,-0.1072,-89.5915,0.0035,-0.0618,8.7104,0.0003,-0.0365,5.5555,-0.0028,0.6384
113077,-106.744,2.4344,-0.0104,-0.1011,-89.5938,0.002,-0.0659,9.2591,0.0002,-0.0386,5.0863,-0.0011,-0.2778
113087,-106.744,2.4344,-0.0104,-0.1011,-89.5938,0.002,-0.0659,9.2591,0.0002,-0.0386,5.0863,-0.0011,-0.2778
113103,-106.744,2.4344,-0.0104,-0.1011,-89.5938,0.002,-0.0659,9.2591,0.0002,-0.0386,5.0863,-0.0011,-0.2778
113119,-106.744,2.4344,-0.0104,-0.1011,-89.5938,0.002,-0.0659,9.2591,0.0002,-0.0386,5.0863,-0.0011,-0.2778
113135,-106.744,2.4344,-0.0104,-0.1011,-89.5938,0.002,-0.0659,9.2591,0.0002,-0.0386,5.0863,-0.0011,-0.2778
113151,-106.744,2.4344,-0.0104,-0.1011,-89.5938,0.002,-0.0659,9.2591,0.0002,-0.0386,5.0863,-0.0011,-0.2778
113172,-106.7508,3.3869,-0.0105,-0.0949,-89.593,0.0012,-0.0694,9.7709,0.0001,-0.0345,5.0023,-0.001,0.038
113183,-106.7508,3.3869,-0.0105,-0.0949,-89.593,0.0012,-0.0694,9.7709,0.0001,-0.0345,5.0023,-0.001,0.038
113199,-106.7508,3.3869,-0.0105,-0.0949,-89.593,0.0012,-0.0694,9.7709,0.0001,-0.0345,5.0023,-0.001,0.038
113215,-106.7508,3.3869,-0.0105,-0.0949,-89.593,0.0012,-0.0694,9.7709,0.0001,-0.0345,5.0023,-0.001,0.038
113231,-106.7508,3.3869,-0.0105,-0.0949,-89.593,0.0012,-0.0694,9.7709,0.0001,-0.0345,5.0023,-0.001,0.038
113247,-106.7508,3.3869,-0.0105,-0.0949,-89.593,0.0012,-0.0694,9.7709,0.0001,-0.0345,5.0023,-0.001,0.038
113263,-106.7508,3.3869,-0.0105,-0.0949,-89.593,0.0012,-0.0694,9.7709,0.0001,-0.0345,5.0023,-0.001,0.038
113283,-106.7579,4.39,-0.0105,-0.0899,-89.5931,0.0007,-0.073,10.2677,0.0,-0.0326,4.5959,-0.0002,-0.0003
113295,-106.7579,4.39,-0.0105,-0.0899,-89.5931,0.0007,-0.073,10.2677,0.0,-0.0326,4.5959,-0.0002,-0.0003
113311,-106.7579,4.39,-0.0105,-0.0899,-89.5931,0.0007,-0.073,10.2677,0.0,-0.0326,4.5959,-0.0002,-0.0003
113327,-106.7579,4.39,-0.0105,-0.0899,-89.5931,0.0007,-0.073,10.2677,0.0,-0.0326,4.5959,-0.0002,-0.0003
113343,-106.7579,4.39,-0.0105,-0.0899,-89.5931,0.0007,-0.073,10.2677,0.0,-0.0326,4.5959,-0.0002,-0.0003
113359,-106.7579,4.39,-0.0105,-0.0899,-89.5931,0.0007,-0.073,10.2677,0.0,-0.0326,4.5959,-0.0002,-0.0003
113375,-106.7579,4.39,-0.0105,-0.0899,-89.5931,0.0007,-0.073,10.2677,0.0,-0.0326,4.5959,-0.0002,-0.0003
113391,-106.7654,5.4418,-0.0105,-0.0854,-89.593,0.0003,-0.0763,10.7355,0.0,-0.0317,4.4875,-0.0003,0.0001
113407,-106.7654,5.4418,-0.0105,-0.0854,-89.593,0.0003,-0.0763,10.7355,0.0,-0.0317,4.4875,-0.0003,0.0001
113423,-106.7654,5.4418,-0.0105,-0.0854,-89.593,0.0003,-0.0763,10.7355,0.0,-0.0317,4.4875,-0.0003,0.0001
113439,-106.7654,5.4418,-0.0105,-0.0854,-89.593,0.0003,-0.0763,10.7355,0.0,-0.0317,4.4875,-0.0003,0.0001
113455,-106.7654,5.4418,-0.0105,-0.0854,-89.593,0.0003,-0.0763,10.7355,0.0,-0.0317,4.4875,-0.0003,0.0001
113471,-106.7654,5.4418,-0.0105,-0.0854,-89.593,0.0003,-0.0763,10.7355,0.0,-0.0317,4.4875,-0.0003,0.0001
113492,-106.7732,6.536,-0.0106,-0.08,-89.5931,0.0002,-0.0793,11.16,0.0,-0.0301,4.253,-0.0,-0.0001
113503,-106.7732,6.536,-0.0106,-0.08,-89.5931,0.0002,-0.0793,11.16,0.0,-0.0301,4.253,-0.0,-0.0001
113519,-106.7732,6.536,-0.0106,-0.08,-89.5931,0.0002,-0.0793,11.16,0.0,-0.0301,4.253,-0.0,-0.0001
113535,-106.7732,6.536,-0.0106,-0.08,-89.5931,0.0002,-0.0793,11.16,0.0,-0.0301,4.253,-0.0,-0.0001
113551,-106.7732,6.536,-0.0106,-0.08,-89.5931,0.0002,-0.0793,11.16,0.0,-0.0301,4.253,-0.0,-0.0001
113567,-106.7732,6.536,-0.0106,-0.08,-89.5931,0.0002,-0.0793,11.16,0.0,-0.0301,4.253,-0.0,-0.0001
113587,-106.7812,7.673,-0.0106,-0.0743,-89.593,0.0001,-0.082,11.5509,0.0,-0.0272,3.8424,-0.0,-0.0
113599,-106.7812,7.673,-0.0106,-0.0743,-89.593,0.0001,-0.082,11.5509,0.0,-0.0272,3.8424,-0.0,-0.0
113631,-106.7812,7.673,-0.0106,-0.0743,-89.593,0.0001,-0.082,11.5509,0.0,-0.0272,3.8424,-0.0,-0.0
113647,-106.7812,7.673,-0.0106,-0.0743,-89.593,0.0001,-0.082,11.5509,0.0,-0.0272,3.8424,-0.0,-0.0
113663,-106.7812,7.673,-0.0106,-0.0743,-89.593,0.0001,-0.082,11.5509,0.0,-0.0272,3.8424,-0.0,-0.0
113679,-106.7812,7.673,-0.0106,-0.0743,-89.593,0.0001,-0.082,11.5509,0.0,-0.0272,3.8424,-0.0,-0.0
113695,-106.8194,8.8388,-0.0107,-0.0593,-90.9974,0.1245,-0.9166,11.7033,0.001,-8.3515,1.5252,0.0099,-30.7039
113711,-106.8194,8.8388,-0.0107,-0.0593,-90.9974,0.1245,-0.9166,11.7033,0.001,-8.3515,1.5252,0.0099,-30.7039
113727,-106.8194,8.8388,-0.0107,-0.0593,-90.9974,0.1245,-0.9166,11.7033,0.001,-8.3515,1.5252,0.0099,-30.7039
113743,-106.8194,8.8388,-0.0107,-0.0593,-90.9974,0.1245,-0.9166,11.7033,0.001,-8.3515,1.5252,0.0099,-30.7039
113759,-106.8194,8.8388,-0.0107,-0.0593,-90.9974,0.1245,-0.9166,11.7033,0.001,-8.3515,1.5252,0.0099,-30.7039
113775,-106.8194,8.8388,-0.0107,-0.0593,-90.9974,0.1245,-0.9166,11.7033,0.001,-8.3515,1.5252,0.0099,-30.7039
113791,-106.924,9.9994,-0.0108,-0.0221,-96.6569,0.2593,-1.8548,11.5459,0.0011,-9.2084,-1.5452,0.0006,-80.1059
113807,-106.924,9.9994,-0.0108,-0.0221,-96.6569,0.2593,-1.8548,11.5459,0.0011,-9.2084,-1.5452,0.0006,-80.1059
113823,-106.924,9.9994,-0.0108,-0.0221,-96.6569,0.2593,-1.8548,11.5459,0.0011,-9.2084,-1.5452,0.0006,-80.1059
113839,-106.924,9.9994,-0.0108,-0.0221,-96.6569,0.2593,-1.8548,11.5459,0.0011,-9.2084,-1.5452,0.0006,-80.1059
113855,-106.924,9.9994,-0.0108,-0.0221,-96.6569,0.2593,-1.8548,11.5459,0.0011,-9.2084,-1.5452,0.0006,-80.1059
113871,-106.924,9.9994,-0.0108,-0.0221,-96.6569,0.2593,-1.8548,11.5459,0.0011,-9.2084,-1.5452,0.0006,-80.1059
113892,-107.0586,11.1197,-0.011,0.0089,-107.5675,0.2538,-2.2872,11.3439,-0.0001,-4.3476,-2.0313,-0.0115,-135.2656
113903,-107.0586,11.1197,-0.011,0.0089,-107.5675,0.2538,-2.2872,11.3439,-0.0001,-4.3476,-2.0313,-0.0115,-135.2656
113919,-107.0586,11.1197,-0.011,0.0089,-107.5675,0.2538,-2.2872,11.3439,-0.0001,-4.3476,-2.0313,-0.0115,-135.2656
113935,-107.0586,11.1197,-0.011,0.0089,-107.5675,0.2538,-2.2872,11.3439,-0.0001,-4.3476,-2.0313,-0.0115,-135.2656
113951,-107.0586,11.1197,-0.011,0.0089,-107.5675,0.2538,-2.2872,11.3439,-0.0001,-4.3476,-2.0313,-0.0115,-135.2656
113967,-107.0586,11.1197,-0.011,0.0089,-107.5675,0.2538,-2.2872,11.3439,-0.0001,-4.3476,-2.0313,-0.0115,-135.2656
113983,-107.0586,11.1197,-0.011,0.0089,-107.5675,0.2538,-2.2872,11.3439,-0.0001,-4.3476,-2.0313,-0.0115,-135.2656
113999,-107.1631,12.1982,-0.011,-0.0065,-123.8914,0.1035,-1.8039,11.3204,-0.0012,4.7183,-0.2293,-0.011,-183.5623
114015,-107.1631,12.1982,-0.011,-0.0065,-123.8914,0.1035,-1.8039,11.3204,-0.0012,4.7183,-0.2293,-0.011,-183.5623
114031,-107.1631,12.1982,-0.011,-0.0065,-123.8914,0.1035,-1.8039,11.3204,-0.0012,4.7183,-0.2293,-0.011,-183.5623
114047,-107.1631,12.1982,-0.011,-0.0065,-123.8914,0.1035,-1.8039,11.3204,-0.0012,4.7183,-0.2293,-0.011,-183.5623
114063,-107.1631,12.1982,-0.011,-0.0065,-123.8914,0.1035,-1.8039,11.3204,-0.0012,4.7183,-0.2293,-0.011,-183.5623
114079,-107.1631,12.1982,-0.011,-0.0065,-123.8914,0.1035,-1.8039,11.3204,-0.0012,4.7183,-0.2293,-0.011,-183.5623
114095,-107.1631,12.1982,-0.011,-0.0065,-123.8914,0.1035,-1.8039,11.3204,-0.0012,4.7183,-0.2293,-0.011,-183.5623
114111,-107.1421,13.2329,-0.0103,-0.1042,-143.4811,-0.1677,0.0756,11.2972,0.001,17.1987,-0.2124,0.0205,-203.7839
114127,-107.1421,13.2329,-0.0103,-0.1042,-143.4811,-0.1677,0.0756,11.2972,0.001,17.1987,-0.2124,0.0205,-203.7839
114143,-107.1421,13.2329,-0.0103,-0.1042,-143.4811,-0.1677,0.0756,11.2972,0.001,17.1987,-0.2124,0.0205,-203.7839
114159,-107.1421,13.2329,-0.0103,-0.1042,-143.4811,-0.1677,0.0756,11.2972,0.001,17.1987,-0.2124,0.0205,-203.7839
114175,-107.1421,13.2329,-0.0103,-0.1042,-143.4811,-0.1677,0.0756,11.2972,0.001,17.1987,-0.2124,0.0205,-203.7839
114191,-107.1421,13.2329,-0.0103,-0.1042,-143.4811,-0.1677,0.0756,11.2972,0.001,17.1987,-0.2124,0.0205,-203.7839
114207,-106.9411,14.1851,-0.0093,-0.2144,-164.2743,-0.4084,2.3867,10.5829,0.002,23.2621,-7.1889,0.0101,-213.075
114239,-106.9411,14.1851,-0.0093,-0.2144,-164.2743,-0.4084,2.3867,10.5829,0.002,23.2621,-7.1889,0.0101,-213.075
114255,-106.9411,14.1851,-0.0093,-0.2144,-164.2743,-0.4084,2.3867,10.5829,0.002,23.2621,-7.1889,0.0101,-213.075
114271,-106.9411,14.1851,-0.0093,-0.2144,-164.2743,-0.4084,2.3867,10.5829,0.002,23.2621,-7.1889,0.0101,-213.075
114287,-106.9411,14.1851,-0.0093,-0.2144,-164.2743,-0.4084,2.3867,10.5829,0.002,23.2621,-7.1889,0.0101,-213.075
114303,-106.6118,14.9524,-0.0087,-0.2661,175.1144,-0.6548,3.7751,8.5139,0.0023,14.4175,-21.4851,0.0025,-213.3812
114319,-106.6118,14.9524,-0.0087,-0.2661,175.1144,-0.6548,3.7751,8.5139,0.0023,14.4175,-21.4851,0.0025,-213.3812
114335,-106.6118,14.9524,-0.0087,-0.2661,175.1144,-0.6548,3.7751,8.5139,0.0023,14.4175,-21.4851,0.0025,-213.3812
114351,-106.6118,14.9524,-0.0087,-0.2661,175.1144,-0.6548,3.7751,8.5139,0.0023,14.4175,-21.4851,0.0025,-213.3812
114367,-106.6118,14.9524,-0.0087,-0.2661,175.1144,-0.6548,3.7751,8.5139,0.0023,14.4175,-21.4851,0.0025,-213.3812
114383,-106.6118,14.9524,-0.0087,-0.2661,175.1144,-0.6548,3.7751,8.5139,0.0023,14.4175,-21.4851,0.0025,-213.3812
114406,-106.3151,15.536,-0.0092,-0.1954,155.0663,-0.8628,2.6245,6.3989,-0.0032,-11.3617,-20.885,-0.0542,-187.7878
114415,-106.3151,15.536,-0.0092,-0.1954,155.0663,-0.8628,2.6245,6.3989,-0.0032,-11.3617,-20.885,-0.0542,-187.7878
114431,-106.3151,15.536,-0.0092,-0.1954,155.0663,-0.8628,2.6245,6.3989,-0.0032,-11.3617,-20.885,-0.0542,-187.7878
114447,-106.3151,15.536,-0.0092,-0.1954,155.0663,-0.8628,2.6245,6.3989,-0.0032,-11.3617,-20.885,-0.0542,-187.7878
114463,-106.3151,15.536,-0.0092,-0.1954,155.0663,-0.8628,2.6245,6.3989,-0.0032,-11.3617,-20.885,-0.0542,-187.7878
114479,-106.3151,15.536,-0.0092,-0.1954,155.0663,-0.8628,2.6245,6.3989,-0.0032,-11.3617,-20.885,-0.0542,-187.7878
114495,-106.3151,15.536,-0.0092,-0.1954,155.0663,-0.8628,2.6245,6.3989,-0.0032,-11.3617,-20.885,-0.0542,-187.7878
114511,-106.2469,16.0193,-0.0102,-0.0355,138.1843,-0.9296,0.3083,5.7603,0.0013,-21.2613,-5.8621,0.0417,-145.704
114527,-106.2469,16.0193,-0.0102,-0.0355,138.1843,-0.9296,0.3083,5.7603,0.0013,-21.2613,-5.8621,0.0417,-145.704
114543,-106.2469,16.0193,-0.0102,-0.0355,138.1843,-0.9296,0.3083,5.7603,0.0013,-21.2613,-5.8621,0.0417,-145.704
114559,-106.2469,16.0193,-0.0102,-0.0355,138.1843,-0.9296,0.3083,5.7603,0.0013,-21.2613,-5.8621,0.0417,-145.704
114575,-106.2469,16.0193,-0.0102,-0.0355,138.1843,-0.9296,0.3083,5.7603,0.0013,-21.2613,-5.8621,0.0417,-145.704
114591,-106.2469,16.0193,-0.0102,-0.0355,138.1843,-0.9296,0.3083,5.7603,0.0013,-21.2613,-5.8621,0.0417,-145.704
114607,-106.3998,16.5746,-0.0115,0.1373,126.7277,-0.769,-1.7149,6.6963,-0.001,-20.6321,9.5456,-0.0239,-96.104
114623,-106.3998,16.5746,-0.0115,0.1373,126.7277,-0.769,-1.7149,6.6963,-0.001,-20.6321,9.5456,-0.0239,-96.104
114639,-106.3998,16.5746,-0.0115,0.1373,126.7277,-0.769,-1.7149,6.6963,-0.001,-20.6321,9.5456,-0.0239,-96.104
114655,-106.3998,16.5746,-0.0115,0.1373,126.7277,-0.769,-1.7149,6.6963,-0.001,-20.6321,9.5456,-0.0239,-96.104
114671,-106.3998,16.5746,-0.0115,0.1373,126.7277,-0.769,-1.7149,6.6963,-0.001,-20.6321,9.5456,-0.0239,-96.104
114687,-106.3998,16.5746,-0.0115,0.1373,126.7277,-0.769,-1.7149,6.6963,-0.001,-20.6321,9.5456,-0.0239,-96.104
114709,-106.6424,17.2694,-0.0121,0.1982,118.0403,-0.4115,-1.8148,7.697,-0.0027,-1.001,10.0256,-0.0169,-82.7164
114719,-106.6424,17.2694,-0.0121,0.1982,118.0403,-0.4115,-1.8148,7.697,-0.0027,-1.001,10.0256,-0.0169,-82.7164
114751,-106.6424,17.2694,-0.0121,0.1982,118.0403,-0.4115,-1.8148,7.697,-0.0027,-1.001,10.0256,-0.0169,-82.7164
114767,-106.6424,17.2694,-0.0121,0.1982,118.0403,-0.4115,-1.8148,7.697,-0.0027,-1.001,10.0256,-0.0169,-82.7164
114783,-106.6424,17.2694,-0.0121,0.1982,118.0403,-0.4115,-1.8148,7.697,-0.0027,-1.001,10.0256,-0.0169,-82.7164
114803,-106.8741,18.012,-0.0123,0.1834,111.8537,-0.2506,-2.3826,8.1276,-0.0019,-5.9741,4.5307,0.0085,-41.6432
114815,-106.8741,18.012,-0.0123,0.1834,111.8537,-0.2506,-2.3826,8.1276,-0.0019,-5.9741,4.5307,0.0085,-41.6432
114831,-106.8741,18.012,-0.0123,0.1834,111.8537,-0.2506,-2.3826,8.1276,-0.0019,-5.9741,4.5307,0.0085,-41.6432
114847,-106.8741,18.012,-0.0123,0.1834,111.8537,-0.2506,-2.3826,8.1276,-0.0019,-5.9741,4.5307,0.0085,-41.6432
114863,-106.8741,18.012,-0.0123,0.1834,111.8537,-0.2506,-2.3826,8.1276,-0.0019,-5.9741,4.5307,0.0085,-41.6432
114879,-106.8741,18.012,-0.0123,0.1834,111.8537,-0.2506,-2.3826,8.1276,-0.0019,-5.9741,4.5307,0.0085,-41.6432
114901,-107.1387,18.7609,-0.012,0.1371,109.857,-0.2462,-2.8686,8.206,-0.0003,-5.2581,0.8484,0.0176,-10.0498
114911,-107.1387,18.7609,-0.012,0.1371,109.857,-0.2462,-2.8686,8.206,-0.0003,-5.2581,0.8484,0.0176,-10.0498
114927,-107.1387,18.7609,-0.012,0.1371,109.857,-0.2462,-2.8686,8.206,-0.0003,-5.2581,0.8484,0.0176,-10.0498
114943,-107.1387,18.7609,-0.012,0.1371,109.857,-0.2462,-2.8686,8.206,-0.0003,-5.2581,0.8484,0.0176,-10.0498
114959,-107.1387,18.7609,-0.012,0.1371,109.857,-0.2462,-2.8686,8.206,-0.0003,-5.2581,0.8484,0.0176,-10.0498
114975,-107.1387,18.7609,-0.012,0.1371,109.857,-0.2462,-2.8686,8.206,-0.0003,-5.2581,0.8484,0.0176,-10.0498
114991,-107.1387,18.7609,-0.012,0.1371,109.857,-0.2462,-2.8686,8.206,-0.0003,-5.2581,0.8484,0.0176,-10.0498
115007,-107.4336,19.5855,-0.0117,0.0889,109.3047,-0.1591,-2.935,8.3071,-0.0006,-0.635,0.9672,-0.0028,-1.8137
115023,-107.4336,19.5855,-0.0117,0.0889,109.3047,-0.1591,-2.935,8.3071,-0.0006,-0.635,0.9672,-0.0028,-1.8137
115039,-107.4336,19.5855,-0.0117,0.0889,109.3047,-0.1591,-2.935,8.3071,-0.0006,-0.635,0.9672,-0.0028,-1.8137
115055,-107.4336,19.5855,-0.0117,0.0889,109.3047,-0.1591,-2.935,8.3071,-0.0006,-0.635,0.9672,-0.0028,-1.8137
115071,-107.4336,19.5855,-0.0117,0.0889,109.3047,-0.1591,-2.935,8.3071,-0.0006,-0.635,0.9672,-0.0028,-1.8137
115087,-107.4336,19.5855,-0.0117,0.0889,109.3047,-0.1591,-2.935,8.3071,-0.0006,-0.635,0.9672,-0.0028,-1.8137
115103,-107.728,20.4212,-0.0115,0.0571,109.1584,-0.088,-2.9431,8.4036,-0.0005,-0.0806,0.9531,0.0005,0.2248
115119,-107.728,20.4212,-0.0115,0.0571,109.1584,-0.088,-2.9431,8.4036,-0.0005,-0.0806,0.9531,0.0005,0.2248
115135,-107.728,20.4212,-0.0115,0.0571,109.1584,-0.088,-2.9431,8.4036,-0.0005,-0.0806,0.9531,0.0005,0.2248
115151,-107.728,20.4212,-0.0115,0.0571,109.1584,-0.088,-2.9431,8.4036,-0.0005,-0.0806,0.9531,0.0005,0.2248
115167,-107.728,20.4212,-0.0115,0.0571,109.1584,-0.088,-2.9431,8.4036,-0.0005,-0.0806,0.9531,0.0005,0.2248
115183,-107.728,20.4212,-0.0115,0.0571,109.1584,-0.088,-2.9431,8.4036,-0.0005,-0.0806,0.9531,0.0005,0.2248
115199,-107.728,20.4212,-0.0115,0.0571,109.1584,-0.088,-2.9431,8.4036,-0.0005,-0.0806,0.9531,0.0005,0.2248
115215,-108.0229,21.2662,-0.0114,0.0381,109.1185,-0.0468,-2.9541,8.4871,-0.0003,-0.1018,0.7778,0.0021,0.7583
115231,-108.0229,21.2662,-0.0114,0.0381,109.1185,-0.0468,-2.9541,8.4871,-0.0003,-0.1018,0.7778,0.0021,0.7583
115247,-108.0229,21.2662,-0.0114,0.0381,109.1185,-0.0468,-2.9541,8.4871,-0.0003,-0.1018,0.7778,0.0021,0.7583
115263,-108.0229,21.2662,-0.0114,0.0381,109.1185,-0.0468,-2.9541,8.4871,-0.0003,-0.1018,0.7778,0.0021,0.7583
115279,-108.0229,21.2662,-0.0114,0.0381,109.1185,-0.0468,-2.9541,8.4871,-0.0003,-0.1018,0.7778,0.0021,0.7583
115295,-108.0229,21.2662,-0.0114,0.0381,109.1185,-0.0468,-2.9541,8.4871,-0.0003,-0.1018,0.7778,0.0021,0.7583
115316,-108.3191,22.119,-0.0113,0.027,109.1073,-0.0248,-2.9712,8.5621,-0.0001,-0.1576,0.6885,0.0016,0.8958
115327,-108.3191,22.119,-0.0113,0.027,109.1073,-0.0248,-2.9712,8.5621,-0.0001,-0.1576,0.6885,0.0016,0.8958
115343,-108.3191,22.119,-0.0113,0.027,109.1073,-0.0248,-2.9712,8.5621,-0.0001,-0.1576,0.6885,0.0016,0.8958
115359,-108.3191,22.119,-0.0113,0.027,109.1073,-0.0248,-2.9712,8.5621,-0.0001,-0.1576,0.6885,0.0016,0.8958
115375,-108.3191,22.119,-0.0113,0.027,109.1073,-0.0248,-2.9712,8.5621,-0.0001,-0.1576,0.6885,0.0016,0.8958
115391,-108.3191,22.119,-0.0113,0.027,109.1073,-0.0248,-2.9712,8.5621,-0.0001,-0.1576,0.6885,0.0016,0.8958
115407,-108.3191,22.119,-0.0113,0.027,109.1073,-0.0248,-2.9712,8.5621,-0.0001,-0.1576,0.6885,0.0016,0.8958
115423,-108.6173,22.9791,-0.0113,0.0206,109.104,-0.0133,-2.9916,8.6321,-0.0,-0.1993,0.6841,0.0008,0.927
115439,-108.6173,22.9791,-0.0113,0.0206,109.104,-0.0133,-2.9916,8.6321,-0.0,-0.1993,0.6841,0.0008,0.927
115455,-108.6173,22.9791,-0.0113,0.0206,109.104,-0.0133,-2.9916,8.6321,-0.0,-0.1993,0.6841,0.0008,0.927
115471,-108.6173,22.9791,-0.0113,0.0206,109.104,-0.0133,-2.9916,8.6321,-0.0,-0.1993,0.6841,0.0008,0.927
115487,-108.6173,22.9791,-0.0113,0.0206,109.104,-0.0133,-2.9916,8.6321,-0.0,-0.1993,0.6841,0.0008,0.927
115503,-108.6173,22.9791,-0.0113,0.0206,109.104,-0.0133,-2.9916,8.6321,-0.0,-0.1993,0.6841,0.0008,0.927
115519,-108.9176,23.846,-0.0113,0.0169,109.103,-0.0073,-3.0132,8.6991,0.0,-0.1974,0.6131,0.0004,0.929
115535,-108.9176,23.846,-0.0113,0.0169,109.103,-0.0073,-3.0132,8.6991,0.0,-0.1974,0.6131,0.0004,0.929
115551,-108.9176,23.846,-0.0113,0.0169,109.103,-0.0073,-3.0132,8.6991,0.0,-0.1974,0.6131,0.0004,0.929
115567,-108.9176,23.846,-0.0113,0.0169,109.103,-0.0073,-3.0132,8.6991,0.0,-0.1974,0.6131,0.0004,0.929
115583,-108.9176,23.846,-0.0113,0.0169,109.103,-0.0073,-3.0132,8.6991,0.0,-0.1974,0.6131,0.0004,0.929
115599,-108.9176,23.846,-0.0113,0.0169,109.103,-0.0073,-3.0132,8.6991,0.0,-0.1974,0.6131,0.0004,0.929
115615,-108.9176,23.846,-0.0113,0.0169,109.103,-0.0073,-3.0132,8.6991,0.0,-0.1974,0.6131,0.0004,0.929
115636,-109.2201,24.7195,-0.0113,0.0147,109.1026,-0.004,-3.035,8.764,-0.0,-0.2,0.5959,-0.0001,0.9226
115647,-109.2201,24.7195,-0.0113,0.0147,109.1026,-0.004,-3.035,8.764,-0.0,-0.2,0.5959,-0.0001,0.9226
115663,-109.2201,24.7195,-0.0113,0.0147,109.1026,-0.004,-3.035,8.764,-0.0,-0.2,0.5959,-0.0001,0.9226
115679,-109.2201,24.7195,-0.0113,0.0147,109.1026,-0.004,-3.035,8.764,-0.0,-0.2,0.5959,-0.0001,0.9226
115695,-109.2201,24.7195,-0.0113,0.0147,109.1026,-0.004,-3.035,8.764,-0.0,-0.2,0.5959,-0.0001,0.9226
115711,-109.2201,24.7195,-0.0113,0.0147,109.1026,-0.004,-3.035,8.764,-0.0,-0.2,0.5959,-0.0001,0.9226
115727,-109.2201,24.7195,-0.0113,0.0147,109.1026,-0.004,-3.035,8.764,-0.0,-0.2,0.5959,-0.0001,0.9226
115743,-109.5248,25.5993,-0.0113,0.0134,109.1025,-0.0022,-3.0565,8.8272,0.0,-0.2105,0.6162,0.0,0.9144
115759,-109.5248,25.5993,-0.0113,0.0134,109.1025,-0.0022,-3.0565,8.8272,0.0,-0.2105,0.6162,0.0,0.9144
115775,-109.5248,25.5993,-0.0113,0.0134,109.1025,-0.0022,-3.0565,8.8272,0.0,-0.2105,0.6162,0.0,0.9144
115791,-109.5248,25.5993,-0.0113,0.0134,109.1025,-0.0022,-3.0565,8.8272,0.0,-0.2105,0.6162,0.0,0.9144
115807,-109.5248,25.5993,-0.0113,0.0134,109.1025,-0.0022,-3.0565,8.8272,0.0,-0.2105,0.6162,0.0,0.9144
115823,-109.5248,25.5993,-0.0113,0.0134,109.1025,-0.0022,-3.0565,8.8272,0.0,-0.2105,0.6162,0.0,0.9144
115844,-109.8316,26.4855,-0.0112,0.0126,109.1024,-0.0013,-3.0778,8.8888,0.0,-0.2091,0.6078,0.0,0.9053
115855,-109.8316,26.4855,-0.0112,0.0126,109.1024,-0.0013,-3.0778,8.8888,0.0,-0.2091,0.6078,0.0,0.9053
115871,-109.8316,26.4855,-0.0112,0.0126,109.1024,-0.0013,-3.0778,8.8888,0.0,-0.2091,0.6078,0.0,0.9053
115887,-109.8316,26.4855,-0.0112,0.0126,109.1024,-0.0013,-3.0778,8.8888,0.0,-0.2091,0.6078,0.0,0.9053
115903,-109.8316,26.4855,-0.0112,0.0126,109.1024,-0.0013,-3.0778,8.8888,0.0,-0.2091,0.6078,0.0,0.9053
115919,-109.8316,26.4855,-0.0112,0.0126,109.1024,-0.0013,-3.0778,8.8888,0.0,-0.2091,0.6078,0.0,0.9053
