timestamp,x,y,z,pitch,yaw,roll,vx,vy,vz,ax,ay,az,yaw_rate
23889,-106.6867,-4.8475,0.4756,0.0,-89.3578,0.0,0.0,0.0,-1.5093,0.0,0.0,-9.8,0.0
23905,-106.6867,-4.8475,0.4756,0.0,-89.3578,0.0,0.0,0.0,-1.5093,0.0,0.0,-9.8,0.0
23921,-106.6867,-4.8475,0.4293,0.0,-89.3578,0.0,0.0,0.0,-1.7783,0.0,0.0,-9.8,0.0
23937,-106.6867,-4.8475,0.4293,0.0,-89.3578,0.0,0.0,0.0,-1.7783,0.0,0.0,-9.8,0.0
23953,-106.6867,-4.8475,0.3732,0.0,-89.3578,0.0,0.0,0.0,-2.0578,0.0,0.0,-9.8,0.0
23972,-106.6867,-4.8475,0.2982,0.0,-89.3578,0.0,0.0,0.0,-2.383,0.0,0.0,-9.8,0.0
23985,-106.6867,-4.8475,0.2982,0.0,-89.3578,0.0,0.0,0.0,-2.383,0.0,0.0,-9.8,0.0
24001,-106.6867,-4.8475,0.2982,0.0,-89.3578,0.0,0.0,0.0,-2.383,0.0,0.0,-9.8,0.0
24032,-106.6867,-4.8475,0.1924,0.0,-89.3578,0.0,0.0,0.0,-2.7788,0.0,0.0,-9.8,0.0
24036,-106.6867,-4.8475,0.1924,0.0,-89.3578,0.0,0.0,0.0,-2.7788,0.0,0.0,-9.8,0.0
24052,-106.6867,-4.8475,0.1924,0.0,-89.3578,0.0,0.0,0.0,-2.7788,0.0,0.0,-9.8,0.0
24075,-106.6867,-4.8467,0.0421,-0.0012,-89.3578,0.0,-0.0008,0.0712,-3.0002,-0.016,1.4294,-4.4454,-0.0
24085,-106.6867,-4.8467,0.0421,-0.0012,-89.3578,0.0,-0.0008,0.0712,-3.0002,-0.016,1.4294,-4.4454,-0.0
24107,-106.6868,-4.8441,-0.0306,-0.0035,-89.3578,0.0,-0.0006,0.0533,-1.575,0.0056,-0.5023,40.1106,0.0
24117,-106.6868,-4.8441,-0.0306,-0.0035,-89.3578,0.0,-0.0006,0.0533,-1.575,0.0056,-0.5023,40.1106,0.0
24133,-106.6868,-4.8441,-0.0306,-0.0035,-89.3578,0.0,-0.0006,0.0533,-1.575,0.0056,-0.5023,40.1106,0.0
24165,-106.6868,-4.8417,-0.0675,-0.0038,-89.3578,0.0,-0.0005,0.045,-0.7032,0.0025,-0.2234,23.5114,0.0
24181,-106.6868,-4.8386,-0.082,-0.0041,-89.3578,0.0,-0.001,0.091,-0.1519,-0.0122,1.0831,13.0077,-0.0001
24197,-106.6868,-4.8386,-0.082,-0.0041,-89.3578,0.0,-0.001,0.091,-0.1519,-0.0122,1.0831,13.0077,-0.0001
24213,-106.6869,-4.8331,-0.0823,-0.0088,-89.3578,0.0,-0.0031,0.2719,0.0465,-0.0714,6.3628,6.9767,0.0009
24229,-106.6869,-4.8331,-0.0823,-0.0088,-89.3578,0.0,-0.0031,0.2719,0.0465,-0.0714,6.3628,6.9767,0.0009
24253,-106.6871,-4.8161,-0.0773,-0.0236,-89.3505,0.0,-0.0067,0.6073,0.1803,-0.1024,9.5155,3.7967,0.8194
24261,-106.6871,-4.8161,-0.0773,-0.0236,-89.3505,0.0,-0.0067,0.6073,0.1803,-0.1024,9.5155,3.7967,0.8194
24283,-106.6872,-4.7948,-0.0707,-0.0367,-89.3772,-0.0001,-0.0079,0.7619,0.2303,-0.0407,5.1911,1.6776,-1.2082
24294,-106.6872,-4.7948,-0.0707,-0.0367,-89.3772,-0.0001,-0.0079,0.7619,0.2303,-0.0407,5.1911,1.6776,-1.2082
24310,-106.6875,-4.7645,-0.0623,-0.0478,-89.3772,0.0,-0.0108,0.9694,0.2455,-0.0836,5.9951,0.441,0.1836
24326,-106.6875,-4.7645,-0.0623,-0.0478,-89.3772,0.0,-0.0108,0.9694,0.2455,-0.0836,5.9951,0.441,0.1836
24342,-106.688,-4.7306,-0.0541,-0.0567,-89.3648,0.0001,-0.0136,1.1431,0.2611,-0.0898,5.4552,0.4879,0.2861
24358,-106.688,-4.7306,-0.0541,-0.0567,-89.3648,0.0001,-0.0136,1.1431,0.2611,-0.0898,5.4552,0.4879,0.2861
24378,-106.6885,-4.6942,-0.0461,-0.057,-89.358,0.0002,-0.0135,1.133,0.2264,0.0038,-0.3064,-1.0434,0.1654
24392,-106.6885,-4.6942,-0.0461,-0.057,-89.358,0.0002,-0.0135,1.133,0.2264,0.0038,-0.3064,-1.0434,0.1654
24409,-106.6889,-4.6596,-0.0397,-0.052,-89.3542,0.0002,-0.0134,1.1273,0.1909,0.0036,-0.178,-1.1155,0.099
24425,-106.6889,-4.6596,-0.0397,-0.052,-89.3542,0.0002,-0.0134,1.1273,0.1909,0.0036,-0.178,-1.1155,0.099
24441,-106.6894,-4.6239,-0.0341,-0.0451,-89.3518,0.0002,-0.0132,1.1286,0.1593,0.0044,0.0386,-0.9641,0.0305
24457,-106.6894,-4.6239,-0.0341,-0.0451,-89.3518,0.0002,-0.0132,1.1286,0.1593,0.0044,0.0386,-0.9641,0.0305
24473,-106.6894,-4.6239,-0.0341,-0.0451,-89.3518,0.0002,-0.0132,1.1286,0.1593,0.0044,0.0386,-0.9641,0.0305
24492,-106.69,-4.569,-0.0274,-0.0341,-89.351,0.0001,-0.0128,1.1169,0.1168,0.0082,-0.2302,-0.8353,0.0045
24505,-106.69,-4.569,-0.0274,-0.0341,-89.351,0.0001,-0.0128,1.1169,0.1168,0.0082,-0.2302,-0.8353,0.0045
24521,-106.6905,-4.541,-0.0248,-0.0312,-89.3231,0.0003,-0.0166,1.1427,0.0991,-0.1499,1.0337,-0.7074,1.2802
24537,-106.6905,-4.541,-0.0248,-0.0312,-89.3231,0.0003,-0.0166,1.1427,0.0991,-0.1499,1.0337,-0.7074,1.2802
24558,-106.6911,-4.4939,-0.0218,-0.0392,-89.3277,0.0002,-0.0176,1.4397,0.0792,-0.029,8.6952,-0.5822,-1.7113
24581,-106.6914,-4.4544,-0.0199,-0.0445,-89.3381,-0.0004,-0.015,1.619,0.0665,0.0991,6.9109,-0.4894,0.399
24592,-106.6914,-4.4544,-0.0199,-0.0445,-89.3381,-0.0004,-0.015,1.619,0.0665,0.0991,6.9109,-0.4894,0.399
24611,-106.6918,-4.392,-0.0177,-0.0522,-89.357,-0.0009,-0.0128,1.7762,0.0518,0.0593,4.2436,-0.3966,-3.9828
24624,-106.6918,-4.392,-0.0177,-0.0522,-89.357,-0.0009,-0.0128,1.7762,0.0518,0.0593,4.2436,-0.3966,-3.9828
24640,-106.6919,-4.3515,-0.0167,-0.0576,-89.3807,-0.0012,-0.015,1.9805,0.043,-0.101,9.4788,-0.4103,-1.2522
24656,-106.6919,-4.3515,-0.0167,-0.0576,-89.3807,-0.0012,-0.015,1.9805,0.043,-0.101,9.4788,-0.4103,-1.2522
24682,-106.6926,-4.2617,-0.015,-0.0677,-89.4155,-0.0006,-0.0227,2.1858,0.0327,-0.1808,4.79,-0.2395,-0.0008
24690,-106.6926,-4.2617,-0.015,-0.0677,-89.4155,-0.0006,-0.0227,2.1858,0.0327,-0.1808,4.79,-0.2395,-0.0008
24714,-106.6933,-4.188,-0.0141,-0.0673,-89.417,-0.0003,-0.0236,2.2803,0.0257,-0.0257,2.7999,-0.2092,-1.5339
24722,-106.6933,-4.188,-0.0141,-0.0673,-89.417,-0.0003,-0.0236,2.2803,0.0257,-0.0257,2.7999,-0.2092,-1.5339
24751,-106.6944,-4.1144,-0.0134,-0.0653,-89.3791,-0.0001,-0.025,2.3871,0.0203,-0.0427,3.3004,-0.1668,2.3722
24754,-106.6944,-4.1144,-0.0134,-0.0653,-89.3791,-0.0001,-0.025,2.3871,0.0203,-0.0427,3.3004,-0.1668,2.3722
24774,-106.6951,-4.0421,-0.0129,-0.0651,-89.3844,0.0001,-0.0275,2.5256,0.0162,-0.0854,4.6162,-0.1345,-1.4207
24786,-106.6951,-4.0421,-0.0129,-0.0651,-89.3844,0.0001,-0.0275,2.5256,0.0162,-0.0854,4.6162,-0.1345,-1.4207
24808,-106.6961,-3.9689,-0.0124,-0.0653,-89.3543,0.0003,-0.0302,2.578,0.0137,-0.0916,1.8219,-0.0892,1.7043
24818,-106.6961,-3.9689,-0.0124,-0.0653,-89.3543,0.0003,-0.0302,2.578,0.0137,-0.0916,1.8219,-0.0892,1.7043
24843,-106.697,-3.8703,-0.012,-0.077,-89.387,0.0003,-0.0343,3.0418,0.0104,-0.12,13.6419,-0.0954,-3.4353
24850,-106.697,-3.8703,-0.012,-0.077,-89.387,0.0003,-0.0343,3.0418,0.0104,-0.12,13.6419,-0.0954,-3.4353
24870,-106.6988,-3.7557,-0.0116,-0.0867,-89.3343,0.0009,-0.0393,3.2902,0.008,-0.1399,6.8846,-0.0656,1.9822
24882,-106.6988,-3.7557,-0.0116,-0.0867,-89.3343,0.0009,-0.0393,3.2902,0.008,-0.1399,6.8846,-0.0656,1.9822
24916,-106.6998,-3.6804,-0.0114,-0.0869,-89.3289,0.0009,-0.0396,3.2952,0.0066,-0.0147,0.2189,-0.061,0.3542
24923,-106.6998,-3.6804,-0.0114,-0.0869,-89.3289,0.0009,-0.0396,3.2952,0.0066,-0.0147,0.2189,-0.061,0.3542
24944,-106.7014,-3.5408,-0.0112,-0.0874,-89.3314,0.0007,-0.0434,3.5592,0.005,-0.0915,6.5192,-0.0401,-0.9858
24955,-106.7014,-3.5408,-0.0112,-0.0874,-89.3314,0.0007,-0.0434,3.5592,0.005,-0.0915,6.5192,-0.0401,-0.9858
24971,-106.7027,-3.4479,-0.0111,-0.0854,-89.3027,0.0008,-0.0443,3.5963,0.0041,-0.0383,1.4276,-0.0333,1.3522
24990,-106.7044,-3.3222,-0.011,-0.0854,-89.2852,0.001,-0.0483,3.8171,0.0033,-0.1188,6.5904,-0.0265,0.9221
25003,-106.7044,-3.3222,-0.011,-0.0854,-89.2852,0.001,-0.0483,3.8171,0.0033,-0.1188,6.5904,-0.0265,0.9221
25019,-106.7044,-3.3222,-0.011,-0.0854,-89.2852,0.001,-0.0483,3.8171,0.0033,-0.1188,6.5904,-0.0265,0.9221
25035,-106.7071,-3.1454,-0.0108,-0.0867,-89.2364,0.0014,-0.0541,4.1293,0.0024,-0.1298,7.0397,-0.02,1.2655
25051,-106.7071,-3.1454,-0.0108,-0.0867,-89.2364,0.0014,-0.0541,4.1293,0.0024,-0.1298,7.0397,-0.02,1.2655
25067,-106.7071,-3.1454,-0.0108,-0.0867,-89.2364,0.0014,-0.0541,4.1293,0.0024,-0.1298,7.0397,-0.02,1.2655
25083,-106.7093,-2.9941,-0.0107,-0.0892,-89.2104,0.0016,-0.0582,4.3553,0.0018,-0.1142,6.3315,-0.0154,1.8986
25102,-106.7109,-2.8729,-0.0107,-0.088,-89.2147,0.0016,-0.06,4.3644,0.0015,-0.0669,0.3307,-0.0124,0.0988
25115,-106.7109,-2.8729,-0.0107,-0.088,-89.2147,0.0016,-0.06,4.3644,0.0015,-0.0669,0.3307,-0.0124,0.0988
25132,-106.7126,-2.761,-0.0107,-0.0892,-89.1987,0.0018,-0.0657,4.6332,0.0012,-0.2291,10.9235,-0.0108,-0.8691
25147,-106.7126,-2.761,-0.0107,-0.0892,-89.1987,0.0018,-0.0657,4.6332,0.0012,-0.2291,10.9235,-0.0108,-0.8691
25168,-106.7153,-2.5806,-0.0106,-0.0894,-89.1833,0.0017,-0.0689,4.8259,0.0009,-0.0836,5.0343,-0.0072,-1.6493
25179,-106.7153,-2.5806,-0.0106,-0.0894,-89.1833,0.0017,-0.0689,4.8259,0.0009,-0.0836,5.0343,-0.0072,-1.6493
25196,-106.7172,-2.4435,-0.0106,-0.0878,-89.1773,0.0015,-0.0688,4.864,0.0008,0.0005,1.3481,-0.0065,-0.2854
25211,-106.7172,-2.4435,-0.0106,-0.0878,-89.1773,0.0015,-0.0688,4.864,0.0008,0.0005,1.3481,-0.0065,-0.2854
25227,-106.7172,-2.4435,-0.0106,-0.0878,-89.1773,0.0015,-0.0688,4.864,0.0008,0.0005,1.3481,-0.0065,-0.2854
25243,-106.72,-2.2299,-0.0106,-0.0919,-89.2089,0.001,-0.0742,5.2877,0.0005,-0.128,10.1658,-0.0056,-1.7003
25259,-106.72,-2.2299,-0.0106,-0.0919,-89.2089,0.001,-0.0742,5.2877,0.0005,-0.128,10.1658,-0.0056,-1.7003
25275,-106.7223,-2.0566,-0.0105,-0.0979,-89.2155,0.0007,-0.0774,5.5783,0.0004,-0.1023,9.1194,-0.0031,-0.8838
25298,-106.7223,-2.0566,-0.0105,-0.0979,-89.2155,0.0007,-0.0774,5.5783,0.0004,-0.1023,9.1194,-0.0031,-0.8838
25307,-106.725,-1.8626,-0.0104,-0.1076,-89.2171,0.0005,-0.0816,5.9354,0.0003,-0.124,10.6494,-0.003,-0.376
25323,-106.725,-1.8626,-0.0104,-0.1076,-89.2171,0.0005,-0.0816,5.9354,0.0003,-0.124,10.6494,-0.003,-0.376
25348,-106.7283,-1.616,-0.0103,-0.1163,-89.2214,0.0002,-0.0851,6.2301,0.0003,-0.0866,7.3121,-0.0016,-0.2583
25355,-106.7283,-1.616,-0.0103,-0.1163,-89.2214,0.0002,-0.0851,6.2301,0.0003,-0.0866,7.3121,-0.0016,-0.2583
25379,-106.7312,-1.4064,-0.0103,-0.1199,-89.2233,0.0001,-0.0881,6.4674,0.0002,-0.0937,7.2518,-0.0018,-0.338
25387,-106.7312,-1.4064,-0.0103,-0.1199,-89.2233,0.0001,-0.0881,6.4674,0.0002,-0.0937,7.2518,-0.0018,-0.338
25407,-106.7342,-1.1837,-0.0103,-0.1207,-89.2237,0.0001,-0.0911,6.6931,0.0002,-0.0891,6.7222,-0.0014,-0.3337
25419,-106.7342,-1.1837,-0.0103,-0.1207,-89.2237,0.0001,-0.0911,6.6931,0.0002,-0.0891,6.7222,-0.0014,-0.3337
25435,-106.7363,-1.0324,-0.0103,-0.1211,-89.2199,0.0001,-0.0943,6.9059,0.0001,-0.1425,9.6109,-0.001,-0.2823
25451,-106.7363,-1.0324,-0.0103,-0.1211,-89.2199,0.0001,-0.0943,6.9059,0.0001,-0.1425,9.6109,-0.001,-0.2823
25468,-106.7397,-0.7813,-0.0103,-0.1228,-89.22,0.0,-0.0981,7.1987,0.0001,-0.1065,8.2584,-0.0011,-0.0125
25485,-106.7397,-0.7813,-0.0103,-0.1228,-89.22,0.0,-0.0981,7.1987,0.0001,-0.1065,8.2584,-0.0011,-0.0125
25504,-106.7435,-0.5068,-0.0103,-0.1205,-89.2201,0.0,-0.1006,7.3844,0.0001,-0.0665,4.9408,-0.0007,-0.006
25517,-106.7435,-0.5068,-0.0103,-0.1205,-89.2201,0.0,-0.1006,7.3844,0.0001,-0.0665,4.9408,-0.0007,-0.006
25551,-106.7467,-0.2657,-0.0103,-0.1168,-89.2202,0.0,-0.1033,7.5862,0.0001,-0.0847,6.2622,-0.0003,-0.0049
25553,-106.7467,-0.2657,-0.0103,-0.1168,-89.2202,0.0,-0.1033,7.5862,0.0001,-0.0847,6.2622,-0.0003,-0.0049
25569,-106.7467,-0.2657,-0.0103,-0.1168,-89.2202,0.0,-0.1033,7.5862,0.0001,-0.0847,6.2622,-0.0003,-0.0049
25595,-106.7517,0.1003,-0.0103,-0.1133,-89.2202,-0.0,-0.1066,7.8306,0.0001,-0.07,5.1759,-0.0002,-0.0016
25601,-106.7517,0.1003,-0.0103,-0.1133,-89.2202,-0.0,-0.1066,7.8306,0.0001,-0.07,5.1759,-0.0002,-0.0016
25618,-106.7554,0.3706,-0.0104,-0.1097,-89.2202,0.0,-0.1093,8.0294,0.0,-0.0794,5.8578,-0.0006,-0.001
25633,-106.7554,0.3706,-0.0104,-0.1097,-89.2202,0.0,-0.1093,8.0294,0.0,-0.0794,5.8578,-0.0006,-0.001
25649,-106.7554,0.3706,-0.0104,-0.1097,-89.2202,0.0,-0.1093,8.0294,0.0,-0.0794,5.8578,-0.0006,-0.001
25665,-106.7602,0.7199,-0.0104,-0.1083,-89.2203,-0.0,-0.1136,8.3462,0.0,-0.1013,7.456,-0.0,0.0001
25681,-106.7602,0.7199,-0.0104,-0.1083,-89.2203,-0.0,-0.1136,8.3462,0.0,-0.1013,7.456,-0.0,0.0001
25697,-106.7637,0.9777,-0.0104,-0.1085,-89.2202,0.0,-0.1164,8.5549,0.0,-0.0932,6.8561,-0.0001,-0.0001
25714,-106.7671,1.231,-0.0104,-0.1088,-89.2202,-0.0,-0.1189,8.7384,0.0,-0.0855,6.2875,-0.0002,-0.0001
25734,-106.7671,1.231,-0.0104,-0.1088,-89.2202,-0.0,-0.1189,8.7384,0.0,-0.0855,6.2875,-0.0002,-0.0001
25759,-106.7716,1.5599,-0.0104,-0.1079,-89.2203,0.0,-0.1218,8.9485,0.0,-0.0771,5.6722,-0.0001,0.0
25769,-106.7716,1.5599,-0.0104,-0.1079,-89.2203,0.0,-0.1218,8.9485,0.0,-0.0771,5.6722,-0.0001,0.0
25794,-106.7754,1.8392,-0.0104,-0.1064,-89.2203,0.0,-0.1243,9.1318,0.0,-0.081,5.9536,-0.0004,-0.0
25801,-106.7754,1.8392,-0.0104,-0.1064,-89.2203,0.0,-0.1243,9.1318,0.0,-0.081,5.9536,-0.0004,-0.0
25817,-106.7781,2.0386,-0.0104,-0.1055,-89.2202,-0.0,-0.1261,9.2652,0.0,-0.084,6.1664,0.0005,0.0
25833,-106.7781,2.0386,-0.0104,-0.1055,-89.2202,-0.0,-0.1261,9.2652,0.0,-0.084,6.1664,0.0005,0.0
25849,-106.7832,2.4122,-0.0104,-0.1035,-89.2202,0.0,-0.1292,9.4902,0.0,-0.0771,5.6629,-0.0001,-0.0
25865,-106.7832,2.4122,-0.0104,-0.1035,-89.2202,0.0,-0.1292,9.4902,0.0,-0.0771,5.6629,-0.0001,-0.0
25889,-106.7876,2.7363,-0.0104,-0.1014,-89.2202,-0.0,-0.1316,9.6683,0.0,-0.0718,5.2773,-0.0001,-0.0001
25897,-106.7876,2.7363,-0.0104,-0.1014,-89.2202,-0.0,-0.1316,9.6683,0.0,-0.0718,5.2773,-0.0001,-0.0001
25924,-106.7922,3.0721,-0.0104,-0.099,-89.2203,0.0,-0.134,9.8432,-0.0,-0.0693,5.0893,-0.0003,-0.0002
25929,-106.7922,3.0721,-0.0104,-0.099,-89.2203,0.0,-0.134,9.8432,-0.0,-0.0693,5.0893,-0.0003,-0.0002
25945,-106.7922,3.0721,-0.0104,-0.099,-89.2203,0.0,-0.134,9.8432,-0.0,-0.0693,5.0893,-0.0003,-0.0002
25961,-106.7969,3.4199,-0.0104,-0.0964,-89.2203,-0.0,-0.1363,10.0148,0.0,-0.0669,4.9115,0.0004,-0.0003
25977,-106.7969,3.4199,-0.0104,-0.0964,-89.2203,-0.0,-0.1363,10.0148,0.0,-0.0669,4.9115,0.0004,-0.0003
25993,-106.8014,3.7522,-0.0105,-0.0938,-89.2202,0.0,-0.1384,10.1707,-0.0,-0.0645,4.7431,-0.0004,-0.0003
26009,-106.8042,3.9546,-0.0105,-0.0923,-89.2202,0.0,-0.1397,10.2632,0.0,-0.0636,4.6756,0.0004,-0.0006
26026,-106.8042,3.9546,-0.0105,-0.0923,-89.2202,0.0,-0.1397,10.2632,0.0,-0.0636,4.6756,0.0004,-0.0006
26042,-106.8092,4.3216,-0.0105,-0.0896,-89.2202,0.0,-0.1419,10.4237,0.0,-0.0617,4.5332,-0.0001,-0.0009
26064,-106.8092,4.3216,-0.0105,-0.0896,-89.2202,0.0,-0.1419,10.4237,0.0,-0.0617,4.5332,-0.0001,-0.0009
26080,-106.8092,4.3216,-0.0105,-0.0896,-89.2202,0.0,-0.1419,10.4237,0.0,-0.0617,4.5332,-0.0001,-0.0009
26096,-106.8167,4.8691,-0.0105,-0.0858,-89.2202,0.0,-0.145,10.6506,0.0,-0.0595,4.3731,-0.0,-0.0012
26112,-106.8202,5.1286,-0.0105,-0.084,-89.2202,0.0,-0.1463,10.7526,0.0,-0.0574,4.2144,0.0003,0.0008
26130,-106.8202,5.1286,-0.0105,-0.084,-89.2202,0.0,-0.1463,10.7526,0.0,-0.0574,4.2144,0.0003,0.0008
26146,-106.8247,5.461,-0.0106,-0.082,-89.2202,0.0,-0.1481,10.881,-0.0,-0.0569,4.1837,-0.0007,0.0003
26162,-106.8247,5.461,-0.0106,-0.082,-89.2202,0.0,-0.1481,10.881,-0.0,-0.0569,4.1837,-0.0007,0.0003
26192,-106.8292,5.7937,-0.0106,-0.08,-89.2202,0.0,-0.1498,11.0049,-0.0,-0.0555,4.0818,0.0004,0.0
26203,-106.8292,5.7937,-0.0106,-0.08,-89.2202,0.0,-0.1498,11.0049,-0.0,-0.0555,4.0818,0.0004,0.0
26219,-106.836,6.2913,-0.0106,-0.0772,-89.2202,0.0,-0.1522,11.1827,0.0,-0.0541,3.9705,0.0002,-0.0002
26235,-106.836,6.2913,-0.0106,-0.0772,-89.2202,0.0,-0.1522,11.1827,0.0,-0.0541,3.9705,0.0002,-0.0002
26262,-106.8404,6.6147,-0.0106,-0.0754,-89.2202,0.0,-0.1537,11.2938,0.0,-0.0526,3.8669,-0.0001,0.0002
26267,-106.8404,6.6147,-0.0106,-0.0754,-89.2202,0.0,-0.1537,11.2938,0.0,-0.0526,3.8669,-0.0001,0.0002
26283,-106.8447,6.933,-0.0106,-0.0738,-89.2203,0.0,-0.1552,11.4,0.0,-0.0516,3.792,0.0,-0.0003
26299,-106.8447,6.933,-0.0106,-0.0738,-89.2203,0.0,-0.1552,11.4,0.0,-0.0516,3.792,0.0,-0.0003
26315,-106.8505,7.355,-0.0106,-0.0718,-89.2203,-0.0,-0.157,11.5362,0.0,-0.0505,3.7078,-0.0,-0.0004
26331,-106.8505,7.355,-0.0106,-0.0718,-89.2203,-0.0,-0.157,11.5362,0.0,-0.0505,3.7078,-0.0,-0.0004
26347,-106.8551,7.6956,-0.0106,-0.0703,-89.2202,0.0,-0.1585,11.6426,-0.0,-0.0493,3.6251,-0.0001,0.0005
26363,-106.8551,7.6956,-0.0106,-0.0703,-89.2202,0.0,-0.1585,11.6426,-0.0,-0.0493,3.6251,-0.0001,0.0005
26379,-106.8595,8.015,-0.0107,-0.0689,-89.2202,0.0,-0.1598,11.7397,0.0,-0.0484,3.5567,0.0005,-0.0006
26395,-106.8595,8.015,-0.0107,-0.0689,-89.2202,0.0,-0.1598,11.7397,0.0,-0.0484,3.5567,0.0005,-0.0006
26414,-106.8661,8.502,-0.0107,-0.0669,-89.2202,0.0,-0.1617,11.8828,0.0,-0.0473,3.475,0.0,0.0002
26435,-106.8699,8.7819,-0.0107,-0.0659,-89.2202,0.0,-0.1628,11.9625,0.0,-0.0462,3.4005,-0.0005,-0.0001
26443,-106.8699,8.7819,-0.0107,-0.0659,-89.2202,0.0,-0.1628,11.9625,0.0,-0.0462,3.4005,-0.0005,-0.0001
26462,-106.8748,9.1435,-0.0107,-0.0645,-89.2202,0.0,-0.1642,12.063,-0.0,-0.0454,3.3402,-0.0001,-0.0
26475,-106.8748,9.1435,-0.0107,-0.0645,-89.2202,0.0,-0.1642,12.063,-0.0,-0.0454,3.3402,-0.0001,-0.0
26506,-106.8796,9.4978,-0.0107,-0.0632,-89.2203,0.0,-0.1655,12.1587,-0.0,-0.0446,3.2763,-0.0004,0.0
26515,-106.8796,9.4978,-0.0107,-0.0632,-89.2203,0.0,-0.1655,12.1587,-0.0,-0.0446,3.2763,-0.0004,0.0
26534,-106.8866,10.0056,-0.0107,-0.0614,-89.2203,0.0,-0.1673,12.2914,0.0,-0.0435,3.1993,0.0003,-0.0
26547,-106.8866,10.0056,-0.0107,-0.0614,-89.2203,0.0,-0.1673,12.2914,0.0,-0.0435,3.1993,0.0003,-0.0
26563,-106.8906,10.3018,-0.0107,-0.0605,-89.2203,0.0,-0.1683,12.3666,-0.0,-0.0426,3.1306,-0.0007,-0.0
26582,-106.8954,10.6581,-0.0107,-0.0593,-89.2203,0.0,-0.1695,12.4548,-0.0,-0.0419,3.0773,0.0005,-0.0
26595,-106.8954,10.6581,-0.0107,-0.0593,-89.2203,0.0,-0.1695,12.4548,-0.0,-0.0419,3.0773,0.0005,-0.0
26611,-106.8954,10.6581,-0.0107,-0.0593,-89.2203,0.0,-0.1695,12.4548,-0.0,-0.0419,3.0773,0.0005,-0.0
26627,-106.9018,11.1257,-0.0107,-0.0578,-89.2203,0.0,-0.171,12.5672,0.0,-0.041,3.0106,0.0002,-0.0
26643,-106.9056,11.4056,-0.0107,-0.057,-89.2203,0.0,-0.1719,12.6325,0.0,-0.04,2.9421,-0.0002,-0.0
26659,-106.9056,11.4056,-0.0107,-0.057,-89.2203,0.0,-0.1719,12.6325,0.0,-0.04,2.9421,-0.0002,-0.0
26683,-106.9116,11.8443,-0.0107,-0.0555,-89.2203,0.0,-0.1732,12.7254,0.0,-0.0366,2.6884,-0.0,-0.0
26691,-106.9116,11.8443,-0.0107,-0.0555,-89.2203,0.0,-0.1732,12.7254,0.0,-0.0366,2.6884,-0.0,-0.0
26711,-106.9116,11.8443,-0.0107,-0.0555,-89.2203,0.0,-0.1732,12.7254,0.0,-0.0366,2.6884,-0.0,-0.0
26724,-106.918,12.32,-0.0108,-0.0533,-89.2203,0.0,-0.1744,12.8127,-0.0,-0.0319,2.3436,-0.0002,-0.0
26739,-106.918,12.32,-0.0108,-0.0533,-89.2203,0.0,-0.1744,12.8127,-0.0,-0.0319,2.3436,-0.0002,-0.0
26755,-106.918,12.32,-0.0108,-0.0533,-89.2203,0.0,-0.1744,12.8127,-0.0,-0.0319,2.3436,-0.0002,-0.0
26771,-106.9263,12.9286,-0.0108,-0.0498,-89.2202,0.0,-0.1757,12.9067,0.0,-0.027,1.9883,0.0002,0.0
26787,-106.9263,12.9286,-0.0108,-0.0498,-89.2202,0.0,-0.1757,12.9067,0.0,-0.027,1.9883,0.0002,0.0
26807,-106.9326,13.3905,-0.0108,-0.0468,-89.2202,0.0,-0.1765,12.9667,0.0,-0.0229,1.6805,-0.0001,-0.0
26819,-106.9326,13.3905,-0.0108,-0.0468,-89.2202,0.0,-0.1765,12.9667,0.0,-0.0229,1.6805,-0.0001,-0.0
26835,-106.9367,13.6915,-0.0108,-0.0447,-89.2202,-0.0,-0.1769,13.0009,0.0,-0.0202,1.4792,0.0,-0.0
26851,-106.9367,13.6915,-0.0108,-0.0447,-89.2202,-0.0,-0.1769,13.0009,0.0,-0.0202,1.4792,0.0,-0.0
26867,-106.9427,14.1328,-0.0109,-0.0415,-89.2202,0.0,-0.1776,13.0459,-0.0,-0.018,1.3263,-0.0004,-0.0
26914,-106.9491,14.5996,-0.0109,-0.038,-89.2202,0.0,-0.1781,13.0874,0.0,-0.0158,1.1624,0.0005,-0.0
26918,-106.9491,14.5996,-0.0109,-0.038,-89.2202,0.0,-0.1781,13.0874,0.0,-0.0158,1.1624,0.0005,-0.0
26937,-106.9578,15.0567,-0.0109,-0.0344,-89.3307,0.0171,-0.3481,13.1043,0.0001,-4.8722,0.4859,0.0031,-5.849
26950,-106.9673,15.363,-0.0109,-0.0311,-89.5691,0.0435,-0.5357,13.0927,0.0004,-8.0234,-0.4958,0.0117,-12.5338
26970,-106.9673,15.363,-0.0109,-0.0311,-89.5691,0.0435,-0.5357,13.0927,0.0004,-8.0234,-0.4958,0.0117,-12.5338
26985,-106.9673,15.363,-0.0109,-0.0311,-89.5691,0.0435,-0.5357,13.0927,0.0004,-8.0234,-0.4958,0.0117,-12.5338
27001,-106.9941,15.9136,-0.011,-0.0222,-90.4975,0.1121,-0.9598,13.0222,0.0009,-10.053,-1.6728,0.0129,-28.8493
27017,-106.9941,15.9136,-0.011,-0.0222,-90.4975,0.1121,-0.9598,13.0222,0.0009,-10.053,-1.6728,0.0129,-28.8493
27033,-107.0221,16.3184,-0.011,-0.0135,-91.6694,0.1644,-1.2811,12.9421,0.0012,-10.2927,-2.566,0.0081,-42.934
27052,-107.0486,16.6346,-0.011,-0.0055,-92.9207,0.2017,-1.5234,12.8671,0.0013,-9.8666,-3.0533,0.0036,-55.0214
27065,-107.0486,16.6346,-0.011,-0.0055,-92.9207,0.2017,-1.5234,12.8671,0.0013,-9.8666,-3.0533,0.0036,-55.0214
27088,-107.0821,16.9828,-0.011,0.0042,-94.6804,0.2361,-1.7731,12.7749,0.0012,-9.1629,-3.381,-0.0022,-69.4084
27097,-107.0821,16.9828,-0.011,0.0042,-94.6804,0.2361,-1.7731,12.7749,0.0012,-9.1629,-3.381,-0.0022,-69.4084
27121,-107.1299,17.4269,-0.0111,0.0164,-97.5506,0.2643,-2.0452,12.6522,0.001,-7.7381,-3.4923,-0.0071,-89.0955
27129,-107.1299,17.4269,-0.0111,0.0164,-97.5506,0.2643,-2.0452,12.6522,0.001,-7.7381,-3.4923,-0.0071,-89.0955
27154,-107.1806,17.8656,-0.0111,0.027,-101.1394,0.2726,-2.2436,12.5357,0.0006,-5.6359,-3.3084,-0.0109,-109.6725
27161,-107.1806,17.8656,-0.0111,0.027,-101.1394,0.2726,-2.2436,12.5357,0.0006,-5.6359,-3.3084,-0.0109,-109.6725
27191,-107.2165,18.1715,-0.0112,0.0324,-104.1126,0.266,-2.3277,12.464,0.0002,-3.3789,-2.8827,-0.0136,-124.4183
27195,-107.2165,18.1715,-0.0112,0.0324,-104.1126,0.266,-2.3277,12.464,0.0002,-3.3789,-2.8827,-0.0136,-124.4183
27211,-107.2641,18.5858,-0.0112,0.036,-108.8034,0.241,-2.37,12.3785,-0.0002,-1.2394,-2.5026,-0.0133,-145.0313
27227,-107.2641,18.5858,-0.0112,0.036,-108.8034,0.241,-2.37,12.3785,-0.0002,-1.2394,-2.5026,-0.0133,-145.0313
27243,-107.3046,18.9677,-0.0112,0.0346,-113.8354,0.2032,-2.3206,12.3172,-0.0006,1.5415,-1.9113,-0.0127,-164.2979
27259,-107.3046,18.9677,-0.0112,0.0346,-113.8354,0.2032,-2.3206,12.3172,-0.0006,1.5415,-1.9113,-0.0127,-164.2979
27275,-107.3348,19.2957,-0.0112,0.0283,-118.7375,0.1581,-2.1885,12.2848,-0.0009,4.7234,-1.1592,-0.0113,-180.2701
27291,-107.3348,19.2957,-0.0112,0.0283,-118.7375,0.1581,-2.1885,12.2848,-0.0009,4.7234,-1.1592,-0.0113,-180.2701
27310,-107.3617,19.7071,-0.0111,0.0091,-125.4964,0.0802,-1.7758,12.2991,-0.0013,11.5858,0.4027,-0.0115,-194.7074
27323,-107.3699,19.9817,-0.011,-0.0115,-130.3014,0.017,-1.3794,12.3074,-0.0017,16.4606,0.3421,-0.015,-201.7556
27339,-107.3699,19.9817,-0.011,-0.0115,-130.3014,0.017,-1.3794,12.3074,-0.0017,16.4606,0.3421,-0.015,-201.7556
27355,-107.3699,19.9817,-0.011,-0.0115,-130.3014,0.017,-1.3794,12.3074,-0.0017,16.4606,0.3421,-0.015,-201.7556
27371,-107.3628,20.4071,-0.0107,-0.0544,-138.1568,-0.0959,-0.6294,12.2735,-0.0002,19.7807,-0.8942,0.0402,-210.0678
27393,-107.3469,20.6559,-0.0105,-0.0819,-142.9541,-0.1591,-0.1314,12.2099,0.0008,22.0578,-2.8155,0.0447,-213.6411
27403,-107.3469,20.6559,-0.0105,-0.0819,-142.9541,-0.1591,-0.1314,12.2099,0.0008,22.0578,-2.8155,0.0447,-213.6411
27419,-107.3469,20.6559,-0.0105,-0.0819,-142.9541,-0.1591,-0.1314,12.2099,0.0008,22.0578,-2.8155,0.0447,-213.6411
27435,-107.301,21.0437,-0.0101,-0.1287,-150.7643,-0.2616,0.7076,12.0275,0.0017,23.2703,-5.0607,0.0249,-218.2409
27454,-107.2445,21.3534,-0.0098,-0.1665,-157.3205,-0.3403,1.4176,11.7932,0.0021,23.86,-7.8717,0.012,-221.3038
27467,-107.2445,21.3534,-0.0098,-0.1665,-157.3205,-0.3403,1.4176,11.7932,0.0021,23.86,-7.8717,0.012,-221.3038
27499,-107.1776,21.6319,-0.0095,-0.1986,-163.5066,-0.4051,2.0753,11.5017,0.0021,23.7118,-10.5089,0.0026,-223.8633
27529,-107.0918,21.9172,-0.0092,-0.228,-170.2071,-0.4769,2.6897,11.0106,0.0023,20.6029,-16.4691,0.0039,-225.169
27533,-107.0918,21.9172,-0.0092,-0.228,-170.2071,-0.4769,2.6897,11.0106,0.0023,20.6029,-16.4691,0.0039,-225.169
27549,-106.9613,22.2754,-0.0089,-0.2534,-179.4086,-0.5821,3.2885,10.1009,0.0023,14.7185,-22.3619,0.0018,-226.6913
27565,-106.9613,22.2754,-0.0089,-0.2534,-179.4086,-0.5821,3.2885,10.1009,0.0023,14.7185,-22.3619,0.0018,-226.6913
27584,-106.8556,22.5229,-0.0087,-0.264,173.4981,-0.6666,3.5744,9.298,0.0023,9.1473,-25.6849,-0.0005,-226.9576
27597,-106.8556,22.5229,-0.0087,-0.264,173.4981,-0.6666,3.5744,9.298,0.0023,9.1473,-25.6849,-0.0005,-226.9576
27613,-106.7681,22.7175,-0.0087,-0.2613,167.4085,-0.7401,3.4167,8.6306,0.0023,-5.8259,-24.6493,-0.0026,-221.9825
27629,-106.7681,22.7175,-0.0087,-0.2613,167.4085,-0.7401,3.4167,8.6306,0.0023,-5.8259,-24.6493,-0.0026,-221.9825
27655,-106.6713,22.9632,-0.0089,-0.2315,159.591,-0.8115,2.8846,7.8901,-0.0028,-14.4265,-20.0783,-0.1379,-206.966
27661,-106.6713,22.9632,-0.0089,-0.2315,159.591,-0.8115,2.8846,7.8901,-0.0028,-14.4265,-20.0783,-0.1379,-206.966
27686,-106.6168,23.1394,-0.0092,-0.1989,153.7711,-0.8613,2.3322,7.3695,-0.0017,-19.3056,-18.1936,0.0393,-201.7351
27694,-106.6168,23.1394,-0.0092,-0.1989,153.7711,-0.8613,2.3322,7.3695,-0.0017,-19.3056,-18.1936,0.0393,-201.7351
27719,-106.5786,23.3413,-0.0094,-0.1482,146.9015,-0.9244,1.5518,6.8954,0.0035,-22.3979,-13.6081,0.1484,-193.3613
27726,-106.5786,23.3413,-0.0094,-0.1482,146.9015,-0.9244,1.5518,6.8954,0.0035,-22.3979,-13.6081,0.1484,-193.3613
27749,-106.5717,23.5779,-0.0098,-0.0842,139.3021,-0.9473,0.5776,6.7258,0.0017,-23.4004,-4.0728,-0.0433,-173.1721
27758,-106.5717,23.5779,-0.0098,-0.0842,139.3021,-0.9473,0.5776,6.7258,0.0017,-23.4004,-4.0728,-0.0433,-173.1721
27774,-106.5717,23.5779,-0.0098,-0.0842,139.3021,-0.9473,0.5776,6.7258,0.0017,-23.4004,-4.0728,-0.0433,-173.1721
27790,-106.5905,23.7363,-0.0101,-0.0346,134.9577,-0.9329,-0.0924,6.8305,0.0007,-25.0998,3.9219,-0.0354,-157.5049
27814,-106.6254,23.9012,-0.0105,0.0157,131.0782,-0.9047,-0.7257,7.0268,-0.0,-23.993,7.4363,-0.0279,-141.6403
27822,-106.6254,23.9012,-0.0105,0.0157,131.0782,-0.9047,-0.7257,7.0268,-0.0,-23.993,7.4363,-0.0279,-141.6403
27843,-106.7078,24.184,-0.0111,0.0902,125.7576,-0.8321,-1.5134,7.5011,-0.0009,-18.7978,11.3191,-0.0209,-118.0542
27854,-106.7078,24.184,-0.0111,0.0902,125.7576,-0.8321,-1.5134,7.5011,-0.0009,-18.7978,11.3191,-0.0209,-118.0542
27870,-106.7078,24.184,-0.0111,0.0902,125.7576,-0.8321,-1.5134,7.5011,-0.0009,-18.7978,11.3191,-0.0209,-118.0542
27886,-106.7886,24.4317,-0.0115,0.1371,122.0547,-0.7384,-1.8255,7.9104,-0.0014,-9.2447,12.1235,-0.0144,-105.5271
27902,-106.7886,24.4317,-0.0115,0.1371,122.0547,-0.7384,-1.8255,7.9104,-0.0014,-9.2447,12.1235,-0.0144,-105.5271
27918,-106.8678,24.6791,-0.0117,0.1661,118.8297,-0.623,-1.8626,8.272,-0.002,-1.1659,11.3821,-0.0183,-99.7498
27934,-106.8678,24.6791,-0.0117,0.1661,118.8297,-0.623,-1.8626,8.272,-0.002,-1.1659,11.3821,-0.0183,-99.7498
27953,-106.9673,25.0238,-0.012,0.185,114.7293,-0.4427,-1.6585,8.6934,-0.0028,4.8728,10.0606,-0.0189,-97.1606
27966,-106.9673,25.0238,-0.012,0.185,114.7293,-0.4427,-1.6585,8.6934,-0.0028,4.8728,10.0606,-0.0189,-97.1606
27982,-107.0194,25.2316,-0.0121,0.1883,112.38,-0.3367,-1.458,8.907,-0.0031,8.2679,8.809,-0.0145,-96.8211
28014,-107.0806,25.517,-0.0122,0.1867,109.2498,-0.2001,-1.1281,9.1587,-0.0033,10.2062,7.787,-0.0072,-96.9457
28030,-107.0806,25.517,-0.0122,0.1867,109.2498,-0.2001,-1.1281,9.1587,-0.0033,10.2062,7.787,-0.0072,-96.9457
28046,-107.0806,25.517,-0.0122,0.1867,109.2498,-0.2001,-1.1281,9.1587,-0.0033,10.2062,7.787,-0.0072,-96.9457
28062,-107.1609,25.974,-0.0123,0.1802,104.8156,-0.0576,-1.0097,9.5229,-0.0032,2.3832,7.3321,0.0023,-81.1744
28078,-107.1609,25.974,-0.0123,0.1802,104.8156,-0.0576,-1.0097,9.5229,-0.0032,2.3832,7.3321,0.0023,-81.1744
28096,-107.2022,26.2214,-0.0124,0.1749,102.9458,-0.0373,-1.1205,9.6494,-0.0025,-4.2484,4.8472,0.027,-66.6178
28112,-107.2022,26.2214,-0.0124,0.1749,102.9458,-0.0373,-1.1205,9.6494,-0.0025,-4.2484,4.8472,0.027,-66.6178
28133,-107.2741,26.6347,-0.0123,0.1595,100.8142,-0.0605,-1.4418,9.7487,-0.001,-7.4906,2.3155,0.0348,-39.0481
28144,-107.2741,26.6347,-0.0123,0.1595,100.8142,-0.0605,-1.4418,9.7487,-0.001,-7.4906,2.3155,0.0348,-39.0481
28160,-107.3309,26.9519,-0.0122,0.1443,99.8539,-0.0814,-1.5689,9.8141,-0.0001,-3.9072,2.0117,0.0281,-24.4705
28176,-107.3309,26.9519,-0.0122,0.1443,99.8539,-0.0814,-1.5689,9.8141,-0.0001,-3.9072,2.0117,0.0281,-24.4705
28203,-107.3708,27.1776,-0.0121,0.1333,99.4026,-0.0866,-1.6049,9.858,0.0002,-1.5666,1.9062,0.0118,-17.4599
28208,-107.3708,27.1776,-0.0121,0.1333,99.4026,-0.0866,-1.6049,9.858,0.0002,-1.5666,1.9062,0.0118,-17.4599
28224,-107.3708,27.1776,-0.0121,0.1333,99.4026,-0.0866,-1.6049,9.858,0.0002,-1.5666,1.9062,0.0118,-17.4599
28247,-107.4656,27.7335,-0.0119,0.1066,98.7905,-0.0726,-1.6034,9.9491,0.0001,0.0275,1.6238,-0.0006,-7.9106
28256,-107.4656,27.7335,-0.0119,0.1066,98.7905,-0.0726,-1.6034,9.9491,0.0001,0.0275,1.6238,-0.0006,-7.9106
28275,-107.5209,28.0773,-0.011,0.135,98.6058,0.0719,-1.5883,9.9939,0.0417,0.4379,1.2999,1.2078,-5.0931
28288,-107.5209,28.0773,-0.011,0.135,98.6058,0.0719,-1.5883,9.9939,0.0417,0.4379,1.2999,1.2078,-5.0931
28304,-107.5637,28.3443,-0.0109,0.1201,98.5267,0.0491,-1.5692,10.0178,-0.0192,0.7148,0.8935,-2.2819,-2.1392
28320,-107.5637,28.3443,-0.0109,0.1201,98.5267,0.0491,-1.5692,10.0178,-0.0192,0.7148,0.8935,-2.2819,-2.1392
28339,-107.61,28.6385,-0.0111,0.0914,98.4526,0.0041,-1.5456,10.0515,-0.0133,0.8073,1.1497,0.1993,-3.3025
28352,-107.61,28.6385,-0.0111,0.0914,98.4526,0.0041,-1.5456,10.0515,-0.0133,0.8073,1.1497,0.1993,-3.3025
28368,-107.6671,29.0101,-0.0113,0.0685,98.4062,-0.0096,-1.5262,10.0729,-0.0074,0.5242,0.5809,0.1599,-2.5937
28384,-107.6671,29.0101,-0.0113,0.0685,98.4062,-0.0096,-1.5262,10.0729,-0.0074,0.5242,0.5809,0.1599,-2.5937
28404,-107.7072,29.2761,-0.0114,0.0574,98.4002,-0.01,-1.5172,10.0873,-0.0048,0.3398,0.5428,0.0995,0.8769
28416,-107.7072,29.2761,-0.0114,0.0574,98.4002,-0.01,-1.5172,10.0873,-0.0048,0.3398,0.5428,0.0995,0.8769
28435,-107.7705,29.6981,-0.0114,0.0452,98.3698,-0.0069,-1.509,10.1156,-0.0023,0.196,0.6773,0.0586,-1.5567
28448,-107.7705,29.6981,-0.0114,0.0452,98.3698,-0.0069,-1.509,10.1156,-0.0023,0.196,0.6773,0.0586,-1.5567
28464,-107.7705,29.6981,-0.0114,0.0452,98.3698,-0.0069,-1.509,10.1156,-0.0023,0.196,0.6773,0.0586,-1.5567
28480,-107.8111,29.9709,-0.0114,0.0393,98.375,-0.0047,-1.5054,10.1303,-0.0015,0.1363,0.5466,0.0322,1.3093
28496,-107.8111,29.9709,-0.0114,0.0393,98.375,-0.0047,-1.5054,10.1303,-0.0015,0.1363,0.5466,0.0322,1.3093
28517,-107.8876,30.4869,-0.0114,0.031,98.3654,-0.0016,-1.5022,10.1592,-0.0005,0.0618,0.5686,0.019,1.1322
28528,-107.8876,30.4869,-0.0114,0.031,98.3654,-0.0016,-1.5022,10.1592,-0.0005,0.0618,0.5686,0.019,1.1322
28550,-107.9275,30.7586,-0.0105,-0.0173,98.349,0.0559,-1.5047,10.1713,0.0202,-0.0916,0.4512,0.7734,-1.6483
28560,-107.9275,30.7586,-0.0105,-0.0173,98.349,0.0559,-1.5047,10.1713,0.0202,-0.0916,0.4512,0.7734,-1.6483
28593,-107.9827,31.1306,-0.0109,0.0049,98.3441,0.0168,-1.5022,10.1882,-0.0055,0.0666,0.4634,-0.7028,-1.5553
28602,-107.9827,31.1306,-0.0109,0.0049,98.3441,0.0168,-1.5022,10.1882,-0.0055,0.0666,0.4634,-0.7028,-1.5553
28618,-107.9827,31.1306,-0.0109,0.0049,98.3441,0.0168,-1.5022,10.1882,-0.0055,0.0666,0.4634,-0.7028,-1.5553
28634,-108.0589,31.6478,-0.0112,0.0151,98.3431,0.0033,-1.5016,10.2144,-0.0025,0.0118,0.5157,0.0584,-1.2263
28650,-108.0589,31.6478,-0.0112,0.0151,98.3431,0.0033,-1.5016,10.2144,-0.0025,0.0118,0.5157,0.0584,-1.2263
28666,-108.0993,31.9233,-0.0112,0.0165,98.3554,0.0015,-1.5024,10.2268,-0.0016,-0.0282,0.461,0.0341,1.5073
28682,-108.1451,32.2347,-0.0113,0.0167,98.3529,0.0007,-1.5047,10.246,-0.0009,-0.0766,0.6309,0.0242,0.6934
28698,-108.1451,32.2347,-0.0113,0.0167,98.3529,0.0007,-1.5047,10.246,-0.0009,-0.0766,0.6309,0.0242,0.6934
28715,-108.1832,32.4939,-0.0113,0.0164,98.3455,0.0005,-1.5066,10.2604,-0.0005,-0.0748,0.5694,0.014,-0.9553
28730,-108.1832,32.4939,-0.0113,0.0164,98.3455,0.0005,-1.5066,10.2604,-0.0005,-0.0748,0.5694,0.014,-0.9553
28746,-108.1832,32.4939,-0.0113,0.0164,98.3455,0.0005,-1.5066,10.2604,-0.0005,-0.0748,0.5694,0.014,-0.9553
28762,-108.2495,32.9461,-0.0113,0.0153,98.356,0.0003,-1.509,10.2794,-0.0001,-0.0546,0.4325,0.0087,1.3874
28778,-108.2495,32.9461,-0.0113,0.0153,98.356,0.0003,-1.509,10.2794,-0.0001,-0.0546,0.4325,0.0087,1.3874
28794,-108.308,33.3445,-0.0113,0.0137,98.3586,0.0003,-1.51,10.288,0.0,-0.0262,0.2213,0.0042,2.0892
28810,-108.308,33.3445,-0.0113,0.0137,98.3586,0.0003,-1.51,10.288,0.0,-0.0262,0.2213,0.0042,2.0892
28829,-108.3629,33.7184,-0.0113,0.0123,98.3573,0.0002,-1.5119,10.3011,0.0001,-0.0516,0.3621,0.0019,1.6738
28842,-108.3629,33.7184,-0.0113,0.0123,98.3573,0.0002,-1.5119,10.3011,0.0001,-0.0516,0.3621,0.0019,1.6738
28861,-108.4084,34.0272,-0.0113,0.0112,98.3364,0.0002,-1.5129,10.3074,0.0001,-0.0323,0.2083,0.0003,-2.2955
28874,-108.4084,34.0272,-0.0113,0.0112,98.3364,0.0002,-1.5129,10.3074,0.0001,-0.0323,0.2083,0.0003,-2.2955
28890,-108.4084,34.0272,-0.0113,0.0112,98.3364,0.0002,-1.5129,10.3074,0.0001,-0.0323,0.2083,0.0003,-2.2955
28910,-108.4803,34.5183,-0.0112,0.0098,98.3562,0.0002,-1.5147,10.3225,0.0001,-0.0388,0.3187,-0.0,1.9841
28922,-108.4803,34.5183,-0.0112,0.0098,98.3562,0.0002,-1.5147,10.3225,0.0001,-0.0388,0.3187,-0.0,1.9841
28951,-108.5282,34.8449,-0.0112,0.0095,98.3536,0.0002,-1.5181,10.3445,0.0001,-0.1058,0.6955,-0.0002,0.8504
28961,-108.5282,34.8449,-0.0112,0.0095,98.3536,0.0002,-1.5181,10.3445,0.0001,-0.1058,0.6955,-0.0002,0.8504
28977,-108.5282,34.8449,-0.0112,0.0095,98.3536,0.0002,-1.5181,10.3445,0.0001,-0.1058,0.6955,-0.0002,0.8504
28993,-108.5961,35.3066,-0.0112,0.0095,98.3431,0.0002,-1.5216,10.3679,0.0001,-0.0802,0.5244,-0.0006,-1.3978
29009,-108.5961,35.3066,-0.0112,0.0095,98.3431,0.0002,-1.5216,10.3679,0.0001,-0.0802,0.5244,-0.0006,-1.3978
29025,-108.6559,35.7139,-0.0112,0.0091,98.3402,0.0001,-1.5232,10.3777,0.0001,-0.0398,0.2494,0.0,-2.142
29041,-108.6559,35.7139,-0.0112,0.0091,98.3402,0.0001,-1.5232,10.3777,0.0001,-0.0398,0.2494,0.0,-2.142
29064,-108.7042,36.0436,-0.0112,0.0089,98.3431,0.0001,-1.5259,10.3976,0.0,-0.0858,0.6295,-0.0009,-0.8581
29073,-108.7042,36.0436,-0.0112,0.0089,98.3431,0.0001,-1.5259,10.3976,0.0,-0.0858,0.6295,-0.0009,-0.8581
29098,-108.7671,36.4721,-0.0112,0.009,98.3503,0.0001,-1.5292,10.4213,0.0,-0.0785,0.5756,-0.0,0.8845
29105,-108.7671,36.4721,-0.0112,0.009,98.3503,0.0001,-1.5292,10.4213,0.0,-0.0785,0.5756,-0.0,0.8845
29124,-108.7671,36.4721,-0.0112,0.009,98.3503,0.0001,-1.5292,10.4213,0.0,-0.0785,0.5756,-0.0,0.8845
29137,-108.8144,36.7943,-0.0112,0.0092,98.3494,0.0001,-1.5317,10.439,0.0,-0.0824,0.571,-0.0002,0.612
29162,-108.8565,37.0809,-0.0112,0.0093,98.3404,0.0001,-1.5336,10.4516,0.0,-0.0681,0.4606,-0.0004,-1.1875
29169,-108.8565,37.0809,-0.0112,0.0093,98.3404,0.0001,-1.5336,10.4516,0.0,-0.0681,0.4606,-0.0004,-1.1875
29185,-108.8565,37.0809,-0.0112,0.0093,98.3404,0.0001,-1.5336,10.4516,0.0,-0.0681,0.4606,-0.0004,-1.1875
