timestamp,x,y,z,pitch,yaw,roll,vx,vy,vz,ax,ay,az,yaw_rate
84993,-106.6867,-4.8475,-0.0737,0.0,-89.3578,0.0,-0.0,-0.0,0.1913,-0.0,-0.0,3.093,0.0
85009,-106.6867,-4.8475,-0.0737,0.0,-89.3578,0.0,-0.0,-0.0,0.1913,-0.0,-0.0,3.093,0.0
85025,-106.6867,-4.8475,-0.0737,0.0,-89.3578,0.0,-0.0,-0.0,0.1913,-0.0,-0.0,3.093,0.0
85041,-106.6867,-4.8475,-0.0737,0.0,-89.3578,0.0,-0.0,-0.0,0.1913,-0.0,-0.0,3.093,0.0
85057,-106.6867,-4.8475,-0.0737,0.0,-89.3578,0.0,-0.0,-0.0,0.1913,-0.0,-0.0,3.093,0.0
85073,-106.6867,-4.8475,-0.0737,0.0,-89.3578,0.0,-0.0,-0.0,0.1913,-0.0,-0.0,3.093,0.0
85089,-106.6867,-4.8475,-0.0737,0.0,-89.3578,0.0,-0.0,-0.0,0.1913,-0.0,-0.0,3.093,0.0
85105,-106.6867,-4.8475,-0.0737,0.0,-89.3578,0.0,-0.0,-0.0,0.1913,-0.0,-0.0,3.093,0.0
85121,-106.6867,-4.8475,-0.0737,0.0,-89.3578,0.0,-0.0,-0.0,0.1913,-0.0,-0.0,3.093,0.0
85137,-106.6867,-4.8475,-0.0737,0.0,-89.3578,0.0,-0.0,-0.0,0.1913,-0.0,-0.0,3.093,0.0
85153,-106.6867,-4.8475,-0.0737,0.0,-89.3578,0.0,-0.0,-0.0,0.1913,-0.0,-0.0,3.093,0.0
85169,-106.6867,-4.8475,-0.0737,0.0,-89.3578,0.0,-0.0,-0.0,0.1913,-0.0,-0.0,3.093,0.0
85185,-106.6867,-4.8475,-0.0737,0.0,-89.3578,0.0,-0.0,-0.0,0.1913,-0.0,-0.0,3.093,0.0
85201,-106.6867,-4.8475,-0.0737,0.0,-89.3578,0.0,-0.0,-0.0,0.1913,-0.0,-0.0,3.093,0.0
85217,-106.6867,-4.8475,-0.0737,0.0,-89.3578,0.0,-0.0,-0.0,0.1913,-0.0,-0.0,3.093,0.0
85233,-106.6867,-4.8475,-0.0737,0.0,-89.3578,0.0,-0.0,-0.0,0.1913,-0.0,-0.0,3.093,0.0
85249,-106.6867,-4.8475,-0.0737,0.0,-89.3578,0.0,-0.0,-0.0,0.1913,-0.0,-0.0,3.093,0.0
85265,-106.6867,-4.8475,-0.0737,0.0,-89.3578,0.0,-0.0,-0.0,0.1913,-0.0,-0.0,3.093,0.0
85281,-106.6867,-4.8475,-0.0737,0.0,-89.3578,0.0,-0.0,-0.0,0.1913,-0.0,-0.0,3.093,0.0
85297,-106.6867,-4.8475,-0.0737,0.0,-89.3578,0.0,-0.0,-0.0,0.1913,-0.0,-0.0,3.093,0.0
85313,-106.6867,-4.8475,-0.0737,0.0,-89.3578,0.0,-0.0,-0.0,0.1913,-0.0,-0.0,3.093,0.0
85329,-106.6867,-4.8475,-0.0737,0.0,-89.3578,0.0,-0.0,-0.0,0.1913,-0.0,-0.0,3.093,0.0
85345,-106.6867,-4.8475,-0.0737,0.0,-89.3578,0.0,-0.0,-0.0,0.1913,-0.0,-0.0,3.093,0.0
85361,-106.6867,-4.8475,-0.0737,0.0,-89.3578,0.0,-0.0,-0.0,0.1913,-0.0,-0.0,3.093,0.0
85377,-106.6867,-4.8475,-0.0737,0.0,-89.3578,0.0,-0.0,-0.0,0.1913,-0.0,-0.0,3.093,0.0
85393,-106.6867,-4.8475,-0.0737,0.0,-89.3578,0.0,-0.0,-0.0,0.1913,-0.0,-0.0,3.093,0.0
85409,-106.6867,-4.8475,-0.0737,0.0,-89.3578,0.0,-0.0,-0.0,0.1913,-0.0,-0.0,3.093,0.0
85425,-106.6867,-4.8475,-0.0737,0.0,-89.3578,0.0,-0.0,-0.0,0.1913,-0.0,-0.0,3.093,0.0
85441,-106.6867,-4.8475,-0.0737,0.0,-89.3578,0.0,-0.0,-0.0,0.1913,-0.0,-0.0,3.093,0.0
85457,-106.6868,-4.8454,-0.0509,-0.0017,-89.3578,-0.0,-0.0005,0.0429,0.2221,-0.0012,0.1072,0.077,-0.0
85473,-106.6868,-4.8454,-0.0509,-0.0017,-89.3578,-0.0,-0.0005,0.0429,0.2221,-0.0012,0.1072,0.077,-0.0
85489,-106.6868,-4.8454,-0.0509,-0.0017,-89.3578,-0.0,-0.0005,0.0429,0.2221,-0.0012,0.1072,0.077,-0.0
85505,-106.6868,-4.8454,-0.0509,-0.0017,-89.3578,-0.0,-0.0005,0.0429,0.2221,-0.0012,0.1072,0.077,-0.0
85521,-106.6868,-4.8454,-0.0509,-0.0017,-89.3578,-0.0,-0.0005,0.0429,0.2221,-0.0012,0.1072,0.077,-0.0
85537,-106.6868,-4.8454,-0.0509,-0.0017,-89.3578,-0.0,-0.0005,0.0429,0.2221,-0.0012,0.1072,0.077,-0.0
85553,-106.6868,-4.8454,-0.0509,-0.0017,-89.3578,-0.0,-0.0005,0.0429,0.2221,-0.0012,0.1072,0.077,-0.0
85575,-106.6868,-4.8404,-0.0327,-0.0051,-89.3577,0.0,-0.0012,0.1109,0.1452,-0.0066,0.5889,-0.6656,0.0044
85585,-106.6868,-4.8404,-0.0327,-0.0051,-89.3577,0.0,-0.0012,0.1109,0.1452,-0.0066,0.5889,-0.6656,0.0044
85601,-106.6868,-4.8404,-0.0327,-0.0051,-89.3577,0.0,-0.0012,0.1109,0.1452,-0.0066,0.5889,-0.6656,0.0044
85617,-106.6868,-4.8404,-0.0327,-0.0051,-89.3577,0.0,-0.0012,0.1109,0.1452,-0.0066,0.5889,-0.6656,0.0044
85633,-106.6868,-4.8404,-0.0327,-0.0051,-89.3577,0.0,-0.0012,0.1109,0.1452,-0.0066,0.5889,-0.6656,0.0044
85649,-106.6868,-4.8404,-0.0327,-0.0051,-89.3577,0.0,-0.0012,0.1109,0.1452,-0.0066,0.5889,-0.6656,0.0044
85665,-106.6868,-4.8404,-0.0327,-0.0051,-89.3577,0.0,-0.0012,0.1109,0.1452,-0.0066,0.5889,-0.6656,0.0044
85681,-106.6869,-4.807,-0.0219,-0.0267,-89.3897,-0.0001,-0.0058,0.5696,0.0799,-0.0457,4.5882,-0.6536,-0.0787
85697,-106.6869,-4.807,-0.0219,-0.0267,-89.3897,-0.0001,-0.0058,0.5696,0.0799,-0.0457,4.5882,-0.6536,-0.0787
85713,-106.6869,-4.807,-0.0219,-0.0267,-89.3897,-0.0001,-0.0058,0.5696,0.0799,-0.0457,4.5882,-0.6536,-0.0787
85729,-106.6869,-4.807,-0.0219,-0.0267,-89.3897,-0.0001,-0.0058,0.5696,0.0799,-0.0457,4.5882,-0.6536,-0.0787
85745,-106.6869,-4.807,-0.0219,-0.0267,-89.3897,-0.0001,-0.0058,0.5696,0.0799,-0.0457,4.5882,-0.6536,-0.0787
85761,-106.6869,-4.807,-0.0219,-0.0267,-89.3897,-0.0001,-0.0058,0.5696,0.0799,-0.0457,4.5882,-0.6536,-0.0787
85781,-106.6878,-4.7227,-0.0161,-0.0503,-89.3915,-0.0001,-0.011,1.0356,0.0403,-0.0478,4.3057,-0.3654,-0.0058
85793,-106.6878,-4.7227,-0.0161,-0.0503,-89.3915,-0.0001,-0.011,1.0356,0.0403,-0.0478,4.3057,-0.3654,-0.0058
85809,-106.6878,-4.7227,-0.0161,-0.0503,-89.3915,-0.0001,-0.011,1.0356,0.0403,-0.0478,4.3057,-0.3654,-0.0058
85825,-106.6878,-4.7227,-0.0161,-0.0503,-89.3915,-0.0001,-0.011,1.0356,0.0403,-0.0478,4.3057,-0.3654,-0.0058
85841,-106.6878,-4.7227,-0.0161,-0.0503,-89.3915,-0.0001,-0.011,1.0356,0.0403,-0.0478,4.3057,-0.3654,-0.0058
85857,-106.6878,-4.7227,-0.0161,-0.0503,-89.3915,-0.0001,-0.011,1.0356,0.0403,-0.0478,4.3057,-0.3654,-0.0058
85873,-106.6878,-4.7227,-0.0161,-0.0503,-89.3915,-0.0001,-0.011,1.0356,0.0403,-0.0478,4.3057,-0.3654,-0.0058
85889,-106.689,-4.6136,-0.0129,-0.0472,-89.3856,0.0,-0.0121,1.1255,0.021,-0.0115,0.9056,-0.1944,-0.0217
85905,-106.689,-4.6136,-0.0129,-0.0472,-89.3856,0.0,-0.0121,1.1255,0.021,-0.0115,0.9056,-0.1944,-0.0217
85921,-106.689,-4.6136,-0.0129,-0.0472,-89.3856,0.0,-0.0121,1.1255,0.021,-0.0115,0.9056,-0.1944,-0.0217
85937,-106.689,-4.6136,-0.0129,-0.0472,-89.3856,0.0,-0.0121,1.1255,0.021,-0.0115,0.9056,-0.1944,-0.0217
85953,-106.689,-4.6136,-0.0129,-0.0472,-89.3856,0.0,-0.0121,1.1255,0.021,-0.0115,0.9056,-0.1944,-0.0217
85969,-106.689,-4.6136,-0.0129,-0.0472,-89.3856,0.0,-0.0121,1.1255,0.021,-0.0115,0.9056,-0.1944,-0.0217
85985,-106.6901,-4.4972,-0.0118,-0.0283,-89.3916,-0.0001,-0.0115,1.1013,0.0078,0.0061,-0.2402,-0.1314,-0.0519
86001,-106.6901,-4.4972,-0.0118,-0.0283,-89.3916,-0.0001,-0.0115,1.1013,0.0078,0.0061,-0.2402,-0.1314,-0.0519
86017,-106.6901,-4.4972,-0.0118,-0.0283,-89.3916,-0.0001,-0.0115,1.1013,0.0078,0.0061,-0.2402,-0.1314,-0.0519
86033,-106.6901,-4.4972,-0.0118,-0.0283,-89.3916,-0.0001,-0.0115,1.1013,0.0078,0.0061,-0.2402,-0.1314,-0.0519
86049,-106.6901,-4.4972,-0.0118,-0.0283,-89.3916,-0.0001,-0.0115,1.1013,0.0078,0.0061,-0.2402,-0.1314,-0.0519
86065,-106.6901,-4.4972,-0.0118,-0.0283,-89.3916,-0.0001,-0.0115,1.1013,0.0078,0.0061,-0.2402,-0.1314,-0.0519
86086,-106.6912,-4.3806,-0.0114,-0.018,-89.4036,-0.0001,-0.0123,1.1997,0.0032,-0.0074,0.9582,-0.045,-0.0056
86097,-106.6912,-4.3806,-0.0114,-0.018,-89.4036,-0.0001,-0.0123,1.1997,0.0032,-0.0074,0.9582,-0.045,-0.0056
86113,-106.6912,-4.3806,-0.0114,-0.018,-89.4036,-0.0001,-0.0123,1.1997,0.0032,-0.0074,0.9582,-0.045,-0.0056
86129,-106.6912,-4.3806,-0.0114,-0.018,-89.4036,-0.0001,-0.0123,1.1997,0.0032,-0.0074,0.9582,-0.045,-0.0056
86145,-106.6912,-4.3806,-0.0114,-0.018,-89.4036,-0.0001,-0.0123,1.1997,0.0032,-0.0074,0.9582,-0.045,-0.0056
86161,-106.6912,-4.3806,-0.0114,-0.018,-89.4036,-0.0001,-0.0123,1.1997,0.0032,-0.0074,0.9582,-0.045,-0.0056
86177,-106.6912,-4.3806,-0.0114,-0.018,-89.4036,-0.0001,-0.0123,1.1997,0.0032,-0.0074,0.9582,-0.045,-0.0056
86198,-106.6928,-4.234,-0.0111,-0.0324,-89.4014,0.0,-0.0159,1.5301,0.0014,-0.0344,3.1129,-0.0168,0.0268
86209,-106.6928,-4.234,-0.0111,-0.0324,-89.4014,0.0,-0.0159,1.5301,0.0014,-0.0344,3.1129,-0.0168,0.0268
86225,-106.6928,-4.234,-0.0111,-0.0324,-89.4014,0.0,-0.0159,1.5301,0.0014,-0.0344,3.1129,-0.0168,0.0268
86241,-106.6928,-4.234,-0.0111,-0.0324,-89.4014,0.0,-0.0159,1.5301,0.0014,-0.0344,3.1129,-0.0168,0.0268
86257,-106.6928,-4.234,-0.0111,-0.0324,-89.4014,0.0,-0.0159,1.5301,0.0014,-0.0344,3.1129,-0.0168,0.0268
86273,-106.6928,-4.234,-0.0111,-0.0324,-89.4014,0.0,-0.0159,1.5301,0.0014,-0.0344,3.1129,-0.0168,0.0268
86289,-106.6928,-4.234,-0.0111,-0.0324,-89.4014,0.0,-0.0159,1.5301,0.0014,-0.0344,3.1129,-0.0168,0.0268
86312,-106.6949,-4.0451,-0.0109,-0.0498,-89.3838,0.0,-0.0216,2.0643,0.0006,-0.0492,4.6296,-0.0065,0.3928
86321,-106.6949,-4.0451,-0.0109,-0.0498,-89.3838,0.0,-0.0216,2.0643,0.0006,-0.0492,4.6296,-0.0065,0.3928
86337,-106.6949,-4.0451,-0.0109,-0.0498,-89.3838,0.0,-0.0216,2.0643,0.0006,-0.0492,4.6296,-0.0065,0.3928
86353,-106.6949,-4.0451,-0.0109,-0.0498,-89.3838,0.0,-0.0216,2.0643,0.0006,-0.0492,4.6296,-0.0065,0.3928
86369,-106.6949,-4.0451,-0.0109,-0.0498,-89.3838,0.0,-0.0216,2.0643,0.0006,-0.0492,4.6296,-0.0065,0.3928
86385,-106.6949,-4.0451,-0.0109,-0.0498,-89.3838,0.0,-0.0216,2.0643,0.0006,-0.0492,4.6296,-0.0065,0.3928
86410,-106.6974,-3.8039,-0.0107,-0.0692,-89.3862,0.0001,-0.0279,2.64,0.0003,-0.0643,5.869,-0.0034,-0.6631
86417,-106.6974,-3.8039,-0.0107,-0.0692,-89.3862,0.0001,-0.0279,2.64,0.0003,-0.0643,5.869,-0.0034,-0.6631
86433,-106.6974,-3.8039,-0.0107,-0.0692,-89.3862,0.0001,-0.0279,2.64,0.0003,-0.0643,5.869,-0.0034,-0.6631
86449,-106.6974,-3.8039,-0.0107,-0.0692,-89.3862,0.0001,-0.0279,2.64,0.0003,-0.0643,5.869,-0.0034,-0.6631
86465,-106.6974,-3.8039,-0.0107,-0.0692,-89.3862,0.0001,-0.0279,2.64,0.0003,-0.0643,5.869,-0.0034,-0.6631
86481,-106.6974,-3.8039,-0.0107,-0.0692,-89.3862,0.0001,-0.0279,2.64,0.0003,-0.0643,5.869,-0.0034,-0.6631
86497,-106.6974,-3.8039,-0.0107,-0.0692,-89.3862,0.0001,-0.0279,2.64,0.0003,-0.0643,5.869,-0.0034,-0.6631
86513,-106.7002,-3.4926,-0.0105,-0.0876,-89.4351,-0.0006,-0.0338,3.4051,0.0002,-0.0567,7.395,-0.0015,0.4048
86529,-106.7002,-3.4926,-0.0105,-0.0876,-89.4351,-0.0006,-0.0338,3.4051,0.0002,-0.0567,7.395,-0.0015,0.4048
86545,-106.7002,-3.4926,-0.0105,-0.0876,-89.4351,-0.0006,-0.0338,3.4051,0.0002,-0.0567,7.395,-0.0015,0.4048
86561,-106.7002,-3.4926,-0.0105,-0.0876,-89.4351,-0.0006,-0.0338,3.4051,0.0002,-0.0567,7.395,-0.0015,0.4048
86577,-106.7002,-3.4926,-0.0105,-0.0876,-89.4351,-0.0006,-0.0338,3.4051,0.0002,-0.0567,7.395,-0.0015,0.4048
86593,-106.7002,-3.4926,-0.0105,-0.0876,-89.4351,-0.0006,-0.0338,3.4051,0.0002,-0.0567,7.395,-0.0015,0.4048
86609,-106.7002,-3.4926,-0.0105,-0.0876,-89.4351,-0.0006,-0.0338,3.4051,0.0002,-0.0567,7.395,-0.0015,0.4048
86625,-106.7035,-3.1171,-0.0105,-0.0917,-89.4729,-0.0009,-0.0351,3.9067,0.0001,-0.0129,4.6856,-0.0007,-0.2593
86641,-106.7035,-3.1171,-0.0105,-0.0917,-89.4729,-0.0009,-0.0351,3.9067,0.0001,-0.0129,4.6856,-0.0007,-0.2593
86657,-106.7035,-3.1171,-0.0105,-0.0917,-89.4729,-0.0009,-0.0351,3.9067,0.0001,-0.0129,4.6856,-0.0007,-0.2593
86673,-106.7035,-3.1171,-0.0105,-0.0917,-89.4729,-0.0009,-0.0351,3.9067,0.0001,-0.0129,4.6856,-0.0007,-0.2593
86689,-106.7035,-3.1171,-0.0105,-0.0917,-89.4729,-0.0009,-0.0351,3.9067,0.0001,-0.0129,4.6856,-0.0007,-0.2593
86705,-106.7035,-3.1171,-0.0105,-0.0917,-89.4729,-0.0009,-0.0351,3.9067,0.0001,-0.0129,4.6856,-0.0007,-0.2593
86721,-106.7059,-2.698,-0.0105,-0.0884,-89.5956,-0.0023,-0.0315,4.4503,0.0,0.0374,5.518,-0.0003,-1.4948
86737,-106.7059,-2.698,-0.0105,-0.0884,-89.5956,-0.0023,-0.0315,4.4503,0.0,0.0374,5.518,-0.0003,-1.4948
86753,-106.7059,-2.698,-0.0105,-0.0884,-89.5956,-0.0023,-0.0315,4.4503,0.0,0.0374,5.518,-0.0003,-1.4948
86769,-106.7059,-2.698,-0.0105,-0.0884,-89.5956,-0.0023,-0.0315,4.4503,0.0,0.0374,5.518,-0.0003,-1.4948
86785,-106.7059,-2.698,-0.0105,-0.0884,-89.5956,-0.0023,-0.0315,4.4503,0.0,0.0374,5.518,-0.0003,-1.4948
86801,-106.7059,-2.698,-0.0105,-0.0884,-89.5956,-0.0023,-0.0315,4.4503,0.0,0.0374,5.518,-0.0003,-1.4948
86821,-106.709,-2.2134,-0.0105,-0.0932,-89.6174,-0.0022,-0.0343,5.1103,0.0,-0.0263,6.1118,-0.0003,-0.3829
86833,-106.709,-2.2134,-0.0105,-0.0932,-89.6174,-0.0022,-0.0343,5.1103,0.0,-0.0263,6.1118,-0.0003,-0.3829
86849,-106.709,-2.2134,-0.0105,-0.0932,-89.6174,-0.0022,-0.0343,5.1103,0.0,-0.0263,6.1118,-0.0003,-0.3829
86865,-106.709,-2.2134,-0.0105,-0.0932,-89.6174,-0.0022,-0.0343,5.1103,0.0,-0.0263,6.1118,-0.0003,-0.3829
86881,-106.709,-2.2134,-0.0105,-0.0932,-89.6174,-0.0022,-0.0343,5.1103,0.0,-0.0263,6.1118,-0.0003,-0.3829
86897,-106.709,-2.2134,-0.0105,-0.0932,-89.6174,-0.0022,-0.0343,5.1103,0.0,-0.0263,6.1118,-0.0003,-0.3829
86913,-106.709,-2.2134,-0.0105,-0.0932,-89.6174,-0.0022,-0.0343,5.1103,0.0,-0.0263,6.1118,-0.0003,-0.3829
86929,-106.7123,-1.6605,-0.0104,-0.1015,-89.6486,-0.0016,-0.0358,5.8018,-0.0,-0.015,6.9137,-0.0003,-0.1128
86945,-106.7123,-1.6605,-0.0104,-0.1015,-89.6486,-0.0016,-0.0358,5.8018,-0.0,-0.015,6.9137,-0.0003,-0.1128
86961,-106.7123,-1.6605,-0.0104,-0.1015,-89.6486,-0.0016,-0.0358,5.8018,-0.0,-0.015,6.9137,-0.0003,-0.1128
86977,-106.7123,-1.6605,-0.0104,-0.1015,-89.6486,-0.0016,-0.0358,5.8018,-0.0,-0.015,6.9137,-0.0003,-0.1128
86993,-106.7123,-1.6605,-0.0104,-0.1015,-89.6486,-0.0016,-0.0358,5.8018,-0.0,-0.015,6.9137,-0.0003,-0.1128
87009,-106.7123,-1.6605,-0.0104,-0.1015,-89.6486,-0.0016,-0.0358,5.8018,-0.0,-0.015,6.9137,-0.0003,-0.1128
87030,-106.7164,-1.0361,-0.0104,-0.1092,-89.6337,-0.0009,-0.0416,6.5486,0.0,-0.0557,7.2299,0.0001,0.1142
87041,-106.7164,-1.0361,-0.0104,-0.1092,-89.6337,-0.0009,-0.0416,6.5486,0.0,-0.0557,7.2299,0.0001,0.1142
87057,-106.7164,-1.0361,-0.0104,-0.1092,-89.6337,-0.0009,-0.0416,6.5486,0.0,-0.0557,7.2299,0.0001,0.1142
87073,-106.7164,-1.0361,-0.0104,-0.1092,-89.6337,-0.0009,-0.0416,6.5486,0.0,-0.0557,7.2299,0.0001,0.1142
87089,-106.7164,-1.0361,-0.0104,-0.1092,-89.6337,-0.0009,-0.0416,6.5486,0.0,-0.0557,7.2299,0.0001,0.1142
87105,-106.7164,-1.0361,-0.0104,-0.1092,-89.6337,-0.0009,-0.0416,6.5486,0.0,-0.0557,7.2299,0.0001,0.1142
87121,-106.7164,-1.0361,-0.0104,-0.1092,-89.6337,-0.0009,-0.0416,6.5486,0.0,-0.0557,7.2299,0.0001,0.1142
87137,-106.7206,-0.3348,-0.0103,-0.1167,-89.6501,-0.0006,-0.0454,7.3236,-0.0,-0.0362,7.3634,-0.0001,-0.4247
87153,-106.7206,-0.3348,-0.0103,-0.1167,-89.6501,-0.0006,-0.0454,7.3236,-0.0,-0.0362,7.3634,-0.0001,-0.4247
87169,-106.7206,-0.3348,-0.0103,-0.1167,-89.6501,-0.0006,-0.0454,7.3236,-0.0,-0.0362,7.3634,-0.0001,-0.4247
87185,-106.7206,-0.3348,-0.0103,-0.1167,-89.6501,-0.0006,-0.0454,7.3236,-0.0,-0.0362,7.3634,-0.0001,-0.4247
87201,-106.7206,-0.3348,-0.0103,-0.1167,-89.6501,-0.0006,-0.0454,7.3236,-0.0,-0.0362,7.3634,-0.0001,-0.4247
87217,-106.7206,-0.3348,-0.0103,-0.1167,-89.6501,-0.0006,-0.0454,7.3236,-0.0,-0.0362,7.3634,-0.0001,-0.4247
87233,-106.7206,-0.3348,-0.0103,-0.1167,-89.6501,-0.0006,-0.0454,7.3236,-0.0,-0.0362,7.3634,-0.0001,-0.4247
87249,-106.7256,0.4403,-0.0103,-0.1176,-89.6365,-0.0003,-0.0503,8.0315,-0.0,-0.0453,6.4352,-0.0001,0.37
87265,-106.7256,0.4403,-0.0103,-0.1176,-89.6365,-0.0003,-0.0503,8.0315,-0.0,-0.0453,6.4352,-0.0001,0.37
87281,-106.7256,0.4403,-0.0103,-0.1176,-89.6365,-0.0003,-0.0503,8.0315,-0.0,-0.0453,6.4352,-0.0001,0.37
87297,-106.7256,0.4403,-0.0103,-0.1176,-89.6365,-0.0003,-0.0503,8.0315,-0.0,-0.0453,6.4352,-0.0001,0.37
87313,-106.7256,0.4403,-0.0103,-0.1176,-89.6365,-0.0003,-0.0503,8.0315,-0.0,-0.0453,6.4352,-0.0001,0.37
87329,-106.7256,0.4403,-0.0103,-0.1176,-89.6365,-0.0003,-0.0503,8.0315,-0.0,-0.0453,6.4352,-0.0001,0.37
87345,-106.7256,0.4403,-0.0103,-0.1176,-89.6365,-0.0003,-0.0503,8.0315,-0.0,-0.0453,6.4352,-0.0001,0.37
87361,-106.7307,1.2813,-0.0103,-0.1128,-89.6467,-0.0002,-0.0539,8.6662,0.0,-0.0354,6.3273,0.0002,-0.227
87377,-106.7307,1.2813,-0.0103,-0.1128,-89.6467,-0.0002,-0.0539,8.6662,0.0,-0.0354,6.3273,0.0002,-0.227
87393,-106.7307,1.2813,-0.0103,-0.1128,-89.6467,-0.0002,-0.0539,8.6662,0.0,-0.0354,6.3273,0.0002,-0.227
87409,-106.7307,1.2813,-0.0103,-0.1128,-89.6467,-0.0002,-0.0539,8.6662,0.0,-0.0354,6.3273,0.0002,-0.227
87425,-106.7307,1.2813,-0.0103,-0.1128,-89.6467,-0.0002,-0.0539,8.6662,0.0,-0.0354,6.3273,0.0002,-0.227
87441,-106.7307,1.2813,-0.0103,-0.1128,-89.6467,-0.0002,-0.0539,8.6662,0.0,-0.0354,6.3273,0.0002,-0.227
87457,-106.7364,2.1819,-0.0104,-0.1054,-89.641,-0.0001,-0.0577,9.2361,0.0,-0.0349,5.2973,0.0,0.095
87473,-106.7364,2.1819,-0.0104,-0.1054,-89.641,-0.0001,-0.0577,9.2361,0.0,-0.0349,5.2973,0.0,0.095
87489,-106.7364,2.1819,-0.0104,-0.1054,-89.641,-0.0001,-0.0577,9.2361,0.0,-0.0349,5.2973,0.0,0.095
87505,-106.7364,2.1819,-0.0104,-0.1054,-89.641,-0.0001,-0.0577,9.2361,0.0,-0.0349,5.2973,0.0,0.095
87521,-106.7364,2.1819,-0.0104,-0.1054,-89.641,-0.0001,-0.0577,9.2361,0.0,-0.0349,5.2973,0.0,0.095
87537,-106.7364,2.1819,-0.0104,-0.1054,-89.641,-0.0001,-0.0577,9.2361,0.0,-0.0349,5.2973,0.0,0.095
87553,-106.7422,3.1248,-0.0104,-0.0987,-89.6428,-0.0,-0.061,9.7758,0.0,-0.0335,5.4649,0.0,-0.0045
87569,-106.7422,3.1248,-0.0104,-0.0987,-89.6428,-0.0,-0.061,9.7758,0.0,-0.0335,5.4649,0.0,-0.0045
87585,-106.7422,3.1248,-0.0104,-0.0987,-89.6428,-0.0,-0.061,9.7758,0.0,-0.0335,5.4649,0.0,-0.0045
87601,-106.7422,3.1248,-0.0104,-0.0987,-89.6428,-0.0,-0.061,9.7758,0.0,-0.0335,5.4649,0.0,-0.0045
87617,-106.7422,3.1248,-0.0104,-0.0987,-89.6428,-0.0,-0.061,9.7758,0.0,-0.0335,5.4649,0.0,-0.0045
87633,-106.7422,3.1248,-0.0104,-0.0987,-89.6428,-0.0,-0.061,9.7758,0.0,-0.0335,5.4649,0.0,-0.0045
87649,-106.7483,4.1035,-0.0105,-0.0944,-89.6427,-0.0,-0.0642,10.297,0.0,-0.0335,5.3659,-0.0001,-0.0001
87665,-106.7483,4.1035,-0.0105,-0.0944,-89.6427,-0.0,-0.0642,10.297,0.0,-0.0335,5.3659,-0.0001,-0.0001
87681,-106.7483,4.1035,-0.0105,-0.0944,-89.6427,-0.0,-0.0642,10.297,0.0,-0.0335,5.3659,-0.0001,-0.0001
87697,-106.7483,4.1035,-0.0105,-0.0944,-89.6427,-0.0,-0.0642,10.297,0.0,-0.0335,5.3659,-0.0001,-0.0001
87713,-106.7483,4.1035,-0.0105,-0.0944,-89.6427,-0.0,-0.0642,10.297,0.0,-0.0335,5.3659,-0.0001,-0.0001
87729,-106.7483,4.1035,-0.0105,-0.0944,-89.6427,-0.0,-0.0642,10.297,0.0,-0.0335,5.3659,-0.0001,-0.0001
87745,-106.7483,4.1035,-0.0105,-0.0944,-89.6427,-0.0,-0.0642,10.297,0.0,-0.0335,5.3659,-0.0001,-0.0001
87761,-106.7549,5.1595,-0.0105,-0.0874,-89.6427,0.0,-0.067,10.7451,0.0,-0.0243,3.9064,0.0,-0.0001
87777,-106.7549,5.1595,-0.0105,-0.0874,-89.6427,0.0,-0.067,10.7451,0.0,-0.0243,3.9064,0.0,-0.0001
87793,-106.7549,5.1595,-0.0105,-0.0874,-89.6427,0.0,-0.067,10.7451,0.0,-0.0243,3.9064,0.0,-0.0001
87809,-106.7549,5.1595,-0.0105,-0.0874,-89.6427,0.0,-0.067,10.7451,0.0,-0.0243,3.9064,0.0,-0.0001
87825,-106.7549,5.1595,-0.0105,-0.0874,-89.6427,0.0,-0.067,10.7451,0.0,-0.0243,3.9064,0.0,-0.0001
87841,-106.7549,5.1595,-0.0105,-0.0874,-89.6427,0.0,-0.067,10.7451,0.0,-0.0243,3.9064,0.0,-0.0001
87863,-106.7618,6.2575,-0.0106,-0.0794,-89.6427,0.0,-0.0696,11.1541,-0.0,-0.0255,4.0826,-0.0001,-0.0
87873,-106.7618,6.2575,-0.0106,-0.0794,-89.6427,0.0,-0.0696,11.1541,-0.0,-0.0255,4.0826,-0.0001,-0.0
87889,-106.7618,6.2575,-0.0106,-0.0794,-89.6427,0.0,-0.0696,11.1541,-0.0,-0.0255,4.0826,-0.0001,-0.0
87905,-106.7618,6.2575,-0.0106,-0.0794,-89.6427,0.0,-0.0696,11.1541,-0.0,-0.0255,4.0826,-0.0001,-0.0
87921,-106.7618,6.2575,-0.0106,-0.0794,-89.6427,0.0,-0.0696,11.1541,-0.0,-0.0255,4.0826,-0.0001,-0.0
87937,-106.7618,6.2575,-0.0106,-0.0794,-89.6427,0.0,-0.0696,11.1541,-0.0,-0.0255,4.0826,-0.0001,-0.0
87953,-106.7618,6.2575,-0.0106,-0.0794,-89.6427,0.0,-0.0696,11.1541,-0.0,-0.0255,4.0826,-0.0001,-0.0
87969,-106.7689,7.3916,-0.0106,-0.0734,-89.6427,0.0,-0.072,11.5433,0.0,-0.0243,3.9045,0.0001,-0.0
87985,-106.7689,7.3916,-0.0106,-0.0734,-89.6427,0.0,-0.072,11.5433,0.0,-0.0243,3.9045,0.0001,-0.0
88017,-106.7689,7.3916,-0.0106,-0.0734,-89.6427,0.0,-0.072,11.5433,0.0,-0.0243,3.9045,0.0001,-0.0
88033,-106.7689,7.3916,-0.0106,-0.0734,-89.6427,0.0,-0.072,11.5433,0.0,-0.0243,3.9045,0.0001,-0.0
88049,-106.7689,7.3916,-0.0106,-0.0734,-89.6427,0.0,-0.072,11.5433,0.0,-0.0243,3.9045,0.0001,-0.0
88072,-106.8062,8.5588,-0.0107,-0.0585,-91.056,0.1256,-0.9176,11.7028,0.001,-8.0186,1.5117,0.0093,-31.0183
88081,-106.8062,8.5588,-0.0107,-0.0585,-91.056,0.1256,-0.9176,11.7028,0.001,-8.0186,1.5117,0.0093,-31.0183
88097,-106.8062,8.5588,-0.0107,-0.0585,-91.056,0.1256,-0.9176,11.7028,0.001,-8.0186,1.5117,0.0093,-31.0183
88113,-106.8062,8.5588,-0.0107,-0.0585,-91.056,0.1256,-0.9176,11.7028,0.001,-8.0186,1.5117,0.0093,-31.0183
88129,-106.8062,8.5588,-0.0107,-0.0585,-91.056,0.1256,-0.9176,11.7028,0.001,-8.0186,1.5117,0.0093,-31.0183
88145,-106.8062,8.5588,-0.0107,-0.0585,-91.056,0.1256,-0.9176,11.7028,0.001,-8.0186,1.5117,0.0093,-31.0183
88161,-106.8062,8.5588,-0.0107,-0.0585,-91.056,0.1256,-0.9176,11.7028,0.001,-8.0186,1.5117,0.0093,-31.0183
88177,-106.9123,9.718,-0.0108,-0.0199,-96.8551,0.2664,-1.8904,11.5248,0.0011,-9.2664,-1.6949,0.001,-81.5796
88193,-106.9123,9.718,-0.0108,-0.0199,-96.8551,0.2664,-1.8904,11.5248,0.0011,-9.2664,-1.6949,0.001,-81.5796
88209,-106.9123,9.718,-0.0108,-0.0199,-96.8551,0.2664,-1.8904,11.5248,0.0011,-9.2664,-1.6949,0.001,-81.5796
88225,-106.9123,9.718,-0.0108,-0.0199,-96.8551,0.2664,-1.8904,11.5248,0.0011,-9.2664,-1.6949,0.001,-81.5796
88241,-106.9123,9.718,-0.0108,-0.0199,-96.8551,0.2664,-1.8904,11.5248,0.0011,-9.2664,-1.6949,0.001,-81.5796
88257,-106.9123,9.718,-0.0108,-0.0199,-96.8551,0.2664,-1.8904,11.5248,0.0011,-9.2664,-1.6949,0.001,-81.5796
88278,-107.0511,10.8398,-0.011,0.0124,-108.1455,0.2616,-2.3489,11.2953,-0.0001,-4.3031,-2.1544,-0.0111,-138.3496
88289,-107.0511,10.8398,-0.011,0.0124,-108.1455,0.2616,-2.3489,11.2953,-0.0001,-4.3031,-2.1544,-0.0111,-138.3496
88305,-107.0511,10.8398,-0.011,0.0124,-108.1455,0.2616,-2.3489,11.2953,-0.0001,-4.3031,-2.1544,-0.0111,-138.3496
88321,-107.0511,10.8398,-0.011,0.0124,-108.1455,0.2616,-2.3489,11.2953,-0.0001,-4.3031,-2.1544,-0.0111,-138.3496
88337,-107.0511,10.8398,-0.011,0.0124,-108.1455,0.2616,-2.3489,11.2953,-0.0001,-4.3031,-2.1544,-0.0111,-138.3496
88353,-107.0511,10.8398,-0.011,0.0124,-108.1455,0.2616,-2.3489,11.2953,-0.0001,-4.3031,-2.1544,-0.0111,-138.3496
88369,-107.0511,10.8398,-0.011,0.0124,-108.1455,0.2616,-2.3489,11.2953,-0.0001,-4.3031,-2.1544,-0.0111,-138.3496
88386,-107.1587,11.9106,-0.011,-0.007,-124.9138,0.102,-1.7856,11.2854,-0.0013,5.5345,-0.0969,-0.0119,-185.4146
88401,-107.1587,11.9106,-0.011,-0.007,-124.9138,0.102,-1.7856,11.2854,-0.0013,5.5345,-0.0969,-0.0119,-185.4146
88417,-107.1587,11.9106,-0.011,-0.007,-124.9138,0.102,-1.7856,11.2854,-0.0013,5.5345,-0.0969,-0.0119,-185.4146
88433,-107.1587,11.9106,-0.011,-0.007,-124.9138,0.102,-1.7856,11.2854,-0.0013,5.5345,-0.0969,-0.0119,-185.4146
88449,-107.1587,11.9106,-0.011,-0.007,-124.9138,0.102,-1.7856,11.2854,-0.0013,5.5345,-0.0969,-0.0119,-185.4146
88465,-107.1587,11.9106,-0.011,-0.007,-124.9138,0.102,-1.7856,11.2854,-0.0013,5.5345,-0.0969,-0.0119,-185.4146
88481,-107.1587,11.9106,-0.011,-0.007,-124.9138,0.102,-1.7856,11.2854,-0.0013,5.5345,-0.0969,-0.0119,-185.4146
88497,-107.133,12.9392,-0.0103,-0.1124,-144.6882,-0.1782,0.1588,11.2532,0.0011,17.2708,-0.2861,0.0213,-204.8692
88513,-107.133,12.9392,-0.0103,-0.1124,-144.6882,-0.1782,0.1588,11.2532,0.0011,17.2708,-0.2861,0.0213,-204.8692
88529,-107.133,12.9392,-0.0103,-0.1124,-144.6882,-0.1782,0.1588,11.2532,0.0011,17.2708,-0.2861,0.0213,-204.8692
88545,-107.133,12.9392,-0.0103,-0.1124,-144.6882,-0.1782,0.1588,11.2532,0.0011,17.2708,-0.2861,0.0213,-204.8692
88561,-107.133,12.9392,-0.0103,-0.1124,-144.6882,-0.1782,0.1588,11.2532,0.0011,17.2708,-0.2861,0.0213,-204.8692
88577,-107.133,12.9392,-0.0103,-0.1124,-144.6882,-0.1782,0.1588,11.2532,0.0011,17.2708,-0.2861,0.0213,-204.8692
88609,-106.9235,13.8883,-0.0092,-0.2231,-165.6928,-0.4193,2.4977,10.4845,0.002,22.1414,-7.2769,0.0086,-213.698
88625,-106.9235,13.8883,-0.0092,-0.2231,-165.6928,-0.4193,2.4977,10.4845,0.002,22.1414,-7.2769,0.0086,-213.698
88641,-106.9235,13.8883,-0.0092,-0.2231,-165.6928,-0.4193,2.4977,10.4845,0.002,22.1414,-7.2769,0.0086,-213.698
88657,-106.9235,13.8883,-0.0092,-0.2231,-165.6928,-0.4193,2.4977,10.4845,0.002,22.1414,-7.2769,0.0086,-213.698
88673,-106.9235,13.8883,-0.0092,-0.2231,-165.6928,-0.4193,2.4977,10.4845,0.002,22.1414,-7.2769,0.0086,-213.698
88689,-106.9235,13.8883,-0.0092,-0.2231,-165.6928,-0.4193,2.4977,10.4845,0.002,22.1414,-7.2769,0.0086,-213.698
88705,-106.5757,14.6682,-0.0087,-0.2721,172.873,-0.6714,3.8527,8.2953,0.0022,12.6671,-20.4653,0.002,-212.8792
88721,-106.5757,14.6682,-0.0087,-0.2721,172.873,-0.6714,3.8527,8.2953,0.0022,12.6671,-20.4653,0.002,-212.8792
88737,-106.5757,14.6682,-0.0087,-0.2721,172.873,-0.6714,3.8527,8.2953,0.0022,12.6671,-20.4653,0.002,-212.8792
88753,-106.5757,14.6682,-0.0087,-0.2721,172.873,-0.6714,3.8527,8.2953,0.0022,12.6671,-20.4653,0.002,-212.8792
88769,-106.5757,14.6682,-0.0087,-0.2721,172.873,-0.6714,3.8527,8.2953,0.0022,12.6671,-20.4653,0.002,-212.8792
88785,-106.5757,14.6682,-0.0087,-0.2721,172.873,-0.6714,3.8527,8.2953,0.0022,12.6671,-20.4653,0.002,-212.8792
88807,-106.2822,15.2365,-0.0092,-0.1953,152.9502,-0.8659,2.5739,6.2912,-0.0026,-12.4539,-19.5182,-0.047,-185.7484
88817,-106.2822,15.2365,-0.0092,-0.1953,152.9502,-0.8659,2.5739,6.2912,-0.0026,-12.4539,-19.5182,-0.047,-185.7484
88833,-106.2822,15.2365,-0.0092,-0.1953,152.9502,-0.8659,2.5739,6.2912,-0.0026,-12.4539,-19.5182,-0.047,-185.7484
88849,-106.2822,15.2365,-0.0092,-0.1953,152.9502,-0.8659,2.5739,6.2912,-0.0026,-12.4539,-19.5182,-0.047,-185.7484
88865,-106.2822,15.2365,-0.0092,-0.1953,152.9502,-0.8659,2.5739,6.2912,-0.0026,-12.4539,-19.5182,-0.047,-185.7484
88881,-106.2822,15.2365,-0.0092,-0.1953,152.9502,-0.8659,2.5739,6.2912,-0.0026,-12.4539,-19.5182,-0.047,-185.7484
88897,-106.2822,15.2365,-0.0092,-0.1953,152.9502,-0.8659,2.5739,6.2912,-0.0026,-12.4539,-19.5182,-0.047,-185.7484
88913,-106.2247,15.7219,-0.0102,-0.0259,136.4134,-0.9164,0.2184,5.85,0.0014,-23.6686,-4.4328,0.0399,-143.0843
88929,-106.2247,15.7219,-0.0102,-0.0259,136.4134,-0.9164,0.2184,5.85,0.0014,-23.6686,-4.4328,0.0399,-143.0843
88945,-106.2247,15.7219,-0.0102,-0.0259,136.4134,-0.9164,0.2184,5.85,0.0014,-23.6686,-4.4328,0.0399,-143.0843
88961,-106.2247,15.7219,-0.0102,-0.0259,136.4134,-0.9164,0.2184,5.85,0.0014,-23.6686,-4.4328,0.0399,-143.0843
88977,-106.2247,15.7219,-0.0102,-0.0259,136.4134,-0.9164,0.2184,5.85,0.0014,-23.6686,-4.4328,0.0399,-143.0843
88993,-106.2247,15.7219,-0.0102,-0.0259,136.4134,-0.9164,0.2184,5.85,0.0014,-23.6686,-4.4328,0.0399,-143.0843
89009,-106.3758,16.2769,-0.0115,0.1409,125.4021,-0.7537,-1.6603,6.8292,-0.001,-19.6834,10.2588,-0.0251,-95.8316
89025,-106.3758,16.2769,-0.0115,0.1409,125.4021,-0.7537,-1.6603,6.8292,-0.001,-19.6834,10.2588,-0.0251,-95.8316
89041,-106.3758,16.2769,-0.0115,0.1409,125.4021,-0.7537,-1.6603,6.8292,-0.001,-19.6834,10.2588,-0.0251,-95.8316
89057,-106.3758,16.2769,-0.0115,0.1409,125.4021,-0.7537,-1.6603,6.8292,-0.001,-19.6834,10.2588,-0.0251,-95.8316
89073,-106.3758,16.2769,-0.0115,0.1409,125.4021,-0.7537,-1.6603,6.8292,-0.001,-19.6834,10.2588,-0.0251,-95.8316
89089,-106.3758,16.2769,-0.0115,0.1409,125.4021,-0.7537,-1.6603,6.8292,-0.001,-19.6834,10.2588,-0.0251,-95.8316
89121,-106.6091,16.9875,-0.0121,0.198,116.6303,-0.3905,-1.6828,7.8326,-0.0028,-0.2002,8.9519,-0.0156,-86.2336
89137,-106.6091,16.9875,-0.0121,0.198,116.6303,-0.3905,-1.6828,7.8326,-0.0028,-0.2002,8.9519,-0.0156,-86.2336
89153,-106.6091,16.9875,-0.0121,0.198,116.6303,-0.3905,-1.6828,7.8326,-0.0028,-0.2002,8.9519,-0.0156,-86.2336
89169,-106.6091,16.9875,-0.0121,0.198,116.6303,-0.3905,-1.6828,7.8326,-0.0028,-0.2002,8.9519,-0.0156,-86.2336
89185,-106.6091,16.9875,-0.0121,0.198,116.6303,-0.3905,-1.6828,7.8326,-0.0028,-0.2002,8.9519,-0.0156,-86.2336
89201,-106.6091,16.9875,-0.0121,0.198,116.6303,-0.3905,-1.6828,7.8326,-0.0028,-0.2002,8.9519,-0.0156,-86.2336
89217,-106.8226,17.7328,-0.0123,0.1831,110.428,-0.2321,-2.1953,8.28,-0.0019,-5.4726,4.778,0.0088,-44.0329
89233,-106.8226,17.7328,-0.0123,0.1831,110.428,-0.2321,-2.1953,8.28,-0.0019,-5.4726,4.778,0.0088,-44.0329
89249,-106.8226,17.7328,-0.0123,0.1831,110.428,-0.2321,-2.1953,8.28,-0.0019,-5.4726,4.778,0.0088,-44.0329
89265,-106.8226,17.7328,-0.0123,0.1831,110.428,-0.2321,-2.1953,8.28,-0.0019,-5.4726,4.778,0.0088,-44.0329
89281,-106.8226,17.7328,-0.0123,0.1831,110.428,-0.2321,-2.1953,8.28,-0.0019,-5.4726,4.778,0.0088,-44.0329
89297,-106.8226,17.7328,-0.0123,0.1831,110.428,-0.2321,-2.1953,8.28,-0.0019,-5.4726,4.778,0.0088,-44.0329
89313,-106.8226,17.7328,-0.0123,0.1831,110.428,-0.2321,-2.1953,8.28,-0.0019,-5.4726,4.778,0.0088,-44.0329
89329,-107.0911,18.558,-0.012,0.1306,108.256,-0.2283,-2.6793,8.3433,-0.0002,-4.7863,0.6256,0.0169,-11.7779
89345,-107.0911,18.558,-0.012,0.1306,108.256,-0.2283,-2.6793,8.3433,-0.0002,-4.7863,0.6256,0.0169,-11.7779
89361,-107.0911,18.558,-0.012,0.1306,108.256,-0.2283,-2.6793,8.3433,-0.0002,-4.7863,0.6256,0.0169,-11.7779
89377,-107.0911,18.558,-0.012,0.1306,108.256,-0.2283,-2.6793,8.3433,-0.0002,-4.7863,0.6256,0.0169,-11.7779
89393,-107.0911,18.558,-0.012,0.1306,108.256,-0.2283,-2.6793,8.3433,-0.0002,-4.7863,0.6256,0.0169,-11.7779
89414,-107.3662,19.3973,-0.0117,0.0846,107.7039,-0.1451,-2.7322,8.458,-0.0005,-0.5041,1.0929,-0.0029,-3.8062
89425,-107.3662,19.3973,-0.0117,0.0846,107.7039,-0.1451,-2.7322,8.458,-0.0005,-0.5041,1.0929,-0.0029,-3.8062
89441,-107.3662,19.3973,-0.0117,0.0846,107.7039,-0.1451,-2.7322,8.458,-0.0005,-0.5041,1.0929,-0.0029,-3.8062
89457,-107.3662,19.3973,-0.0117,0.0846,107.7039,-0.1451,-2.7322,8.458,-0.0005,-0.5041,1.0929,-0.0029,-3.8062
89473,-107.3662,19.3973,-0.0117,0.0846,107.7039,-0.1451,-2.7322,8.458,-0.0005,-0.5041,1.0929,-0.0029,-3.8062
89489,-107.3662,19.3973,-0.0117,0.0846,107.7039,-0.1451,-2.7322,8.458,-0.0005,-0.5041,1.0929,-0.0029,-3.8062
89505,-107.3662,19.3973,-0.0117,0.0846,107.7039,-0.1451,-2.7322,8.458,-0.0005,-0.5041,1.0929,-0.0029,-3.8062
89521,-107.6374,20.2402,-0.0115,0.0553,107.5587,-0.0793,-2.7354,8.5609,-0.0005,-0.0325,1.0394,0.0006,-1.7116
89537,-107.6374,20.2402,-0.0115,0.0553,107.5587,-0.0793,-2.7354,8.5609,-0.0005,-0.0325,1.0394,0.0006,-1.7116
89553,-107.6374,20.2402,-0.0115,0.0553,107.5587,-0.0793,-2.7354,8.5609,-0.0005,-0.0325,1.0394,0.0006,-1.7116
89569,-107.6374,20.2402,-0.0115,0.0553,107.5587,-0.0793,-2.7354,8.5609,-0.0005,-0.0325,1.0394,0.0006,-1.7116
89585,-107.6374,20.2402,-0.0115,0.0553,107.5587,-0.0793,-2.7354,8.5609,-0.0005,-0.0325,1.0394,0.0006,-1.7116
89601,-107.6374,20.2402,-0.0115,0.0553,107.5587,-0.0793,-2.7354,8.5609,-0.0005,-0.0325,1.0394,0.0006,-1.7116
89617,-107.9113,21.1008,-0.0114,0.0372,107.5186,-0.0414,-2.7424,8.6437,-0.0003,-0.0689,0.8141,0.0021,-1.1683
89633,-107.9113,21.1008,-0.0114,0.0372,107.5186,-0.0414,-2.7424,8.6437,-0.0003,-0.0689,0.8141,0.0021,-1.1683
89649,-107.9113,21.1008,-0.0114,0.0372,107.5186,-0.0414,-2.7424,8.6437,-0.0003,-0.0689,0.8141,0.0021,-1.1683
89665,-107.9113,21.1008,-0.0114,0.0372,107.5186,-0.0414,-2.7424,8.6437,-0.0003,-0.0689,0.8141,0.0021,-1.1683
89681,-107.9113,21.1008,-0.0114,0.0372,107.5186,-0.0414,-2.7424,8.6437,-0.0003,-0.0689,0.8141,0.0021,-1.1683
89697,-107.9113,21.1008,-0.0114,0.0372,107.5186,-0.0414,-2.7424,8.6437,-0.0003,-0.0689,0.8141,0.0021,-1.1683
89718,-108.1862,21.9693,-0.0113,0.0264,107.5073,-0.0216,-2.7567,8.7177,-0.0001,-0.1375,0.7138,0.0016,-1.0049
89729,-108.1862,21.9693,-0.0113,0.0264,107.5073,-0.0216,-2.7567,8.7177,-0.0001,-0.1375,0.7138,0.0016,-1.0049
89745,-108.1862,21.9693,-0.0113,0.0264,107.5073,-0.0216,-2.7567,8.7177,-0.0001,-0.1375,0.7138,0.0016,-1.0049
89761,-108.1862,21.9693,-0.0113,0.0264,107.5073,-0.0216,-2.7567,8.7177,-0.0001,-0.1375,0.7138,0.0016,-1.0049
89777,-108.1862,21.9693,-0.0113,0.0264,107.5073,-0.0216,-2.7567,8.7177,-0.0001,-0.1375,0.7138,0.0016,-1.0049
89793,-108.1862,21.9693,-0.0113,0.0264,107.5073,-0.0216,-2.7567,8.7177,-0.0001,-0.1375,0.7138,0.0016,-1.0049
89809,-108.1862,21.9693,-0.0113,0.0264,107.5073,-0.0216,-2.7567,8.7177,-0.0001,-0.1375,0.7138,0.0016,-1.0049
89825,-108.4579,22.8294,-0.0113,0.0206,107.5043,-0.0117,-2.7759,8.7911,-0.0,-0.196,0.7472,0.0007,-0.9116
89841,-108.4579,22.8294,-0.0113,0.0206,107.5043,-0.0117,-2.7759,8.7911,-0.0,-0.196,0.7472,0.0007,-0.9116
89857,-108.4579,22.8294,-0.0113,0.0206,107.5043,-0.0117,-2.7759,8.7911,-0.0,-0.196,0.7472,0.0007,-0.9116
89873,-108.4579,22.8294,-0.0113,0.0206,107.5043,-0.0117,-2.7759,8.7911,-0.0,-0.196,0.7472,0.0007,-0.9116
89889,-108.4579,22.8294,-0.0113,0.0206,107.5043,-0.0117,-2.7759,8.7911,-0.0,-0.196,0.7472,0.0007,-0.9116
89905,-108.4579,22.8294,-0.0113,0.0206,107.5043,-0.0117,-2.7759,8.7911,-0.0,-0.196,0.7472,0.0007,-0.9116
89921,-108.4579,22.8294,-0.0113,0.0206,107.5043,-0.0117,-2.7759,8.7911,-0.0,-0.196,0.7472,0.0007,-0.9116
89937,-108.7365,23.712,-0.0113,0.0167,107.5033,-0.0063,-2.7943,8.8545,-0.0,-0.1609,0.5546,0.0002,-0.9285
89953,-108.7365,23.712,-0.0113,0.0167,107.5033,-0.0063,-2.7943,8.8545,-0.0,-0.1609,0.5546,0.0002,-0.9285
89969,-108.7365,23.712,-0.0113,0.0167,107.5033,-0.0063,-2.7943,8.8545,-0.0,-0.1609,0.5546,0.0002,-0.9285
89985,-108.7365,23.712,-0.0113,0.0167,107.5033,-0.0063,-2.7943,8.8545,-0.0,-0.1609,0.5546,0.0002,-0.9285
90001,-108.7365,23.712,-0.0113,0.0167,107.5033,-0.0063,-2.7943,8.8545,-0.0,-0.1609,0.5546,0.0002,-0.9285
90017,-108.7365,23.712,-0.0113,0.0167,107.5033,-0.0063,-2.7943,8.8545,-0.0,-0.1609,0.5546,0.0002,-0.9285
90033,-108.7365,23.712,-0.0113,0.0167,107.5033,-0.0063,-2.7943,8.8545,-0.0,-0.1609,0.5546,0.0002,-0.9285
90049,-109.0169,24.6009,-0.0113,0.0144,107.503,-0.0034,-2.8134,8.9172,0.0,-0.1719,0.5641,0.0001,-0.9153
90065,-109.0169,24.6009,-0.0113,0.0144,107.503,-0.0034,-2.8134,8.9172,0.0,-0.1719,0.5641,0.0001,-0.9153
90081,-109.0169,24.6009,-0.0113,0.0144,107.503,-0.0034,-2.8134,8.9172,0.0,-0.1719,0.5641,0.0001,-0.9153
90097,-109.0169,24.6009,-0.0113,0.0144,107.503,-0.0034,-2.8134,8.9172,0.0,-0.1719,0.5641,0.0001,-0.9153
90113,-109.0169,24.6009,-0.0113,0.0144,107.503,-0.0034,-2.8134,8.9172,0.0,-0.1719,0.5641,0.0001,-0.9153
90129,-109.0169,24.6009,-0.0113,0.0144,107.503,-0.0034,-2.8134,8.9172,0.0,-0.1719,0.5641,0.0001,-0.9153
90151,-109.2993,25.496,-0.0113,0.013,107.5029,-0.0019,-2.8326,8.9788,0.0,-0.1859,0.598,0.0,-0.905
90161,-109.2993,25.496,-0.0113,0.013,107.5029,-0.0019,-2.8326,8.9788,0.0,-0.1859,0.598,0.0,-0.905
90177,-109.2993,25.496,-0.0113,0.013,107.5029,-0.0019,-2.8326,8.9788,0.0,-0.1859,0.598,0.0,-0.905
90193,-109.2993,25.496,-0.0113,0.013,107.5029,-0.0019,-2.8326,8.9788,0.0,-0.1859,0.598,0.0,-0.905
90209,-109.2993,25.496,-0.0113,0.013,107.5029,-0.0019,-2.8326,8.9788,0.0,-0.1859,0.598,0.0,-0.905
90225,-109.2993,25.496,-0.0113,0.013,107.5029,-0.0019,-2.8326,8.9788,0.0,-0.1859,0.598,0.0,-0.905
90241,-109.2993,25.496,-0.0113,0.013,107.5029,-0.0019,-2.8326,8.9788,0.0,-0.1859,0.598,0.0,-0.905
90257,-109.5836,26.3973,-0.0112,0.0122,107.503,-0.0011,-2.8515,9.0392,0.0,-0.1815,0.5794,-0.0,-0.8955
90273,-109.5836,26.3973,-0.0112,0.0122,107.503,-0.0011,-2.8515,9.0392,0.0,-0.1815,0.5794,-0.0,-0.8955
90289,-109.5836,26.3973,-0.0112,0.0122,107.503,-0.0011,-2.8515,9.0392,0.0,-0.1815,0.5794,-0.0,-0.8955
