timestamp,x,y,z,pitch,yaw,roll,vx,vy,vz,ax,ay,az,yaw_rate
235230,-106.6867,-4.8475,-0.0789,0.0,-89.3578,0.0,-0.0,0.0,0.095,-0.0,0.0,5.9234,0.0
235246,-106.6867,-4.8475,-0.0789,0.0,-89.3578,0.0,-0.0,0.0,0.095,-0.0,0.0,5.9234,0.0
235262,-106.6867,-4.8475,-0.0789,0.0,-89.3578,0.0,-0.0,0.0,0.095,-0.0,0.0,5.9234,0.0
235278,-106.6867,-4.8475,-0.0789,0.0,-89.3578,0.0,-0.0,0.0,0.095,-0.0,0.0,5.9234,0.0
235294,-106.6867,-4.8475,-0.0789,0.0,-89.3578,0.0,-0.0,0.0,0.095,-0.0,0.0,5.9234,0.0
235310,-106.6867,-4.8475,-0.0789,0.0,-89.3578,0.0,-0.0,0.0,0.095,-0.0,0.0,5.9234,0.0
235326,-106.6867,-4.8475,-0.0789,0.0,-89.3578,0.0,-0.0,0.0,0.095,-0.0,0.0,5.9234,0.0
235342,-106.6867,-4.8475,-0.0789,0.0,-89.3578,0.0,-0.0,0.0,0.095,-0.0,0.0,5.9234,0.0
235358,-106.6867,-4.8475,-0.0789,0.0,-89.3578,0.0,-0.0,0.0,0.095,-0.0,0.0,5.9234,0.0
235374,-106.6867,-4.8475,-0.0789,0.0,-89.3578,0.0,-0.0,0.0,0.095,-0.0,0.0,5.9234,0.0
235390,-106.6867,-4.8475,-0.0789,0.0,-89.3578,0.0,-0.0,0.0,0.095,-0.0,0.0,5.9234,0.0
235406,-106.6867,-4.8475,-0.0789,0.0,-89.3578,0.0,-0.0,0.0,0.095,-0.0,0.0,5.9234,0.0
235422,-106.6867,-4.8475,-0.0789,0.0,-89.3578,0.0,-0.0,0.0,0.095,-0.0,0.0,5.9234,0.0
235438,-106.6867,-4.8475,-0.0789,0.0,-89.3578,0.0,-0.0,0.0,0.095,-0.0,0.0,5.9234,0.0
235454,-106.6867,-4.8475,-0.0789,0.0,-89.3578,0.0,-0.0,0.0,0.095,-0.0,0.0,5.9234,0.0
235470,-106.6867,-4.8475,-0.0789,0.0,-89.3578,0.0,-0.0,0.0,0.095,-0.0,0.0,5.9234,0.0
235486,-106.6867,-4.8475,-0.0789,0.0,-89.3578,0.0,-0.0,0.0,0.095,-0.0,0.0,5.9234,0.0
235502,-106.6867,-4.8475,-0.0789,0.0,-89.3578,0.0,-0.0,0.0,0.095,-0.0,0.0,5.9234,0.0
235518,-106.6867,-4.8475,-0.0789,0.0,-89.3578,0.0,-0.0,0.0,0.095,-0.0,0.0,5.9234,0.0
235534,-106.6867,-4.8475,-0.0789,0.0,-89.3578,0.0,-0.0,0.0,0.095,-0.0,0.0,5.9234,0.0
235550,-106.6867,-4.8475,-0.0789,0.0,-89.3578,0.0,-0.0,0.0,0.095,-0.0,0.0,5.9234,0.0
235566,-106.6868,-4.8454,-0.0582,-0.0018,-89.3578,0.0,-0.0005,0.0436,0.2357,-0.0015,0.1334,0.4305,0.0001
235582,-106.6868,-4.8454,-0.0582,-0.0018,-89.3578,0.0,-0.0005,0.0436,0.2357,-0.0015,0.1334,0.4305,0.0001
235598,-106.6868,-4.8454,-0.0582,-0.0018,-89.3578,0.0,-0.0005,0.0436,0.2357,-0.0015,0.1334,0.4305,0.0001
235614,-106.6868,-4.8454,-0.0582,-0.0018,-89.3578,0.0,-0.0005,0.0436,0.2357,-0.0015,0.1334,0.4305,0.0001
235630,-106.6868,-4.8454,-0.0582,-0.0018,-89.3578,0.0,-0.0005,0.0436,0.2357,-0.0015,0.1334,0.4305,0.0001
235646,-106.6868,-4.8454,-0.0582,-0.0018,-89.3578,0.0,-0.0005,0.0436,0.2357,-0.0015,0.1334,0.4305,0.0001
235662,-106.6868,-4.8454,-0.0582,-0.0018,-89.3578,0.0,-0.0005,0.0436,0.2357,-0.0015,0.1334,0.4305,0.0001
235678,-106.6868,-4.8454,-0.0582,-0.0018,-89.3578,0.0,-0.0005,0.0436,0.2357,-0.0015,0.1334,0.4305,0.0001
235694,-106.6868,-4.8402,-0.0377,-0.0053,-89.3578,0.0,-0.0013,0.1183,0.171,-0.0064,0.5764,-0.4986,-0.0033
235710,-106.6868,-4.8402,-0.0377,-0.0053,-89.3578,0.0,-0.0013,0.1183,0.171,-0.0064,0.5764,-0.4986,-0.0033
235726,-106.6868,-4.8402,-0.0377,-0.0053,-89.3578,0.0,-0.0013,0.1183,0.171,-0.0064,0.5764,-0.4986,-0.0033
235742,-106.6868,-4.8402,-0.0377,-0.0053,-89.3578,0.0,-0.0013,0.1183,0.171,-0.0064,0.5764,-0.4986,-0.0033
235758,-106.6868,-4.8402,-0.0377,-0.0053,-89.3578,0.0,-0.0013,0.1183,0.171,-0.0064,0.5764,-0.4986,-0.0033
235774,-106.6868,-4.8402,-0.0377,-0.0053,-89.3578,0.0,-0.0013,0.1183,0.171,-0.0064,0.5764,-0.4986,-0.0033
235790,-106.6868,-4.8402,-0.0377,-0.0053,-89.3578,0.0,-0.0013,0.1183,0.171,-0.0064,0.5764,-0.4986,-0.0033
235806,-106.6873,-4.7995,-0.0246,-0.0318,-89.3576,0.0,-0.0072,0.6395,0.0981,-0.0571,5.0965,-0.7132,-0.0018
235822,-106.6873,-4.7995,-0.0246,-0.0318,-89.3576,0.0,-0.0072,0.6395,0.0981,-0.0571,5.0965,-0.7132,-0.0018
235838,-106.6873,-4.7995,-0.0246,-0.0318,-89.3576,0.0,-0.0072,0.6395,0.0981,-0.0571,5.0965,-0.7132,-0.0018
235854,-106.6873,-4.7995,-0.0246,-0.0318,-89.3576,0.0,-0.0072,0.6395,0.0981,-0.0571,5.0965,-0.7132,-0.0018
235870,-106.6873,-4.7995,-0.0246,-0.0318,-89.3576,0.0,-0.0072,0.6395,0.0981,-0.0571,5.0965,-0.7132,-0.0018
235886,-106.6873,-4.7995,-0.0246,-0.0318,-89.3576,0.0,-0.0072,0.6395,0.0981,-0.0571,5.0965,-0.7132,-0.0018
235902,-106.6882,-4.7127,-0.0175,-0.0489,-89.3599,0.0,-0.0116,1.0207,0.0507,-0.0419,3.6129,-0.4494,-0.0722
235918,-106.6882,-4.7127,-0.0175,-0.0489,-89.3599,0.0,-0.0116,1.0207,0.0507,-0.0419,3.6129,-0.4494,-0.0722
235934,-106.6882,-4.7127,-0.0175,-0.0489,-89.3599,0.0,-0.0116,1.0207,0.0507,-0.0419,3.6129,-0.4494,-0.0722
235950,-106.6882,-4.7127,-0.0175,-0.0489,-89.3599,0.0,-0.0116,1.0207,0.0507,-0.0419,3.6129,-0.4494,-0.0722
235966,-106.6882,-4.7127,-0.0175,-0.0489,-89.3599,0.0,-0.0116,1.0207,0.0507,-0.0419,3.6129,-0.4494,-0.0722
235982,-106.6882,-4.7127,-0.0175,-0.0489,-89.3599,0.0,-0.0116,1.0207,0.0507,-0.0419,3.6129,-0.4494,-0.0722
235998,-106.6882,-4.7127,-0.0175,-0.0489,-89.3599,0.0,-0.0116,1.0207,0.0507,-0.0419,3.6129,-0.4494,-0.0722
236014,-106.6897,-4.5987,-0.0135,-0.0496,-89.3401,0.0005,-0.0164,1.2812,0.0261,-0.0447,2.396,-0.2255,0.2768
236030,-106.6897,-4.5987,-0.0135,-0.0496,-89.3401,0.0005,-0.0164,1.2812,0.0261,-0.0447,2.396,-0.2255,0.2768
236046,-106.6897,-4.5987,-0.0135,-0.0496,-89.3401,0.0005,-0.0164,1.2812,0.0261,-0.0447,2.396,-0.2255,0.2768
236062,-106.6897,-4.5987,-0.0135,-0.0496,-89.3401,0.0005,-0.0164,1.2812,0.0261,-0.0447,2.396,-0.2255,0.2768
236078,-106.6897,-4.5987,-0.0135,-0.0496,-89.3401,0.0005,-0.0164,1.2812,0.0261,-0.0447,2.396,-0.2255,0.2768
236094,-106.6897,-4.5987,-0.0135,-0.0496,-89.3401,0.0005,-0.0164,1.2812,0.0261,-0.0447,2.396,-0.2255,0.2768
236113,-106.6913,-4.4776,-0.0121,-0.0301,-89.3292,0.0002,-0.015,1.2476,0.0101,0.0135,-0.3087,-0.1476,0.0364
236126,-106.6913,-4.4776,-0.0121,-0.0301,-89.3292,0.0002,-0.015,1.2476,0.0101,0.0135,-0.3087,-0.1476,0.0364
236142,-106.6913,-4.4776,-0.0121,-0.0301,-89.3292,0.0002,-0.015,1.2476,0.0101,0.0135,-0.3087,-0.1476,0.0364
236158,-106.6913,-4.4776,-0.0121,-0.0301,-89.3292,0.0002,-0.015,1.2476,0.0101,0.0135,-0.3087,-0.1476,0.0364
236174,-106.6913,-4.4776,-0.0121,-0.0301,-89.3292,0.0002,-0.015,1.2476,0.0101,0.0135,-0.3087,-0.1476,0.0364
236190,-106.6913,-4.4776,-0.0121,-0.0301,-89.3292,0.0002,-0.015,1.2476,0.0101,0.0135,-0.3087,-0.1476,0.0364
236206,-106.6913,-4.4776,-0.0121,-0.0301,-89.3292,0.0002,-0.015,1.2476,0.0101,0.0135,-0.3087,-0.1476,0.0364
236222,-106.6938,-4.3511,-0.0115,-0.026,-89.2424,0.0021,-0.0364,1.5049,0.0043,-0.2108,2.537,-0.0574,1.8009
236238,-106.6938,-4.3511,-0.0115,-0.026,-89.2424,0.0021,-0.0364,1.5049,0.0043,-0.2108,2.537,-0.0574,1.8009
236254,-106.6938,-4.3511,-0.0115,-0.026,-89.2424,0.0021,-0.0364,1.5049,0.0043,-0.2108,2.537,-0.0574,1.8009
236270,-106.6938,-4.3511,-0.0115,-0.026,-89.2424,0.0021,-0.0364,1.5049,0.0043,-0.2108,2.537,-0.0574,1.8009
236286,-106.6938,-4.3511,-0.0115,-0.026,-89.2424,0.0021,-0.0364,1.5049,0.0043,-0.2108,2.537,-0.0574,1.8009
236302,-106.6938,-4.3511,-0.0115,-0.026,-89.2424,0.0021,-0.0364,1.5049,0.0043,-0.2108,2.537,-0.0574,1.8009
236322,-106.6938,-4.3511,-0.0115,-0.026,-89.2424,0.0021,-0.0364,1.5049,0.0043,-0.2108,2.537,-0.0574,1.8009
236334,-106.6966,-4.1832,-0.0111,-0.0425,-89.2484,0.0002,-0.0262,1.8625,0.0019,0.0942,3.3049,-0.022,-2.6383
236350,-106.6966,-4.1832,-0.0111,-0.0425,-89.2484,0.0002,-0.0262,1.8625,0.0019,0.0942,3.3049,-0.022,-2.6383
236366,-106.6966,-4.1832,-0.0111,-0.0425,-89.2484,0.0002,-0.0262,1.8625,0.0019,0.0942,3.3049,-0.022,-2.6383
236382,-106.6966,-4.1832,-0.0111,-0.0425,-89.2484,0.0002,-0.0262,1.8625,0.0019,0.0942,3.3049,-0.022,-2.6383
236398,-106.6966,-4.1832,-0.0111,-0.0425,-89.2484,0.0002,-0.0262,1.8625,0.0019,0.0942,3.3049,-0.022,-2.6383
236414,-106.6966,-4.1832,-0.0111,-0.0425,-89.2484,0.0002,-0.0262,1.8625,0.0019,0.0942,3.3049,-0.022,-2.6383
236430,-106.6987,-3.9715,-0.0108,-0.0609,-89.3432,-0.0004,-0.0399,2.4004,0.0009,-0.1351,5.3084,-0.0098,2.7548
236446,-106.6987,-3.9715,-0.0108,-0.0609,-89.3432,-0.0004,-0.0399,2.4004,0.0009,-0.1351,5.3084,-0.0098,2.7548
236462,-106.6987,-3.9715,-0.0108,-0.0609,-89.3432,-0.0004,-0.0399,2.4004,0.0009,-0.1351,5.3084,-0.0098,2.7548
236478,-106.6987,-3.9715,-0.0108,-0.0609,-89.3432,-0.0004,-0.0399,2.4004,0.0009,-0.1351,5.3084,-0.0098,2.7548
236494,-106.6987,-3.9715,-0.0108,-0.0609,-89.3432,-0.0004,-0.0399,2.4004,0.0009,-0.1351,5.3084,-0.0098,2.7548
236510,-106.6987,-3.9715,-0.0108,-0.0609,-89.3432,-0.0004,-0.0399,2.4004,0.0009,-0.1351,5.3084,-0.0098,2.7548
236526,-106.6987,-3.9715,-0.0108,-0.0609,-89.3432,-0.0004,-0.0399,2.4004,0.0009,-0.1351,5.3084,-0.0098,2.7548
236542,-106.703,-3.7025,-0.0107,-0.0685,-89.2411,-0.0002,-0.0358,2.7458,0.0004,0.0361,3.0652,-0.0041,2.9236
236558,-106.703,-3.7025,-0.0107,-0.0685,-89.2411,-0.0002,-0.0358,2.7458,0.0004,0.0361,3.0652,-0.0041,2.9236
236574,-106.703,-3.7025,-0.0107,-0.0685,-89.2411,-0.0002,-0.0358,2.7458,0.0004,0.0361,3.0652,-0.0041,2.9236
236590,-106.703,-3.7025,-0.0107,-0.0685,-89.2411,-0.0002,-0.0358,2.7458,0.0004,0.0361,3.0652,-0.0041,2.9236
236606,-106.703,-3.7025,-0.0107,-0.0685,-89.2411,-0.0002,-0.0358,2.7458,0.0004,0.0361,3.0652,-0.0041,2.9236
236622,-106.703,-3.7025,-0.0107,-0.0685,-89.2411,-0.0002,-0.0358,2.7458,0.0004,0.0361,3.0652,-0.0041,2.9236
236645,-106.7072,-3.3802,-0.0105,-0.0867,-89.2614,-0.0002,-0.0462,3.5166,0.0002,-0.1055,7.794,-0.0024,-0.936
236654,-106.7072,-3.3802,-0.0105,-0.0867,-89.2614,-0.0002,-0.0462,3.5166,0.0002,-0.1055,7.794,-0.0024,-0.936
236670,-106.7072,-3.3802,-0.0105,-0.0867,-89.2614,-0.0002,-0.0462,3.5166,0.0002,-0.1055,7.794,-0.0024,-0.936
236686,-106.7072,-3.3802,-0.0105,-0.0867,-89.2614,-0.0002,-0.0462,3.5166,0.0002,-0.1055,7.794,-0.0024,-0.936
236702,-106.7072,-3.3802,-0.0105,-0.0867,-89.2614,-0.0002,-0.0462,3.5166,0.0002,-0.1055,7.794,-0.0024,-0.936
236718,-106.7072,-3.3802,-0.0105,-0.0867,-89.2614,-0.0002,-0.0462,3.5166,0.0002,-0.1055,7.794,-0.0024,-0.936
236734,-106.7126,-3.0008,-0.0106,-0.0821,-89.2146,0.0001,-0.053,3.9248,0.0001,-0.0671,4.0548,-0.0009,1.2592
236750,-106.7126,-3.0008,-0.0106,-0.0821,-89.2146,0.0001,-0.053,3.9248,0.0001,-0.0671,4.0548,-0.0009,1.2592
236766,-106.7126,-3.0008,-0.0106,-0.0821,-89.2146,0.0001,-0.053,3.9248,0.0001,-0.0671,4.0548,-0.0009,1.2592
236782,-106.7126,-3.0008,-0.0106,-0.0821,-89.2146,0.0001,-0.053,3.9248,0.0001,-0.0671,4.0548,-0.0009,1.2592
236798,-106.7126,-3.0008,-0.0106,-0.0821,-89.2146,0.0001,-0.053,3.9248,0.0001,-0.0671,4.0548,-0.0009,1.2592
236814,-106.7126,-3.0008,-0.0106,-0.0821,-89.2146,0.0001,-0.053,3.9248,0.0001,-0.0671,4.0548,-0.0009,1.2592
236830,-106.7126,-3.0008,-0.0106,-0.0821,-89.2146,0.0001,-0.053,3.9248,0.0001,-0.0671,4.0548,-0.0009,1.2592
236846,-106.7185,-2.5741,-0.0106,-0.081,-89.2166,0.0004,-0.0613,4.4588,0.0,-0.0804,5.1394,-0.0006,-0.2827
236862,-106.7185,-2.5741,-0.0106,-0.081,-89.2166,0.0004,-0.0613,4.4588,0.0,-0.0804,5.1394,-0.0006,-0.2827
236878,-106.7185,-2.5741,-0.0106,-0.081,-89.2166,0.0004,-0.0613,4.4588,0.0,-0.0804,5.1394,-0.0006,-0.2827
236894,-106.7185,-2.5741,-0.0106,-0.081,-89.2166,0.0004,-0.0613,4.4588,0.0,-0.0804,5.1394,-0.0006,-0.2827
236910,-106.7185,-2.5741,-0.0106,-0.081,-89.2166,0.0004,-0.0613,4.4588,0.0,-0.0804,5.1394,-0.0006,-0.2827
236926,-106.7185,-2.5741,-0.0106,-0.081,-89.2166,0.0004,-0.0613,4.4588,0.0,-0.0804,5.1394,-0.0006,-0.2827
236942,-106.7185,-2.5741,-0.0106,-0.081,-89.2166,0.0004,-0.0613,4.4588,0.0,-0.0804,5.1394,-0.0006,-0.2827
236958,-106.7255,-2.0873,-0.0105,-0.09,-89.186,0.0005,-0.0729,5.1329,0.0,-0.1127,6.5612,-0.0001,0.1208
236974,-106.7255,-2.0873,-0.0105,-0.09,-89.186,0.0005,-0.0729,5.1329,0.0,-0.1127,6.5612,-0.0001,0.1208
236990,-106.7255,-2.0873,-0.0105,-0.09,-89.186,0.0005,-0.0729,5.1329,0.0,-0.1127,6.5612,-0.0001,0.1208
237006,-106.7255,-2.0873,-0.0105,-0.09,-89.186,0.0005,-0.0729,5.1329,0.0,-0.1127,6.5612,-0.0001,0.1208
237022,-106.7255,-2.0873,-0.0105,-0.09,-89.186,0.0005,-0.0729,5.1329,0.0,-0.1127,6.5612,-0.0001,0.1208
237038,-106.7255,-2.0873,-0.0105,-0.09,-89.186,0.0005,-0.0729,5.1329,0.0,-0.1127,6.5612,-0.0001,0.1208
237054,-106.7332,-1.5325,-0.0104,-0.0994,-89.201,0.0003,-0.0813,5.8192,0.0,-0.0791,6.482,-0.0002,-0.0278
237070,-106.7332,-1.5325,-0.0104,-0.0994,-89.201,0.0003,-0.0813,5.8192,0.0,-0.0791,6.482,-0.0002,-0.0278
237086,-106.7332,-1.5325,-0.0104,-0.0994,-89.201,0.0003,-0.0813,5.8192,0.0,-0.0791,6.482,-0.0002,-0.0278
237102,-106.7332,-1.5325,-0.0104,-0.0994,-89.201,0.0003,-0.0813,5.8192,0.0,-0.0791,6.482,-0.0002,-0.0278
237118,-106.7332,-1.5325,-0.0104,-0.0994,-89.201,0.0003,-0.0813,5.8192,0.0,-0.0791,6.482,-0.0002,-0.0278
237134,-106.7332,-1.5325,-0.0104,-0.0994,-89.201,0.0003,-0.0813,5.8192,0.0,-0.0791,6.482,-0.0002,-0.0278
237150,-106.7416,-0.9385,-0.0103,-0.1194,-89.1974,0.0002,-0.0953,6.7888,0.0,-0.15,10.3654,-0.0001,0.0595
237166,-106.7416,-0.9385,-0.0103,-0.1194,-89.1974,0.0002,-0.0953,6.7888,0.0,-0.15,10.3654,-0.0001,0.0595
237182,-106.7416,-0.9385,-0.0103,-0.1194,-89.1974,0.0002,-0.0953,6.7888,0.0,-0.15,10.3654,-0.0001,0.0595
237198,-106.7416,-0.9385,-0.0103,-0.1194,-89.1974,0.0002,-0.0953,6.7888,0.0,-0.15,10.3654,-0.0001,0.0595
237214,-106.7416,-0.9385,-0.0103,-0.1194,-89.1974,0.0002,-0.0953,6.7888,0.0,-0.15,10.3654,-0.0001,0.0595
237230,-106.7416,-0.9385,-0.0103,-0.1194,-89.1974,0.0002,-0.0953,6.7888,0.0,-0.15,10.3654,-0.0001,0.0595
237256,-106.7416,-0.9385,-0.0103,-0.1194,-89.1974,0.0002,-0.0953,6.7888,0.0,-0.15,10.3654,-0.0001,0.0595
237262,-106.7517,-0.2138,-0.0102,-0.1267,-89.2066,-0.0001,-0.1042,7.4773,-0.0,-0.0818,6.3044,-0.0,-0.3801
237278,-106.7517,-0.2138,-0.0102,-0.1267,-89.2066,-0.0001,-0.1042,7.4773,-0.0,-0.0818,6.3044,-0.0,-0.3801
237294,-106.7517,-0.2138,-0.0102,-0.1267,-89.2066,-0.0001,-0.1042,7.4773,-0.0,-0.0818,6.3044,-0.0,-0.3801
237310,-106.7517,-0.2138,-0.0102,-0.1267,-89.2066,-0.0001,-0.1042,7.4773,-0.0,-0.0818,6.3044,-0.0,-0.3801
237326,-106.7517,-0.2138,-0.0102,-0.1267,-89.2066,-0.0001,-0.1042,7.4773,-0.0,-0.0818,6.3044,-0.0,-0.3801
237342,-106.7517,-0.2138,-0.0102,-0.1267,-89.2066,-0.0001,-0.1042,7.4773,-0.0,-0.0818,6.3044,-0.0,-0.3801
237368,-106.7627,0.5699,-0.0103,-0.115,-89.1935,0.0,-0.1132,8.0885,0.0,-0.0854,5.7993,0.0,0.3541
237374,-106.7627,0.5699,-0.0103,-0.115,-89.1935,0.0,-0.1132,8.0885,0.0,-0.0854,5.7993,0.0,0.3541
237390,-106.7627,0.5699,-0.0103,-0.115,-89.1935,0.0,-0.1132,8.0885,0.0,-0.0854,5.7993,0.0,0.3541
237406,-106.7627,0.5699,-0.0103,-0.115,-89.1935,0.0,-0.1132,8.0885,0.0,-0.0854,5.7993,0.0,0.3541
237422,-106.7627,0.5699,-0.0103,-0.115,-89.1935,0.0,-0.1132,8.0885,0.0,-0.0854,5.7993,0.0,0.3541
237438,-106.7627,0.5699,-0.0103,-0.115,-89.1935,0.0,-0.1132,8.0885,0.0,-0.0854,5.7993,0.0,0.3541
237454,-106.7627,0.5699,-0.0103,-0.115,-89.1935,0.0,-0.1132,8.0885,0.0,-0.0854,5.7993,0.0,0.3541
237475,-106.7744,1.4144,-0.0104,-0.1076,-89.2036,-0.0001,-0.1212,8.6863,-0.0,-0.0733,5.4878,-0.0001,-0.2367
237491,-106.7744,1.4144,-0.0104,-0.1076,-89.2036,-0.0001,-0.1212,8.6863,-0.0,-0.0733,5.4878,-0.0001,-0.2367
237507,-106.7744,1.4144,-0.0104,-0.1076,-89.2036,-0.0001,-0.1212,8.6863,-0.0,-0.0733,5.4878,-0.0001,-0.2367
237523,-106.7744,1.4144,-0.0104,-0.1076,-89.2036,-0.0001,-0.1212,8.6863,-0.0,-0.0733,5.4878,-0.0001,-0.2367
237539,-106.7744,1.4144,-0.0104,-0.1076,-89.2036,-0.0001,-0.1212,8.6863,-0.0,-0.0733,5.4878,-0.0001,-0.2367
237555,-106.7744,1.4144,-0.0104,-0.1076,-89.2036,-0.0001,-0.1212,8.6863,-0.0,-0.0733,5.4878,-0.0001,-0.2367
237571,-106.7744,1.4144,-0.0104,-0.1076,-89.2036,-0.0001,-0.1212,8.6863,-0.0,-0.0733,5.4878,-0.0001,-0.2367
237590,-106.7871,2.3161,-0.0104,-0.1011,-89.1978,0.0,-0.1292,9.2445,0.0,-0.0687,4.7909,0.0002,0.0969
237603,-106.7871,2.3161,-0.0104,-0.1011,-89.1978,0.0,-0.1292,9.2445,0.0,-0.0687,4.7909,0.0002,0.0969
237619,-106.7871,2.3161,-0.0104,-0.1011,-89.1978,0.0,-0.1292,9.2445,0.0,-0.0687,4.7909,0.0002,0.0969
237635,-106.7871,2.3161,-0.0104,-0.1011,-89.1978,0.0,-0.1292,9.2445,0.0,-0.0687,4.7909,0.0002,0.0969
237651,-106.7871,2.3161,-0.0104,-0.1011,-89.1978,0.0,-0.1292,9.2445,0.0,-0.0687,4.7909,0.0002,0.0969
237667,-106.7871,2.3161,-0.0104,-0.1011,-89.1978,0.0,-0.1292,9.2445,0.0,-0.0687,4.7909,0.0002,0.0969
237695,-106.8004,3.2709,-0.0105,-0.0947,-89.1997,0.0,-0.1364,9.7625,-0.0,-0.0688,4.9706,-0.0002,-0.0111
237701,-106.8004,3.2709,-0.0105,-0.0947,-89.1997,0.0,-0.1364,9.7625,-0.0,-0.0688,4.9706,-0.0002,-0.0111
237717,-106.8004,3.2709,-0.0105,-0.0947,-89.1997,0.0,-0.1364,9.7625,-0.0,-0.0688,4.9706,-0.0002,-0.0111
237733,-106.8004,3.2709,-0.0105,-0.0947,-89.1997,0.0,-0.1364,9.7625,-0.0,-0.0688,4.9706,-0.0002,-0.0111
237749,-106.8004,3.2709,-0.0105,-0.0947,-89.1997,0.0,-0.1364,9.7625,-0.0,-0.0688,4.9706,-0.0002,-0.0111
237765,-106.8004,3.2709,-0.0105,-0.0947,-89.1997,0.0,-0.1364,9.7625,-0.0,-0.0688,4.9706,-0.0002,-0.0111
237781,-106.8004,3.2709,-0.0105,-0.0947,-89.1997,0.0,-0.1364,9.7625,-0.0,-0.0688,4.9706,-0.0002,-0.0111
237800,-106.8145,4.2763,-0.0105,-0.0897,-89.1995,0.0,-0.1434,10.2657,0.0,-0.0633,4.5263,0.0001,-0.0
237813,-106.8145,4.2763,-0.0105,-0.0897,-89.1995,0.0,-0.1434,10.2657,0.0,-0.0633,4.5263,0.0001,-0.0
237829,-106.8145,4.2763,-0.0105,-0.0897,-89.1995,0.0,-0.1434,10.2657,0.0,-0.0633,4.5263,0.0001,-0.0
237845,-106.8145,4.2763,-0.0105,-0.0897,-89.1995,0.0,-0.1434,10.2657,0.0,-0.0633,4.5263,0.0001,-0.0
237861,-106.8145,4.2763,-0.0105,-0.0897,-89.1995,0.0,-0.1434,10.2657,0.0,-0.0633,4.5263,0.0001,-0.0
237877,-106.8145,4.2763,-0.0105,-0.0897,-89.1995,0.0,-0.1434,10.2657,0.0,-0.0633,4.5263,0.0001,-0.0
237896,-106.8292,5.3301,-0.0105,-0.0851,-89.1995,0.0,-0.15,10.7357,0.0,-0.0657,4.7003,0.0001,-0.0001
237909,-106.8292,5.3301,-0.0105,-0.0851,-89.1995,0.0,-0.15,10.7357,0.0,-0.0657,4.7003,0.0001,-0.0001
237925,-106.8292,5.3301,-0.0105,-0.0851,-89.1995,0.0,-0.15,10.7357,0.0,-0.0657,4.7003,0.0001,-0.0001
237941,-106.8292,5.3301,-0.0105,-0.0851,-89.1995,0.0,-0.15,10.7357,0.0,-0.0657,4.7003,0.0001,-0.0001
237957,-106.8292,5.3301,-0.0105,-0.0851,-89.1995,0.0,-0.15,10.7357,0.0,-0.0657,4.7003,0.0001,-0.0001
237973,-106.8292,5.3301,-0.0105,-0.0851,-89.1995,0.0,-0.15,10.7357,0.0,-0.0657,4.7003,0.0001,-0.0001
237989,-106.8292,5.3301,-0.0105,-0.0851,-89.1995,0.0,-0.15,10.7357,0.0,-0.0657,4.7003,0.0001,-0.0001
238005,-106.8445,6.4278,-0.0106,-0.0796,-89.1995,0.0,-0.1559,11.1613,-0.0,-0.0595,4.2569,-0.0001,-0.0001
238021,-106.8445,6.4278,-0.0106,-0.0796,-89.1995,0.0,-0.1559,11.1613,-0.0,-0.0595,4.2569,-0.0001,-0.0001
238037,-106.8445,6.4278,-0.0106,-0.0796,-89.1995,0.0,-0.1559,11.1613,-0.0,-0.0595,4.2569,-0.0001,-0.0001
238053,-106.8445,6.4278,-0.0106,-0.0796,-89.1995,0.0,-0.1559,11.1613,-0.0,-0.0595,4.2569,-0.0001,-0.0001
238069,-106.8445,6.4278,-0.0106,-0.0796,-89.1995,0.0,-0.1559,11.1613,-0.0,-0.0595,4.2569,-0.0001,-0.0001
238085,-106.8445,6.4278,-0.0106,-0.0796,-89.1995,0.0,-0.1559,11.1613,-0.0,-0.0595,4.2569,-0.0001,-0.0001
238101,-106.8445,6.4278,-0.0106,-0.0796,-89.1995,0.0,-0.1559,11.1613,-0.0,-0.0595,4.2569,-0.0001,-0.0001
238117,-106.8604,7.5665,-0.0106,-0.0739,-89.1995,-0.0,-0.1614,11.5536,0.0,-0.0488,3.4939,0.0,-0.0
238133,-106.8604,7.5665,-0.0106,-0.0739,-89.1995,-0.0,-0.1614,11.5536,0.0,-0.0488,3.4939,0.0,-0.0
238149,-106.8604,7.5665,-0.0106,-0.0739,-89.1995,-0.0,-0.1614,11.5536,0.0,-0.0488,3.4939,0.0,-0.0
238165,-106.8604,7.5665,-0.0106,-0.0739,-89.1995,-0.0,-0.1614,11.5536,0.0,-0.0488,3.4939,0.0,-0.0
238181,-106.8604,7.5665,-0.0106,-0.0739,-89.1995,-0.0,-0.1614,11.5536,0.0,-0.0488,3.4939,0.0,-0.0
238197,-106.8604,7.5665,-0.0106,-0.0739,-89.1995,-0.0,-0.1614,11.5536,0.0,-0.0488,3.4939,0.0,-0.0
238216,-106.8769,8.7427,-0.0107,-0.0687,-89.1995,0.0,-0.1665,11.9192,0.0,-0.0478,3.4231,0.0,0.0001
238245,-106.8769,8.7427,-0.0107,-0.0687,-89.1995,0.0,-0.1665,11.9192,0.0,-0.0478,3.4231,0.0,0.0001
238261,-106.8769,8.7427,-0.0107,-0.0687,-89.1995,0.0,-0.1665,11.9192,0.0,-0.0478,3.4231,0.0,0.0001
238277,-106.8769,8.7427,-0.0107,-0.0687,-89.1995,0.0,-0.1665,11.9192,0.0,-0.0478,3.4231,0.0,0.0001
238293,-106.8769,8.7427,-0.0107,-0.0687,-89.1995,0.0,-0.1665,11.9192,0.0,-0.0478,3.4231,0.0,0.0001
238309,-106.8769,8.7427,-0.0107,-0.0687,-89.1995,0.0,-0.1665,11.9192,0.0,-0.0478,3.4231,0.0,0.0001
238325,-106.9238,9.9456,-0.0107,-0.0541,-90.6192,0.1255,-1.0095,12.0468,0.001,-8.3102,1.258,0.01,-30.9437
238341,-106.9238,9.9456,-0.0107,-0.0541,-90.6192,0.1255,-1.0095,12.0468,0.001,-8.3102,1.258,0.01,-30.9437
238357,-106.9238,9.9456,-0.0107,-0.0541,-90.6192,0.1255,-1.0095,12.0468,0.001,-8.3102,1.258,0.01,-30.9437
238373,-106.9238,9.9456,-0.0107,-0.0541,-90.6192,0.1255,-1.0095,12.0468,0.001,-8.3102,1.258,0.01,-30.9437
238389,-106.9238,9.9456,-0.0107,-0.0541,-90.6192,0.1255,-1.0095,12.0468,0.001,-8.3102,1.258,0.01,-30.9437
238405,-106.9238,9.9456,-0.0107,-0.0541,-90.6192,0.1255,-1.0095,12.0468,0.001,-8.3102,1.258,0.01,-30.9437
238421,-106.9238,9.9456,-0.0107,-0.0541,-90.6192,0.1255,-1.0095,12.0468,0.001,-8.3102,1.258,0.01,-30.9437
238437,-106.9238,9.9456,-0.0107,-0.0541,-90.6192,0.1255,-1.0095,12.0468,0.001,-8.3102,1.258,0.01,-30.9437
238453,-107.0382,11.1384,-0.0109,-0.0163,-96.3817,0.2635,-1.976,11.8413,0.0011,-8.3864,-1.7833,0.0003,-81.6626
238469,-107.0382,11.1384,-0.0109,-0.0163,-96.3817,0.2635,-1.976,11.8413,0.0011,-8.3864,-1.7833,0.0003,-81.6626
238485,-107.0382,11.1384,-0.0109,-0.0163,-96.3817,0.2635,-1.976,11.8413,0.0011,-8.3864,-1.7833,0.0003,-81.6626
238501,-107.0382,11.1384,-0.0109,-0.0163,-96.3817,0.2635,-1.976,11.8413,0.0011,-8.3864,-1.7833,0.0003,-81.6626
238517,-107.0382,11.1384,-0.0109,-0.0163,-96.3817,0.2635,-1.976,11.8413,0.0011,-8.3864,-1.7833,0.0003,-81.6626
238533,-107.0382,11.1384,-0.0109,-0.0163,-96.3817,0.2635,-1.976,11.8413,0.0011,-8.3864,-1.7833,0.0003,-81.6626
238549,-107.1878,12.2883,-0.0111,0.0191,-107.8761,0.2689,-2.4987,11.5491,-0.0,-4.8298,-2.6999,-0.01,-142.0875
238565,-107.1878,12.2883,-0.0111,0.0191,-107.8761,0.2689,-2.4987,11.5491,-0.0,-4.8298,-2.6999,-0.01,-142.0875
238581,-107.1878,12.2883,-0.0111,0.0191,-107.8761,0.2689,-2.4987,11.5491,-0.0,-4.8298,-2.6999,-0.01,-142.0875
238597,-107.1878,12.2883,-0.0111,0.0191,-107.8761,0.2689,-2.4987,11.5491,-0.0,-4.8298,-2.6999,-0.01,-142.0875
238613,-107.1878,12.2883,-0.0111,0.0191,-107.8761,0.2689,-2.4987,11.5491,-0.0,-4.8298,-2.6999,-0.01,-142.0875
238629,-107.1878,12.2883,-0.0111,0.0191,-107.8761,0.2689,-2.4987,11.5491,-0.0,-4.8298,-2.6999,-0.01,-142.0875
238645,-107.1878,12.2883,-0.0111,0.0191,-107.8761,0.2689,-2.4987,11.5491,-0.0,-4.8298,-2.6999,-0.01,-142.0875
238661,-107.3064,13.3822,-0.011,-0.0026,-125.0877,0.1031,-1.8947,11.5333,-0.0013,5.481,-0.1433,-0.0118,-189.7618
238677,-107.3064,13.3822,-0.011,-0.0026,-125.0877,0.1031,-1.8947,11.5333,-0.0013,5.481,-0.1433,-0.0118,-189.7618
238693,-107.3064,13.3822,-0.011,-0.0026,-125.0877,0.1031,-1.8947,11.5333,-0.0013,5.481,-0.1433,-0.0118,-189.7618
238709,-107.3064,13.3822,-0.011,-0.0026,-125.0877,0.1031,-1.8947,11.5333,-0.0013,5.481,-0.1433,-0.0118,-189.7618
238725,-107.3064,13.3822,-0.011,-0.0026,-125.0877,0.1031,-1.8947,11.5333,-0.0013,5.481,-0.1433,-0.0118,-189.7618
238741,-107.3064,13.3822,-0.011,-0.0026,-125.0877,0.1031,-1.8947,11.5333,-0.0013,5.481,-0.1433,-0.0118,-189.7618
238761,-107.2867,14.4318,-0.0102,-0.1144,-145.2661,-0.1866,0.1063,11.4789,0.0012,19.7602,-0.537,0.0245,-208.7345
238773,-107.2867,14.4318,-0.0102,-0.1144,-145.2661,-0.1866,0.1063,11.4789,0.0012,19.7602,-0.537,0.0245,-208.7345
238789,-107.2867,14.4318,-0.0102,-0.1144,-145.2661,-0.1866,0.1063,11.4789,0.0012,19.7602,-0.537,0.0245,-208.7345
238805,-107.2867,14.4318,-0.0102,-0.1144,-145.2661,-0.1866,0.1063,11.4789,0.0012,19.7602,-0.537,0.0245,-208.7345
238821,-107.2867,14.4318,-0.0102,-0.1144,-145.2661,-0.1866,0.1063,11.4789,0.0012,19.7602,-0.537,0.0245,-208.7345
238858,-107.0817,15.3976,-0.0092,-0.2278,-166.657,-0.4305,2.4679,10.6629,0.0021,23.2456,-8.0326,0.0089,-217.6873
238869,-107.0817,15.3976,-0.0092,-0.2278,-166.657,-0.4305,2.4679,10.6629,0.0021,23.2456,-8.0326,0.0089,-217.6873
238885,-107.0817,15.3976,-0.0092,-0.2278,-166.657,-0.4305,2.4679,10.6629,0.0021,23.2456,-8.0326,0.0089,-217.6873
238901,-107.0817,15.3976,-0.0092,-0.2278,-166.657,-0.4305,2.4679,10.6629,0.0021,23.2456,-8.0326,0.0089,-217.6873
238917,-107.0817,15.3976,-0.0092,-0.2278,-166.657,-0.4305,2.4679,10.6629,0.0021,23.2456,-8.0326,0.0089,-217.6873
238933,-107.0817,15.3976,-0.0092,-0.2278,-166.657,-0.4305,2.4679,10.6629,0.0021,23.2456,-8.0326,0.0089,-217.6873
238949,-107.0817,15.3976,-0.0092,-0.2278,-166.657,-0.4305,2.4679,10.6629,0.0021,23.2456,-8.0326,0.0089,-217.6873
238965,-106.7411,16.1902,-0.0086,-0.2768,171.4739,-0.6806,3.7944,8.442,0.0022,12.903,-21.6023,0.0017,-217.7598
238981,-106.7411,16.1902,-0.0086,-0.2768,171.4739,-0.6806,3.7944,8.442,0.0022,12.903,-21.6023,0.0017,-217.7598
238997,-106.7411,16.1902,-0.0086,-0.2768,171.4739,-0.6806,3.7944,8.442,0.0022,12.903,-21.6023,0.0017,-217.7598
239013,-106.7411,16.1902,-0.0086,-0.2768,171.4739,-0.6806,3.7944,8.442,0.0022,12.903,-21.6023,0.0017,-217.7598
239029,-106.7411,16.1902,-0.0086,-0.2768,171.4739,-0.6806,3.7944,8.442,0.0022,12.903,-21.6023,0.0017,-217.7598
239048,-106.7411,16.1902,-0.0086,-0.2768,171.4739,-0.6806,3.7944,8.442,0.0022,12.903,-21.6023,0.0017,-217.7598
239061,-106.4819,16.7709,-0.0094,-0.1796,152.3815,-0.8329,2.2648,6.7788,-0.002,-15.8911,-17.28,-0.0443,-180.4936
239077,-106.4819,16.7709,-0.0094,-0.1796,152.3815,-0.8329,2.2648,6.7788,-0.002,-15.8911,-17.28,-0.0443,-180.4936
239093,-106.4819,16.7709,-0.0094,-0.1796,152.3815,-0.8329,2.2648,6.7788,-0.002,-15.8911,-17.28,-0.0443,-180.4936
239109,-106.4819,16.7709,-0.0094,-0.1796,152.3815,-0.8329,2.2648,6.7788,-0.002,-15.8911,-17.28,-0.0443,-180.4936
239125,-106.4819,16.7709,-0.0094,-0.1796,152.3815,-0.8329,2.2648,6.7788,-0.002,-15.8911,-17.28,-0.0443,-180.4936
239141,-106.4819,16.7709,-0.0094,-0.1796,152.3815,-0.8329,2.2648,6.7788,-0.002,-15.8911,-17.28,-0.0443,-180.4936
239160,-106.4642,17.3131,-0.0105,0.0062,136.2707,-0.8909,-0.2564,6.408,0.0008,-25.3387,-3.7265,0.0289,-141.4828
239173,-106.4642,17.3131,-0.0105,0.0062,136.2707,-0.8909,-0.2564,6.408,0.0008,-25.3387,-3.7265,0.0289,-141.4828
239189,-106.4642,17.3131,-0.0105,0.0062,136.2707,-0.8909,-0.2564,6.408,0.0008,-25.3387,-3.7265,0.0289,-141.4828
239205,-106.4642,17.3131,-0.0105,0.0062,136.2707,-0.8909,-0.2564,6.408,0.0008,-25.3387,-3.7265,0.0289,-141.4828
239221,-106.4642,17.3131,-0.0105,0.0062,136.2707,-0.8909,-0.2564,6.408,0.0008,-25.3387,-3.7265,0.0289,-141.4828
239237,-106.4642,17.3131,-0.0105,0.0062,136.2707,-0.8909,-0.2564,6.408,0.0008,-25.3387,-3.7265,0.0289,-141.4828
239253,-106.6454,17.895,-0.0116,0.1472,125.6445,-0.7455,-1.9217,7.1811,-0.001,-17.9449,8.3312,-0.0203,-96.4166
239269,-106.6454,17.895,-0.0116,0.1472,125.6445,-0.7455,-1.9217,7.1811,-0.001,-17.9449,8.3312,-0.0203,-96.4166
239285,-106.6454,17.895,-0.0116,0.1472,125.6445,-0.7455,-1.9217,7.1811,-0.001,-17.9449,8.3312,-0.0203,-96.4166
239301,-106.6454,17.895,-0.0116,0.1472,125.6445,-0.7455,-1.9217,7.1811,-0.001,-17.9449,8.3312,-0.0203,-96.4166
239317,-106.6454,17.895,-0.0116,0.1472,125.6445,-0.7455,-1.9217,7.1811,-0.001,-17.9449,8.3312,-0.0203,-96.4166
239333,-106.6454,17.895,-0.0116,0.1472,125.6445,-0.7455,-1.9217,7.1811,-0.001,-17.9449,8.3312,-0.0203,-96.4166
239367,-106.8797,18.578,-0.012,0.1844,117.3287,-0.403,-1.8255,7.9934,-0.0027,1.0323,8.7133,-0.0182,-85.6717
239383,-106.8797,18.578,-0.012,0.1844,117.3287,-0.403,-1.8255,7.9934,-0.0027,1.0323,8.7133,-0.0182,-85.6717
239399,-106.8797,18.578,-0.012,0.1844,117.3287,-0.403,-1.8255,7.9934,-0.0027,1.0323,8.7133,-0.0182,-85.6717
239415,-106.8797,18.578,-0.012,0.1844,117.3287,-0.403,-1.8255,7.9934,-0.0027,1.0323,8.7133,-0.0182,-85.6717
239431,-106.8797,18.578,-0.012,0.1844,117.3287,-0.403,-1.8255,7.9934,-0.0027,1.0323,8.7133,-0.0182,-85.6717
239450,-107.1243,19.385,-0.0122,0.1648,110.7512,-0.2431,-2.399,8.3436,-0.0017,-5.441,3.3226,0.0096,-40.3191
239463,-107.1243,19.385,-0.0122,0.1648,110.7512,-0.2431,-2.399,8.3436,-0.0017,-5.441,3.3226,0.0096,-40.3191
239479,-107.1243,19.385,-0.0122,0.1648,110.7512,-0.2431,-2.399,8.3436,-0.0017,-5.441,3.3226,0.0096,-40.3191
239495,-107.1243,19.385,-0.0122,0.1648,110.7512,-0.2431,-2.399,8.3436,-0.0017,-5.441,3.3226,0.0096,-40.3191
239511,-107.1243,19.385,-0.0122,0.1648,110.7512,-0.2431,-2.399,8.3436,-0.0017,-5.441,3.3226,0.0096,-40.3191
239527,-107.1243,19.385,-0.0122,0.1648,110.7512,-0.2431,-2.399,8.3436,-0.0017,-5.441,3.3226,0.0096,-40.3191
239546,-107.3991,20.1941,-0.0119,0.1186,108.7331,-0.2293,-2.8075,8.426,-0.0003,-4.2037,0.8481,0.0151,-9.5208
239559,-107.3991,20.1941,-0.0119,0.1186,108.7331,-0.2293,-2.8075,8.426,-0.0003,-4.2037,0.8481,0.0151,-9.5208
239575,-107.3991,20.1941,-0.0119,0.1186,108.7331,-0.2293,-2.8075,8.426,-0.0003,-4.2037,0.8481,0.0151,-9.5208
239591,-107.3991,20.1941,-0.0119,0.1186,108.7331,-0.2293,-2.8075,8.426,-0.0003,-4.2037,0.8481,0.0151,-9.5208
239607,-107.3991,20.1941,-0.0119,0.1186,108.7331,-0.2293,-2.8075,8.426,-0.0003,-4.2037,0.8481,0.0151,-9.5208
239623,-107.3991,20.1941,-0.0119,0.1186,108.7331,-0.2293,-2.8075,8.426,-0.0003,-4.2037,0.8481,0.0151,-9.5208
239643,-107.6618,20.97,-0.0117,0.0825,108.2311,-0.1492,-2.8532,8.5596,-0.0006,-0.4994,1.4613,-0.0032,-2.0554
239655,-107.6618,20.97,-0.0117,0.0825,108.2311,-0.1492,-2.8532,8.5596,-0.0006,-0.4994,1.4613,-0.0032,-2.0554
239671,-107.6618,20.97,-0.0117,0.0825,108.2311,-0.1492,-2.8532,8.5596,-0.0006,-0.4994,1.4613,-0.0032,-2.0554
239687,-107.6618,20.97,-0.0117,0.0825,108.2311,-0.1492,-2.8532,8.5596,-0.0006,-0.4994,1.4613,-0.0032,-2.0554
239703,-107.6618,20.97,-0.0117,0.0825,108.2311,-0.1492,-2.8532,8.5596,-0.0006,-0.4994,1.4613,-0.0032,-2.0554
239719,-107.6618,20.97,-0.0117,0.0825,108.2311,-0.1492,-2.8532,8.5596,-0.0006,-0.4994,1.4613,-0.0032,-2.0554
239735,-107.6618,20.97,-0.0117,0.0825,108.2311,-0.1492,-2.8532,8.5596,-0.0006,-0.4994,1.4613,-0.0032,-2.0554
239751,-107.9474,21.8304,-0.0115,0.0546,108.0847,-0.079,-2.8494,8.6442,-0.0001,0.0345,0.7658,0.0045,0.1802
239767,-107.9474,21.8304,-0.0115,0.0546,108.0847,-0.079,-2.8494,8.6442,-0.0001,0.0345,0.7658,0.0045,0.1802
239783,-107.9474,21.8304,-0.0115,0.0546,108.0847,-0.079,-2.8494,8.6442,-0.0001,0.0345,0.7658,0.0045,0.1802
239799,-107.9474,21.8304,-0.0115,0.0546,108.0847,-0.079,-2.8494,8.6442,-0.0001,0.0345,0.7658,0.0045,0.1802
239815,-107.9474,21.8304,-0.0115,0.0546,108.0847,-0.079,-2.8494,8.6442,-0.0001,0.0345,0.7658,0.0045,0.1802
239831,-107.9474,21.8304,-0.0115,0.0546,108.0847,-0.079,-2.8494,8.6442,-0.0001,0.0345,0.7658,0.0045,0.1802
239850,-108.2325,22.6989,-0.0114,0.0352,108.0437,-0.0418,-2.8538,8.7203,-0.0002,-0.0432,0.7495,-0.0013,0.724
239863,-108.2325,22.6989,-0.0114,0.0352,108.0437,-0.0418,-2.8538,8.7203,-0.0002,-0.0432,0.7495,-0.0013,0.724
239879,-108.2325,22.6989,-0.0114,0.0352,108.0437,-0.0418,-2.8538,8.7203,-0.0002,-0.0432,0.7495,-0.0013,0.724
239895,-108.2325,22.6989,-0.0114,0.0352,108.0437,-0.0418,-2.8538,8.7203,-0.0002,-0.0432,0.7495,-0.0013,0.724
239911,-108.2325,22.6989,-0.0114,0.0352,108.0437,-0.0418,-2.8538,8.7203,-0.0002,-0.0432,0.7495,-0.0013,0.724
239927,-108.2325,22.6989,-0.0114,0.0352,108.0437,-0.0418,-2.8538,8.7203,-0.0002,-0.0432,0.7495,-0.0013,0.724
239943,-108.5185,23.5748,-0.0113,0.0248,108.032,-0.0218,-2.8668,8.7899,-0.0001,-0.1305,0.6941,0.0009,0.8674
239959,-108.5185,23.5748,-0.0113,0.0248,108.032,-0.0218,-2.8668,8.7899,-0.0001,-0.1305,0.6941,0.0009,0.8674
239975,-108.5185,23.5748,-0.0113,0.0248,108.032,-0.0218,-2.8668,8.7899,-0.0001,-0.1305,0.6941,0.0009,0.8674
239991,-108.5185,23.5748,-0.0113,0.0248,108.032,-0.0218,-2.8668,8.7899,-0.0001,-0.1305,0.6941,0.0009,0.8674
240007,-108.5185,23.5748,-0.0113,0.0248,108.032,-0.0218,-2.8668,8.7899,-0.0001,-0.1305,0.6941,0.0009,0.8674
240023,-108.5185,23.5748,-0.0113,0.0248,108.032,-0.0218,-2.8668,8.7899,-0.0001,-0.1305,0.6941,0.0009,0.8674
240045,-108.8023,24.446,-0.0113,0.0193,108.0285,-0.0117,-2.8852,8.8588,-0.0,-0.1859,0.6982,0.0007,0.8717
240055,-108.8023,24.446,-0.0113,0.0193,108.0285,-0.0117,-2.8852,8.8588,-0.0,-0.1859,0.6982,0.0007,0.8717
240071,-108.8023,24.446,-0.0113,0.0193,108.0285,-0.0117,-2.8852,8.8588,-0.0,-0.1859,0.6982,0.0007,0.8717
240087,-108.8023,24.446,-0.0113,0.0193,108.0285,-0.0117,-2.8852,8.8588,-0.0,-0.1859,0.6982,0.0007,0.8717
240103,-108.8023,24.446,-0.0113,0.0193,108.0285,-0.0117,-2.8852,8.8588,-0.0,-0.1859,0.6982,0.0007,0.8717
240119,-108.8023,24.446,-0.0113,0.0193,108.0285,-0.0117,-2.8852,8.8588,-0.0,-0.1859,0.6982,0.0007,0.8717
240135,-108.8023,24.446,-0.0113,0.0193,108.0285,-0.0117,-2.8852,8.8588,-0.0,-0.1859,0.6982,0.0007,0.8717
240151,-109.0918,25.3353,-0.0113,0.0158,108.0275,-0.0063,-2.9035,8.9203,0.0,-0.1779,0.598,0.0002,0.9039
240167,-109.0918,25.3353,-0.0113,0.0158,108.0275,-0.0063,-2.9035,8.9203,0.0,-0.1779,0.598,0.0002,0.9039
240183,-109.0918,25.3353,-0.0113,0.0158,108.0275,-0.0063,-2.9035,8.9203,0.0,-0.1779,0.598,0.0002,0.9039
240199,-109.0918,25.3353,-0.0113,0.0158,108.0275,-0.0063,-2.9035,8.9203,0.0,-0.1779,0.598,0.0002,0.9039
240215,-109.0918,25.3353,-0.0113,0.0158,108.0275,-0.0063,-2.9035,8.9203,0.0,-0.1779,0.598,0.0002,0.9039
240231,-109.0918,25.3353,-0.0113,0.0158,108.0275,-0.0063,-2.9035,8.9203,0.0,-0.1779,0.598,0.0002,0.9039
240250,-109.3752,26.2061,-0.0113,0.0142,108.027,-0.0034,-2.9246,8.9874,0.0,-0.2176,0.6901,0.0,0.8359
240263,-109.3752,26.2061,-0.0113,0.0142,108.027,-0.0034,-2.9246,8.9874,0.0,-0.2176,0.6901,0.0,0.8359
240279,-109.3752,26.2061,-0.0113,0.0142,108.027,-0.0034,-2.9246,8.9874,0.0,-0.2176,0.6901,0.0,0.8359
240295,-109.3752,26.2061,-0.0113,0.0142,108.027,-0.0034,-2.9246,8.9874,0.0,-0.2176,0.6901,0.0,0.8359
240311,-109.3752,26.2061,-0.0113,0.0142,108.027,-0.0034,-2.9246,8.9874,0.0,-0.2176,0.6901,0.0,0.8359
240327,-109.3752,26.2061,-0.0113,0.0142,108.027,-0.0034,-2.9246,8.9874,0.0,-0.2176,0.6901,0.0,0.8359
240347,-109.3752,26.2061,-0.0113,0.0142,108.027,-0.0034,-2.9246,8.9874,0.0,-0.2176,0.6901,0.0,0.8359
240359,-109.6686,27.1079,-0.0113,0.0128,108.0271,-0.0019,-2.9425,9.0432,0.0,-0.177,0.5538,0.0001,0.8899
240375,-109.6686,27.1079,-0.0113,0.0128,108.0271,-0.0019,-2.9425,9.0432,0.0,-0.177,0.5538,0.0001,0.8899
240391,-109.6686,27.1079,-0.0113,0.0128,108.0271,-0.0019,-2.9425,9.0432,0.0,-0.177,0.5538,0.0001,0.8899
240407,-109.6686,27.1079,-0.0113,0.0128,108.0271,-0.0019,-2.9425,9.0432,0.0,-0.177,0.5538,0.0001,0.8899
240423,-109.6686,27.1079,-0.0113,0.0128,108.0271,-0.0019,-2.9425,9.0432,0.0,-0.177,0.5538,0.0001,0.8899
240439,-109.6686,27.1079,-0.0113,0.0128,108.0271,-0.0019,-2.9425,9.0432,0.0,-0.177,0.5538,0.0001,0.8899
240455,-109.9604,28.0047,-0.0112,0.0119,108.0269,-0.0011,-2.9617,9.1026,0.0,-0.1941,0.6005,-0.0001,0.8551
240471,-109.9604,28.0047,-0.0112,0.0119,108.0269,-0.0011,-2.9617,9.1026,0.0,-0.1941,0.6005,-0.0001,0.8551
240487,-109.9604,28.0047,-0.0112,0.0119,108.0269,-0.0011,-2.9617,9.1026,0.0,-0.1941,0.6005,-0.0001,0.8551
240503,-109.9604,28.0047,-0.0112,0.0119,108.0269,-0.0011,-2.9617,9.1026,0.0,-0.1941,0.6005,-0.0001,0.8551
240519,-109.9604,28.0047,-0.0112,0.0119,108.0269,-0.0011,-2.9617,9.1026,0.0,-0.1941,0.6005,-0.0001,0.8551
240535,-109.9604,28.0047,-0.0112,0.0119,108.0269,-0.0011,-2.9617,9.1026,0.0,-0.1941,0.6005,-0.0001,0.8551
