timestamp,x,y,z,pitch,yaw,roll,vx,vy,vz,ax,ay,az,yaw_rate
52316,-106.6867,-4.8475,-0.08,0.0,-89.3578,0.0,-0.0,-0.0,0.0188,-0.0,-0.0,7.7033,0.0
52332,-106.6867,-4.8475,-0.08,0.0,-89.3578,0.0,-0.0,-0.0,0.0188,-0.0,-0.0,7.7033,0.0
52348,-106.6867,-4.8475,-0.08,0.0,-89.3578,0.0,-0.0,-0.0,0.0188,-0.0,-0.0,7.7033,0.0
52364,-106.6867,-4.8475,-0.08,0.0,-89.3578,0.0,-0.0,-0.0,0.0188,-0.0,-0.0,7.7033,0.0
52380,-106.6867,-4.8475,-0.08,0.0,-89.3578,0.0,-0.0,-0.0,0.0188,-0.0,-0.0,7.7033,0.0
52396,-106.6867,-4.8475,-0.08,0.0,-89.3578,0.0,-0.0,-0.0,0.0188,-0.0,-0.0,7.7033,0.0
52412,-106.6867,-4.8475,-0.08,0.0,-89.3578,0.0,-0.0,-0.0,0.0188,-0.0,-0.0,7.7033,0.0
52428,-106.6867,-4.8475,-0.08,0.0,-89.3578,0.0,-0.0,-0.0,0.0188,-0.0,-0.0,7.7033,0.0
52444,-106.6867,-4.8475,-0.08,0.0,-89.3578,0.0,-0.0,-0.0,0.0188,-0.0,-0.0,7.7033,0.0
52460,-106.6867,-4.8475,-0.08,0.0,-89.3578,0.0,-0.0,-0.0,0.0188,-0.0,-0.0,7.7033,0.0
52476,-106.6867,-4.8475,-0.08,0.0,-89.3578,0.0,-0.0,-0.0,0.0188,-0.0,-0.0,7.7033,0.0
52492,-106.6867,-4.8475,-0.08,0.0,-89.3578,0.0,-0.0,-0.0,0.0188,-0.0,-0.0,7.7033,0.0
52508,-106.6867,-4.8462,-0.0618,-0.0012,-89.3578,-0.0,-0.0004,0.035,0.2358,-0.0022,0.1936,1.1993,-0.0
52524,-106.6867,-4.8462,-0.0618,-0.0012,-89.3578,-0.0,-0.0004,0.035,0.2358,-0.0022,0.1936,1.1993,-0.0
52540,-106.6867,-4.8462,-0.0618,-0.0012,-89.3578,-0.0,-0.0004,0.035,0.2358,-0.0022,0.1936,1.1993,-0.0
52556,-106.6867,-4.8462,-0.0618,-0.0012,-89.3578,-0.0,-0.0004,0.035,0.2358,-0.0022,0.1936,1.1993,-0.0
52572,-106.6867,-4.8462,-0.0618,-0.0012,-89.3578,-0.0,-0.0004,0.035,0.2358,-0.0022,0.1936,1.1993,-0.0
52588,-106.6867,-4.8462,-0.0618,-0.0012,-89.3578,-0.0,-0.0004,0.035,0.2358,-0.0022,0.1936,1.1993,-0.0
52604,-106.6867,-4.8462,-0.0618,-0.0012,-89.3578,-0.0,-0.0004,0.035,0.2358,-0.0022,0.1936,1.1993,-0.0
52620,-106.6867,-4.8462,-0.0618,-0.0012,-89.3578,-0.0,-0.0004,0.035,0.2358,-0.0022,0.1936,1.1993,-0.0
52637,-106.6868,-4.8405,-0.0403,-0.0064,-89.3577,0.0,-0.0018,0.1601,0.1831,-0.0111,0.9821,-0.414,0.0064
52652,-106.6868,-4.8405,-0.0403,-0.0064,-89.3577,0.0,-0.0018,0.1601,0.1831,-0.0111,0.9821,-0.414,0.0064
52668,-106.6868,-4.8405,-0.0403,-0.0064,-89.3577,0.0,-0.0018,0.1601,0.1831,-0.0111,0.9821,-0.414,0.0064
52684,-106.6868,-4.8405,-0.0403,-0.0064,-89.3577,0.0,-0.0018,0.1601,0.1831,-0.0111,0.9821,-0.414,0.0064
52700,-106.6868,-4.8405,-0.0403,-0.0064,-89.3577,0.0,-0.0018,0.1601,0.1831,-0.0111,0.9821,-0.414,0.0064
52716,-106.6872,-4.8065,-0.0271,-0.0275,-89.3522,0.0,-0.0065,0.5555,0.1135,-0.0518,4.35,-0.7654,0.1963
52732,-106.6872,-4.8065,-0.0271,-0.0275,-89.3522,0.0,-0.0065,0.5555,0.1135,-0.0518,4.35,-0.7654,0.1963
52748,-106.6872,-4.8065,-0.0271,-0.0275,-89.3522,0.0,-0.0065,0.5555,0.1135,-0.0518,4.35,-0.7654,0.1963
52764,-106.6872,-4.8065,-0.0271,-0.0275,-89.3522,0.0,-0.0065,0.5555,0.1135,-0.0518,4.35,-0.7654,0.1963
52780,-106.6872,-4.8065,-0.0271,-0.0275,-89.3522,0.0,-0.0065,0.5555,0.1135,-0.0518,4.35,-0.7654,0.1963
52796,-106.6872,-4.8065,-0.0271,-0.0275,-89.3522,0.0,-0.0065,0.5555,0.1135,-0.0518,4.35,-0.7654,0.1963
52813,-106.6881,-4.7313,-0.0192,-0.0484,-89.3494,0.0,-0.0114,0.9933,0.0626,-0.0523,4.7092,-0.5472,-0.0442
52828,-106.6881,-4.7313,-0.0192,-0.0484,-89.3494,0.0,-0.0114,0.9933,0.0626,-0.0523,4.7092,-0.5472,-0.0442
52844,-106.6881,-4.7313,-0.0192,-0.0484,-89.3494,0.0,-0.0114,0.9933,0.0626,-0.0523,4.7092,-0.5472,-0.0442
52860,-106.6881,-4.7313,-0.0192,-0.0484,-89.3494,0.0,-0.0114,0.9933,0.0626,-0.0523,4.7092,-0.5472,-0.0442
52876,-106.6881,-4.7313,-0.0192,-0.0484,-89.3494,0.0,-0.0114,0.9933,0.0626,-0.0523,4.7092,-0.5472,-0.0442
52892,-106.6881,-4.7313,-0.0192,-0.0484,-89.3494,0.0,-0.0114,0.9933,0.0626,-0.0523,4.7092,-0.5472,-0.0442
52908,-106.6887,-4.6311,-0.0146,-0.0478,-89.402,-0.0005,-0.0103,1.1474,0.034,0.0118,1.6988,-0.3148,-3.2224
52924,-106.6887,-4.6311,-0.0146,-0.0478,-89.402,-0.0005,-0.0103,1.1474,0.034,0.0118,1.6988,-0.3148,-3.2224
52940,-106.6887,-4.6311,-0.0146,-0.0478,-89.402,-0.0005,-0.0103,1.1474,0.034,0.0118,1.6988,-0.3148,-3.2224
52956,-106.6887,-4.6311,-0.0146,-0.0478,-89.402,-0.0005,-0.0103,1.1474,0.034,0.0118,1.6988,-0.3148,-3.2224
52972,-106.6887,-4.6311,-0.0146,-0.0478,-89.402,-0.0005,-0.0103,1.1474,0.034,0.0118,1.6988,-0.3148,-3.2224
52988,-106.69,-4.5339,-0.0128,-0.0287,-89.3683,0.0001,-0.0118,1.0464,0.0154,-0.0169,-1.1317,-0.2085,3.3611
53004,-106.69,-4.5339,-0.0128,-0.0287,-89.3683,0.0001,-0.0118,1.0464,0.0154,-0.0169,-1.1317,-0.2085,3.3611
53020,-106.69,-4.5339,-0.0128,-0.0287,-89.3683,0.0001,-0.0118,1.0464,0.0154,-0.0169,-1.1317,-0.2085,3.3611
53036,-106.69,-4.5339,-0.0128,-0.0287,-89.3683,0.0001,-0.0118,1.0464,0.0154,-0.0169,-1.1317,-0.2085,3.3611
53052,-106.69,-4.5339,-0.0128,-0.0287,-89.3683,0.0001,-0.0118,1.0464,0.0154,-0.0169,-1.1317,-0.2085,3.3611
53068,-106.69,-4.5339,-0.0128,-0.0287,-89.3683,0.0001,-0.0118,1.0464,0.0154,-0.0169,-1.1317,-0.2085,3.3611
53085,-106.6916,-4.4202,-0.0118,-0.033,-89.3496,0.0008,-0.0189,1.4715,0.0071,-0.0773,4.6365,-0.0906,-0.7569
53100,-106.6916,-4.4202,-0.0118,-0.033,-89.3496,0.0008,-0.0189,1.4715,0.0071,-0.0773,4.6365,-0.0906,-0.7569
53116,-106.6916,-4.4202,-0.0118,-0.033,-89.3496,0.0008,-0.0189,1.4715,0.0071,-0.0773,4.6365,-0.0906,-0.7569
53132,-106.6916,-4.4202,-0.0118,-0.033,-89.3496,0.0008,-0.0189,1.4715,0.0071,-0.0773,4.6365,-0.0906,-0.7569
53148,-106.6916,-4.4202,-0.0118,-0.033,-89.3496,0.0008,-0.0189,1.4715,0.0071,-0.0773,4.6365,-0.0906,-0.7569
53164,-106.6916,-4.4202,-0.0118,-0.033,-89.3496,0.0008,-0.0189,1.4715,0.0071,-0.0773,4.6365,-0.0906,-0.7569
53182,-106.6943,-4.2611,-0.0112,-0.0519,-89.2903,0.0007,-0.0232,1.7996,0.0034,-0.0461,3.5312,-0.0397,0.2807
53196,-106.6943,-4.2611,-0.0112,-0.0519,-89.2903,0.0007,-0.0232,1.7996,0.0034,-0.0461,3.5312,-0.0397,0.2807
53212,-106.6943,-4.2611,-0.0112,-0.0519,-89.2903,0.0007,-0.0232,1.7996,0.0034,-0.0461,3.5312,-0.0397,0.2807
53228,-106.6943,-4.2611,-0.0112,-0.0519,-89.2903,0.0007,-0.0232,1.7996,0.0034,-0.0461,3.5312,-0.0397,0.2807
53244,-106.6943,-4.2611,-0.0112,-0.0519,-89.2903,0.0007,-0.0232,1.7996,0.0034,-0.0461,3.5312,-0.0397,0.2807
53260,-106.6943,-4.2611,-0.0112,-0.0519,-89.2903,0.0007,-0.0232,1.7996,0.0034,-0.0461,3.5312,-0.0397,0.2807
53277,-106.6966,-4.0729,-0.011,-0.0537,-89.2983,0.0002,-0.0301,2.2615,0.0017,-0.0749,4.9667,-0.019,-1.1002
53292,-106.6966,-4.0729,-0.011,-0.0537,-89.2983,0.0002,-0.0301,2.2615,0.0017,-0.0749,4.9667,-0.019,-1.1002
53308,-106.6966,-4.0729,-0.011,-0.0537,-89.2983,0.0002,-0.0301,2.2615,0.0017,-0.0749,4.9667,-0.019,-1.1002
53324,-106.6966,-4.0729,-0.011,-0.0537,-89.2983,0.0002,-0.0301,2.2615,0.0017,-0.0749,4.9667,-0.019,-1.1002
53340,-106.6966,-4.0729,-0.011,-0.0537,-89.2983,0.0002,-0.0301,2.2615,0.0017,-0.0749,4.9667,-0.019,-1.1002
53357,-106.6966,-4.0729,-0.011,-0.0537,-89.2983,0.0002,-0.0301,2.2615,0.0017,-0.0749,4.9667,-0.019,-1.1002
53372,-106.6997,-3.8344,-0.0107,-0.0718,-89.2758,-0.0,-0.0356,2.8826,0.0008,-0.0579,6.6205,-0.0089,-0.3816
53388,-106.6997,-3.8344,-0.0107,-0.0718,-89.2758,-0.0,-0.0356,2.8826,0.0008,-0.0579,6.6205,-0.0089,-0.3816
53404,-106.6997,-3.8344,-0.0107,-0.0718,-89.2758,-0.0,-0.0356,2.8826,0.0008,-0.0579,6.6205,-0.0089,-0.3816
53420,-106.6997,-3.8344,-0.0107,-0.0718,-89.2758,-0.0,-0.0356,2.8826,0.0008,-0.0579,6.6205,-0.0089,-0.3816
53436,-106.6997,-3.8344,-0.0107,-0.0718,-89.2758,-0.0,-0.0356,2.8826,0.0008,-0.0579,6.6205,-0.0089,-0.3816
53452,-106.7041,-3.5453,-0.0106,-0.0847,-89.2108,0.0011,-0.0471,3.406,0.0004,-0.1242,5.6586,-0.0044,2.1831
53468,-106.7041,-3.5453,-0.0106,-0.0847,-89.2108,0.0011,-0.0471,3.406,0.0004,-0.1242,5.6586,-0.0044,2.1831
53484,-106.7041,-3.5453,-0.0106,-0.0847,-89.2108,0.0011,-0.0471,3.406,0.0004,-0.1242,5.6586,-0.0044,2.1831
53500,-106.7041,-3.5453,-0.0106,-0.0847,-89.2108,0.0011,-0.0471,3.406,0.0004,-0.1242,5.6586,-0.0044,2.1831
53516,-106.7041,-3.5453,-0.0106,-0.0847,-89.2108,0.0011,-0.0471,3.406,0.0004,-0.1242,5.6586,-0.0044,2.1831
53532,-106.7041,-3.5453,-0.0106,-0.0847,-89.2108,0.0011,-0.0471,3.406,0.0004,-0.1242,5.6586,-0.0044,2.1831
53550,-106.7097,-3.2159,-0.0105,-0.09,-89.1237,0.002,-0.0618,3.8903,0.0002,-0.1645,5.4015,-0.0022,1.5432
53564,-106.7097,-3.2159,-0.0105,-0.09,-89.1237,0.002,-0.0618,3.8903,0.0002,-0.1645,5.4015,-0.0022,1.5432
53580,-106.7097,-3.2159,-0.0105,-0.09,-89.1237,0.002,-0.0618,3.8903,0.0002,-0.1645,5.4015,-0.0022,1.5432
53596,-106.7097,-3.2159,-0.0105,-0.09,-89.1237,0.002,-0.0618,3.8903,0.0002,-0.1645,5.4015,-0.0022,1.5432
53612,-106.7097,-3.2159,-0.0105,-0.09,-89.1237,0.002,-0.0618,3.8903,0.0002,-0.1645,5.4015,-0.0022,1.5432
53628,-106.7097,-3.2159,-0.0105,-0.09,-89.1237,0.002,-0.0618,3.8903,0.0002,-0.1645,5.4015,-0.0022,1.5432
53646,-106.7166,-2.8181,-0.0106,-0.083,-89.0618,0.0023,-0.0698,4.2389,0.0001,-0.0824,3.6158,-0.0014,-0.5795
53660,-106.7166,-2.8181,-0.0106,-0.083,-89.0618,0.0023,-0.0698,4.2389,0.0001,-0.0824,3.6158,-0.0014,-0.5795
53676,-106.7166,-2.8181,-0.0106,-0.083,-89.0618,0.0023,-0.0698,4.2389,0.0001,-0.0824,3.6158,-0.0014,-0.5795
53692,-106.7166,-2.8181,-0.0106,-0.083,-89.0618,0.0023,-0.0698,4.2389,0.0001,-0.0824,3.6158,-0.0014,-0.5795
53708,-106.7166,-2.8181,-0.0106,-0.083,-89.0618,0.0023,-0.0698,4.2389,0.0001,-0.0824,3.6158,-0.0014,-0.5795
53724,-106.7166,-2.8181,-0.0106,-0.083,-89.0618,0.0023,-0.0698,4.2389,0.0001,-0.0824,3.6158,-0.0014,-0.5795
53742,-106.7239,-2.3826,-0.0106,-0.08,-89.0393,0.0016,-0.0787,4.7308,0.0,-0.0941,5.1426,-0.0006,0.5079
53756,-106.7239,-2.3826,-0.0106,-0.08,-89.0393,0.0016,-0.0787,4.7308,0.0,-0.0941,5.1426,-0.0006,0.5079
53772,-106.7239,-2.3826,-0.0106,-0.08,-89.0393,0.0016,-0.0787,4.7308,0.0,-0.0941,5.1426,-0.0006,0.5079
53788,-106.7239,-2.3826,-0.0106,-0.08,-89.0393,0.0016,-0.0787,4.7308,0.0,-0.0941,5.1426,-0.0006,0.5079
53804,-106.7239,-2.3826,-0.0106,-0.08,-89.0393,0.0016,-0.0787,4.7308,0.0,-0.0941,5.1426,-0.0006,0.5079
53820,-106.7239,-2.3826,-0.0106,-0.08,-89.0393,0.0016,-0.0787,4.7308,0.0,-0.0941,5.1426,-0.0006,0.5079
53838,-106.7314,-1.9166,-0.0105,-0.0891,-89.0629,0.0009,-0.088,5.3756,0.0,-0.101,7.0801,-0.0002,-0.0856
53852,-106.7314,-1.9166,-0.0105,-0.0891,-89.0629,0.0009,-0.088,5.3756,0.0,-0.101,7.0801,-0.0002,-0.0856
53868,-106.7314,-1.9166,-0.0105,-0.0891,-89.0629,0.0009,-0.088,5.3756,0.0,-0.101,7.0801,-0.0002,-0.0856
53884,-106.7314,-1.9166,-0.0105,-0.0891,-89.0629,0.0009,-0.088,5.3756,0.0,-0.101,7.0801,-0.0002,-0.0856
53900,-106.7314,-1.9166,-0.0105,-0.0891,-89.0629,0.0009,-0.088,5.3756,0.0,-0.101,7.0801,-0.0002,-0.0856
53916,-106.7314,-1.9166,-0.0105,-0.0891,-89.0629,0.0009,-0.088,5.3756,0.0,-0.101,7.0801,-0.0002,-0.0856
53932,-106.7404,-1.3777,-0.0104,-0.101,-89.0492,0.0006,-0.1003,6.055,0.0,-0.1328,7.2878,-0.0002,0.0701
53948,-106.7404,-1.3777,-0.0104,-0.101,-89.0492,0.0006,-0.1003,6.055,0.0,-0.1328,7.2878,-0.0002,0.0701
53964,-106.7404,-1.3777,-0.0104,-0.101,-89.0492,0.0006,-0.1003,6.055,0.0,-0.1328,7.2878,-0.0002,0.0701
53980,-106.7404,-1.3777,-0.0104,-0.101,-89.0492,0.0006,-0.1003,6.055,0.0,-0.1328,7.2878,-0.0002,0.0701
53996,-106.7404,-1.3777,-0.0104,-0.101,-89.0492,0.0006,-0.1003,6.055,0.0,-0.1328,7.2878,-0.0002,0.0701
54014,-106.7498,-0.8007,-0.0104,-0.106,-89.0621,0.0003,-0.111,6.7078,0.0,-0.1191,7.2636,-0.0001,-1.5139
54028,-106.7498,-0.8007,-0.0104,-0.106,-89.0621,0.0003,-0.111,6.7078,0.0,-0.1191,7.2636,-0.0001,-1.5139
54044,-106.7498,-0.8007,-0.0104,-0.106,-89.0621,0.0003,-0.111,6.7078,0.0,-0.1191,7.2636,-0.0001,-1.5139
54060,-106.7498,-0.8007,-0.0104,-0.106,-89.0621,0.0003,-0.111,6.7078,0.0,-0.1191,7.2636,-0.0001,-1.5139
54076,-106.7498,-0.8007,-0.0104,-0.106,-89.0621,0.0003,-0.111,6.7078,0.0,-0.1191,7.2636,-0.0001,-1.5139
54092,-106.7498,-0.8007,-0.0104,-0.106,-89.0621,0.0003,-0.111,6.7078,0.0,-0.1191,7.2636,-0.0001,-1.5139
54110,-106.7601,-0.1737,-0.0104,-0.1072,-89.0653,0.0001,-0.119,7.2496,0.0,-0.0888,6.0515,-0.0001,-0.4508
54124,-106.7601,-0.1737,-0.0104,-0.1072,-89.0653,0.0001,-0.119,7.2496,0.0,-0.0888,6.0515,-0.0001,-0.4508
54140,-106.7601,-0.1737,-0.0104,-0.1072,-89.0653,0.0001,-0.119,7.2496,0.0,-0.0888,6.0515,-0.0001,-0.4508
54156,-106.7601,-0.1737,-0.0104,-0.1072,-89.0653,0.0001,-0.119,7.2496,0.0,-0.0888,6.0515,-0.0001,-0.4508
54172,-106.7601,-0.1737,-0.0104,-0.1072,-89.0653,0.0001,-0.119,7.2496,0.0,-0.0888,6.0515,-0.0001,-0.4508
54188,-106.7716,0.5225,-0.0103,-0.1189,-89.0585,0.0001,-0.1329,8.0838,0.0,-0.1542,9.2523,0.0,0.0047
54204,-106.7716,0.5225,-0.0103,-0.1189,-89.0585,0.0001,-0.1329,8.0838,0.0,-0.1542,9.2523,0.0,0.0047
54220,-106.7716,0.5225,-0.0103,-0.1189,-89.0585,0.0001,-0.1329,8.0838,0.0,-0.1542,9.2523,0.0,0.0047
54236,-106.7716,0.5225,-0.0103,-0.1189,-89.0585,0.0001,-0.1329,8.0838,0.0,-0.1542,9.2523,0.0,0.0047
54252,-106.7716,0.5225,-0.0103,-0.1189,-89.0585,0.0001,-0.1329,8.0838,0.0,-0.1542,9.2523,0.0,0.0047
54268,-106.7716,0.5225,-0.0103,-0.1189,-89.0585,0.0001,-0.1329,8.0838,0.0,-0.1542,9.2523,0.0,0.0047
54286,-106.7848,1.3229,-0.0103,-0.1222,-89.0586,0.0,-0.1435,8.7314,-0.0,-0.112,6.8593,-0.0,0.0025
54300,-106.7848,1.3229,-0.0103,-0.1222,-89.0586,0.0,-0.1435,8.7314,-0.0,-0.112,6.8593,-0.0,0.0025
54316,-106.7848,1.3229,-0.0103,-0.1222,-89.0586,0.0,-0.1435,8.7314,-0.0,-0.112,6.8593,-0.0,0.0025
54332,-106.7848,1.3229,-0.0103,-0.1222,-89.0586,0.0,-0.1435,8.7314,-0.0,-0.112,6.8593,-0.0,0.0025
54348,-106.7848,1.3229,-0.0103,-0.1222,-89.0586,0.0,-0.1435,8.7314,-0.0,-0.112,6.8593,-0.0,0.0025
54364,-106.7848,1.3229,-0.0103,-0.1222,-89.0586,0.0,-0.1435,8.7314,-0.0,-0.112,6.8593,-0.0,0.0025
54380,-106.7848,1.3229,-0.0103,-0.1222,-89.0586,0.0,-0.1435,8.7314,-0.0,-0.112,6.8593,-0.0,0.0025
54396,-106.7994,2.2154,-0.0104,-0.1044,-89.059,0.0,-0.1503,9.15,0.0,-0.069,4.2129,0.0,-0.0017
54412,-106.7994,2.2154,-0.0104,-0.1044,-89.059,0.0,-0.1503,9.15,0.0,-0.069,4.2129,0.0,-0.0017
54428,-106.7994,2.2154,-0.0104,-0.1044,-89.059,0.0,-0.1503,9.15,0.0,-0.069,4.2129,0.0,-0.0017
54444,-106.7994,2.2154,-0.0104,-0.1044,-89.059,0.0,-0.1503,9.15,0.0,-0.069,4.2129,0.0,-0.0017
54460,-106.7994,2.2154,-0.0104,-0.1044,-89.059,0.0,-0.1503,9.15,0.0,-0.069,4.2129,0.0,-0.0017
54476,-106.8141,3.1093,-0.0105,-0.0956,-89.0591,0.0,-0.159,9.6784,-0.0,-0.0914,5.583,-0.0,-0.0006
54492,-106.8141,3.1093,-0.0105,-0.0956,-89.0591,0.0,-0.159,9.6784,-0.0,-0.0914,5.583,-0.0,-0.0006
54508,-106.8141,3.1093,-0.0105,-0.0956,-89.0591,0.0,-0.159,9.6784,-0.0,-0.0914,5.583,-0.0,-0.0006
54524,-106.8141,3.1093,-0.0105,-0.0956,-89.0591,0.0,-0.159,9.6784,-0.0,-0.0914,5.583,-0.0,-0.0006
54540,-106.8141,3.1093,-0.0105,-0.0956,-89.0591,0.0,-0.159,9.6784,-0.0,-0.0914,5.583,-0.0,-0.0006
54556,-106.8141,3.1093,-0.0105,-0.0956,-89.0591,0.0,-0.159,9.6784,-0.0,-0.0914,5.583,-0.0,-0.0006
54574,-106.8291,4.0187,-0.0105,-0.0942,-89.0591,0.0,-0.1674,10.1927,0.0,-0.0925,5.6411,0.0001,-0.0002
54588,-106.8291,4.0187,-0.0105,-0.0942,-89.0591,0.0,-0.1674,10.1927,0.0,-0.0925,5.6411,0.0001,-0.0002
54604,-106.8291,4.0187,-0.0105,-0.0942,-89.0591,0.0,-0.1674,10.1927,0.0,-0.0925,5.6411,0.0001,-0.0002
54620,-106.8291,4.0187,-0.0105,-0.0942,-89.0591,0.0,-0.1674,10.1927,0.0,-0.0925,5.6411,0.0001,-0.0002
54636,-106.8291,4.0187,-0.0105,-0.0942,-89.0591,0.0,-0.1674,10.1927,0.0,-0.0925,5.6411,0.0001,-0.0002
54652,-106.8291,4.0187,-0.0105,-0.0942,-89.0591,0.0,-0.1674,10.1927,0.0,-0.0925,5.6411,0.0001,-0.0002
54670,-106.8449,4.9836,-0.0105,-0.0903,-89.0591,0.0,-0.1748,10.6455,0.0,-0.0805,4.9036,-0.0,-0.0
54684,-106.8449,4.9836,-0.0105,-0.0903,-89.0591,0.0,-0.1748,10.6455,0.0,-0.0805,4.9036,-0.0,-0.0
54700,-106.8449,4.9836,-0.0105,-0.0903,-89.0591,0.0,-0.1748,10.6455,0.0,-0.0805,4.9036,-0.0,-0.0
54716,-106.8449,4.9836,-0.0105,-0.0903,-89.0591,0.0,-0.1748,10.6455,0.0,-0.0805,4.9036,-0.0,-0.0
54732,-106.8449,4.9836,-0.0105,-0.0903,-89.0591,0.0,-0.1748,10.6455,0.0,-0.0805,4.9036,-0.0,-0.0
54748,-106.8449,4.9836,-0.0105,-0.0903,-89.0591,0.0,-0.1748,10.6455,0.0,-0.0805,4.9036,-0.0,-0.0
54766,-106.862,6.022,-0.0105,-0.0834,-89.0591,0.0,-0.1815,11.0513,0.0,-0.0698,4.2513,-0.0,-0.0001
54780,-106.862,6.022,-0.0105,-0.0834,-89.0591,0.0,-0.1815,11.0513,0.0,-0.0698,4.2513,-0.0,-0.0001
54796,-106.862,6.022,-0.0105,-0.0834,-89.0591,0.0,-0.1815,11.0513,0.0,-0.0698,4.2513,-0.0,-0.0001
54812,-106.862,6.022,-0.0105,-0.0834,-89.0591,0.0,-0.1815,11.0513,0.0,-0.0698,4.2513,-0.0,-0.0001
54828,-106.862,6.022,-0.0105,-0.0834,-89.0591,0.0,-0.1815,11.0513,0.0,-0.0698,4.2513,-0.0,-0.0001
54844,-106.862,6.022,-0.0105,-0.0834,-89.0591,0.0,-0.1815,11.0513,0.0,-0.0698,4.2513,-0.0,-0.0001
54862,-106.8796,7.0946,-0.0106,-0.0762,-89.0591,0.0,-0.1876,11.4207,-0.0,-0.0637,3.878,-0.0,-0.0001
54876,-106.8796,7.0946,-0.0106,-0.0762,-89.0591,0.0,-0.1876,11.4207,-0.0,-0.0637,3.878,-0.0,-0.0001
54892,-106.8796,7.0946,-0.0106,-0.0762,-89.0591,0.0,-0.1876,11.4207,-0.0,-0.0637,3.878,-0.0,-0.0001
54908,-106.8796,7.0946,-0.0106,-0.0762,-89.0591,0.0,-0.1876,11.4207,-0.0,-0.0637,3.878,-0.0,-0.0001
54924,-106.8796,7.0946,-0.0106,-0.0762,-89.0591,0.0,-0.1876,11.4207,-0.0,-0.0637,3.878,-0.0,-0.0001
54940,-106.8967,8.1381,-0.0106,-0.07,-89.0591,-0.0,-0.1929,11.7475,0.0,-0.0597,3.6345,0.0,0.0001
54956,-106.8967,8.1381,-0.0106,-0.07,-89.0591,-0.0,-0.1929,11.7475,0.0,-0.0597,3.6345,0.0,0.0001
54972,-106.8967,8.1381,-0.0106,-0.07,-89.0591,-0.0,-0.1929,11.7475,0.0,-0.0597,3.6345,0.0,0.0001
54988,-106.8967,8.1381,-0.0106,-0.07,-89.0591,-0.0,-0.1929,11.7475,0.0,-0.0597,3.6345,0.0,0.0001
55004,-106.8967,8.1381,-0.0106,-0.07,-89.0591,-0.0,-0.1929,11.7475,0.0,-0.0597,3.6345,0.0,0.0001
55020,-106.8967,8.1381,-0.0106,-0.07,-89.0591,-0.0,-0.1929,11.7475,0.0,-0.0597,3.6345,0.0,0.0001
55038,-106.9149,9.245,-0.0107,-0.0652,-89.0591,0.0,-0.1982,12.0694,0.0,-0.0569,3.4653,0.0,0.0
55052,-106.9149,9.245,-0.0107,-0.0652,-89.0591,0.0,-0.1982,12.0694,0.0,-0.0569,3.4653,0.0,0.0
55068,-106.9149,9.245,-0.0107,-0.0652,-89.0591,0.0,-0.1982,12.0694,0.0,-0.0569,3.4653,0.0,0.0
55084,-106.9149,9.245,-0.0107,-0.0652,-89.0591,0.0,-0.1982,12.0694,0.0,-0.0569,3.4653,0.0,0.0
55100,-106.9149,9.245,-0.0107,-0.0652,-89.0591,0.0,-0.1982,12.0694,0.0,-0.0569,3.4653,0.0,0.0
55116,-106.9149,9.245,-0.0107,-0.0652,-89.0591,0.0,-0.1982,12.0694,0.0,-0.0569,3.4653,0.0,0.0
55134,-106.9334,10.373,-0.0107,-0.0618,-89.0592,0.0,-0.2032,12.3754,0.0,-0.0546,3.3204,0.0001,-0.0
55148,-106.9334,10.373,-0.0107,-0.0618,-89.0592,0.0,-0.2032,12.3754,0.0,-0.0546,3.3204,0.0001,-0.0
55164,-106.9334,10.373,-0.0107,-0.0618,-89.0592,0.0,-0.2032,12.3754,0.0,-0.0546,3.3204,0.0001,-0.0
55180,-106.9334,10.373,-0.0107,-0.0618,-89.0592,0.0,-0.2032,12.3754,0.0,-0.0546,3.3204,0.0001,-0.0
55196,-106.9334,10.373,-0.0107,-0.0618,-89.0592,0.0,-0.2032,12.3754,0.0,-0.0546,3.3204,0.0001,-0.0
55212,-106.9334,10.373,-0.0107,-0.0618,-89.0592,0.0,-0.2032,12.3754,0.0,-0.0546,3.3204,0.0001,-0.0
55230,-106.9524,11.5318,-0.0107,-0.0582,-89.0591,0.0,-0.2079,12.6575,0.0,-0.0501,3.0516,-0.0,-0.0
55244,-106.9524,11.5318,-0.0107,-0.0582,-89.0591,0.0,-0.2079,12.6575,0.0,-0.0501,3.0516,-0.0,-0.0
55260,-106.9524,11.5318,-0.0107,-0.0582,-89.0591,0.0,-0.2079,12.6575,0.0,-0.0501,3.0516,-0.0,-0.0
55276,-106.9524,11.5318,-0.0107,-0.0582,-89.0591,0.0,-0.2079,12.6575,0.0,-0.0501,3.0516,-0.0,-0.0
55292,-106.9524,11.5318,-0.0107,-0.0582,-89.0591,0.0,-0.2079,12.6575,0.0,-0.0501,3.0516,-0.0,-0.0
55309,-106.9713,12.6827,-0.0108,-0.0525,-89.0591,0.0,-0.2113,12.8684,0.0,-0.0385,2.3417,-0.0,-0.0
55340,-106.9713,12.6827,-0.0108,-0.0525,-89.0591,0.0,-0.2113,12.8684,0.0,-0.0385,2.3417,-0.0,-0.0
55356,-106.9713,12.6827,-0.0108,-0.0525,-89.0591,0.0,-0.2113,12.8684,0.0,-0.0385,2.3417,-0.0,-0.0
55372,-106.9713,12.6827,-0.0108,-0.0525,-89.0591,0.0,-0.2113,12.8684,0.0,-0.0385,2.3417,-0.0,-0.0
55388,-106.9713,12.6827,-0.0108,-0.0525,-89.0591,0.0,-0.2113,12.8684,0.0,-0.0385,2.3417,-0.0,-0.0
55406,-107.0157,13.8726,-0.0108,-0.0372,-90.2183,0.1091,-0.9643,12.8632,0.0009,-8.1588,-0.0571,0.0101,-27.4865
55420,-107.0157,13.8726,-0.0108,-0.0372,-90.2183,0.1091,-0.9643,12.8632,0.0009,-8.1588,-0.0571,0.0101,-27.4865
55436,-107.0157,13.8726,-0.0108,-0.0372,-90.2183,0.1091,-0.9643,12.8632,0.0009,-8.1588,-0.0571,0.0101,-27.4865
55452,-107.0157,13.8726,-0.0108,-0.0372,-90.2183,0.1091,-0.9643,12.8632,0.0009,-8.1588,-0.0571,0.0101,-27.4865
55468,-107.0157,13.8726,-0.0108,-0.0372,-90.2183,0.1091,-0.9643,12.8632,0.0009,-8.1588,-0.0571,0.0101,-27.4865
55484,-107.0157,13.8726,-0.0108,-0.0372,-90.2183,0.1091,-0.9643,12.8632,0.0009,-8.1588,-0.0571,0.0101,-27.4865
55501,-107.1239,15.0971,-0.011,-0.0027,-95.2931,0.2513,-1.9086,12.5975,0.0012,-9.8034,-2.7578,0.0027,-75.3664
55516,-107.1239,15.0971,-0.011,-0.0027,-95.2931,0.2513,-1.9086,12.5975,0.0012,-9.8034,-2.7578,0.0027,-75.3664
55532,-107.1239,15.0971,-0.011,-0.0027,-95.2931,0.2513,-1.9086,12.5975,0.0012,-9.8034,-2.7578,0.0027,-75.3664
55548,-107.1239,15.0971,-0.011,-0.0027,-95.2931,0.2513,-1.9086,12.5975,0.0012,-9.8034,-2.7578,0.0027,-75.3664
55564,-107.1239,15.0971,-0.011,-0.0027,-95.2931,0.2513,-1.9086,12.5975,0.0012,-9.8034,-2.7578,0.0027,-75.3664
55580,-107.1239,15.0971,-0.011,-0.0027,-95.2931,0.2513,-1.9086,12.5975,0.0012,-9.8034,-2.7578,0.0027,-75.3664
55598,-107.2612,16.2512,-0.0111,0.0258,-105.1193,0.2633,-2.3896,12.3184,0.0001,-5.1278,-2.9756,-0.0114,-129.711
55612,-107.2612,16.2512,-0.0111,0.0258,-105.1193,0.2633,-2.3896,12.3184,0.0001,-5.1278,-2.9756,-0.0114,-129.711
55628,-107.2612,16.2512,-0.0111,0.0258,-105.1193,0.2633,-2.3896,12.3184,0.0001,-5.1278,-2.9756,-0.0114,-129.711
55644,-107.2612,16.2512,-0.0111,0.0258,-105.1193,0.2633,-2.3896,12.3184,0.0001,-5.1278,-2.9756,-0.0114,-129.711
55660,-107.2612,16.2512,-0.0111,0.0258,-105.1193,0.2633,-2.3896,12.3184,0.0001,-5.1278,-2.9756,-0.0114,-129.711
55676,-107.2612,16.2512,-0.0111,0.0258,-105.1193,0.2633,-2.3896,12.3184,0.0001,-5.1278,-2.9756,-0.0114,-129.711
55694,-107.3776,17.3579,-0.0111,0.0186,-120.153,0.1415,-2.1416,12.1827,-0.0011,2.639,-1.4447,-0.0126,-183.6259
55708,-107.3776,17.3579,-0.0111,0.0186,-120.153,0.1415,-2.1416,12.1827,-0.0011,2.639,-1.4447,-0.0126,-183.6259
55724,-107.3776,17.3579,-0.0111,0.0186,-120.153,0.1415,-2.1416,12.1827,-0.0011,2.639,-1.4447,-0.0126,-183.6259
55740,-107.3776,17.3579,-0.0111,0.0186,-120.153,0.1415,-2.1416,12.1827,-0.0011,2.639,-1.4447,-0.0126,-183.6259
55756,-107.3776,17.3579,-0.0111,0.0186,-120.153,0.1415,-2.1416,12.1827,-0.0011,2.639,-1.4447,-0.0126,-183.6259
55772,-107.3776,17.3579,-0.0111,0.0186,-120.153,0.1415,-2.1416,12.1827,-0.0011,2.639,-1.4447,-0.0126,-183.6259
55788,-107.4,18.3728,-0.0107,-0.0595,-138.1307,-0.0969,-0.6393,12.1818,-0.0001,16.6859,-0.0097,0.0107,-209.3514
55804,-107.4,18.3728,-0.0107,-0.0595,-138.1307,-0.0969,-0.6393,12.1818,-0.0001,16.6859,-0.0097,0.0107,-209.3514
55820,-107.4,18.3728,-0.0107,-0.0595,-138.1307,-0.0969,-0.6393,12.1818,-0.0001,16.6859,-0.0097,0.0107,-209.3514
55836,-107.4,18.3728,-0.0107,-0.0595,-138.1307,-0.0969,-0.6393,12.1818,-0.0001,16.6859,-0.0097,0.0107,-209.3514
55852,-107.4,18.3728,-0.0107,-0.0595,-138.1307,-0.0969,-0.6393,12.1818,-0.0001,16.6859,-0.0097,0.0107,-209.3514
55868,-107.2749,19.347,-0.0097,-0.1736,-157.9929,-0.3481,1.4901,11.6771,0.0021,23.1827,-5.4945,0.0235,-220.754
55884,-107.2749,19.347,-0.0097,-0.1736,-157.9929,-0.3481,1.4901,11.6771,0.0021,23.1827,-5.4945,0.0235,-220.754
55900,-107.2749,19.347,-0.0097,-0.1736,-157.9929,-0.3481,1.4901,11.6771,0.0021,23.1827,-5.4945,0.0235,-220.754
55916,-107.2749,19.347,-0.0097,-0.1736,-157.9929,-0.3481,1.4901,11.6771,0.0021,23.1827,-5.4945,0.0235,-220.754
55948,-107.2749,19.347,-0.0097,-0.1736,-157.9929,-0.3481,1.4901,11.6771,0.0021,23.1827,-5.4945,0.0235,-220.754
55965,-107.0224,20.1807,-0.0089,-0.2439,-178.2012,-0.6046,3.0482,9.878,0.0026,17.1566,-19.8098,0.0055,-223.1021
55980,-107.0224,20.1807,-0.0089,-0.2439,-178.2012,-0.6046,3.0482,9.878,0.0026,17.1566,-19.8098,0.0055,-223.1021
55996,-107.0224,20.1807,-0.0089,-0.2439,-178.2012,-0.6046,3.0482,9.878,0.0026,17.1566,-19.8098,0.0055,-223.1021
56012,-107.0224,20.1807,-0.0089,-0.2439,-178.2012,-0.6046,3.0482,9.878,0.0026,17.1566,-19.8098,0.0055,-223.1021
56028,-107.0224,20.1807,-0.0089,-0.2439,-178.2012,-0.6046,3.0482,9.878,0.0026,17.1566,-19.8098,0.0055,-223.1021
56044,-107.0224,20.1807,-0.0089,-0.2439,-178.2012,-0.6046,3.0482,9.878,0.0026,17.1566,-19.8098,0.0055,-223.1021
56060,-106.7743,20.831,-0.0091,-0.2067,162.1563,-0.8255,2.4221,7.7446,-0.0029,-6.8201,-23.2389,-0.06,-202.1439
56076,-106.7743,20.831,-0.0091,-0.2067,162.1563,-0.8255,2.4221,7.7446,-0.0029,-6.8201,-23.2389,-0.06,-202.1439
56092,-106.7743,20.831,-0.0091,-0.2067,162.1563,-0.8255,2.4221,7.7446,-0.0029,-6.8201,-23.2389,-0.06,-202.1439
56108,-106.7743,20.831,-0.0091,-0.2067,162.1563,-0.8255,2.4221,7.7446,-0.0029,-6.8201,-23.2389,-0.06,-202.1439
56124,-106.7743,20.831,-0.0091,-0.2067,162.1563,-0.8255,2.4221,7.7446,-0.0029,-6.8201,-23.2389,-0.06,-202.1439
56142,-106.7084,21.3455,-0.0099,-0.0797,144.9362,-0.9474,0.4937,6.5909,0.0024,-21.441,-12.8274,0.0595,-176.7894
56156,-106.7084,21.3455,-0.0099,-0.0797,144.9362,-0.9474,0.4937,6.5909,0.0024,-21.441,-12.8274,0.0595,-176.7894
56172,-106.7084,21.3455,-0.0099,-0.0797,144.9362,-0.9474,0.4937,6.5909,0.0024,-21.441,-12.8274,0.0595,-176.7894
56188,-106.7084,21.3455,-0.0099,-0.0797,144.9362,-0.9474,0.4937,6.5909,0.0024,-21.441,-12.8274,0.0595,-176.7894
56204,-106.7084,21.3455,-0.0099,-0.0797,144.9362,-0.9474,0.4937,6.5909,0.0024,-21.441,-12.8274,0.0595,-176.7894
56220,-106.7084,21.3455,-0.0099,-0.0797,144.9362,-0.9474,0.4937,6.5909,0.0024,-21.441,-12.8274,0.0595,-176.7894
56236,-106.8501,21.9065,-0.011,0.0876,131.1748,-0.8503,-1.7356,7.1103,-0.0006,-23.8479,5.5552,-0.0326,-122.889
56252,-106.8501,21.9065,-0.011,0.0876,131.1748,-0.8503,-1.7356,7.1103,-0.0006,-23.8479,5.5552,-0.0326,-122.889
56268,-106.8501,21.9065,-0.011,0.0876,131.1748,-0.8503,-1.7356,7.1103,-0.0006,-23.8479,5.5552,-0.0326,-122.889
56284,-106.8501,21.9065,-0.011,0.0876,131.1748,-0.8503,-1.7356,7.1103,-0.0006,-23.8479,5.5552,-0.0326,-122.889
56300,-106.8501,21.9065,-0.011,0.0876,131.1748,-0.8503,-1.7356,7.1103,-0.0006,-23.8479,5.5552,-0.0326,-122.889
56317,-106.8501,21.9065,-0.011,0.0876,131.1748,-0.8503,-1.7356,7.1103,-0.0006,-23.8479,5.5552,-0.0326,-122.889
56332,-107.1,22.5409,-0.0119,0.186,121.9621,-0.5773,-2.3654,8.1031,-0.0021,-7.1799,11.3194,-0.0171,-96.9343
56348,-107.1,22.5409,-0.0119,0.186,121.9621,-0.5773,-2.3654,8.1031,-0.0021,-7.1799,11.3194,-0.0171,-96.9343
56364,-107.1,22.5409,-0.0119,0.186,121.9621,-0.5773,-2.3654,8.1031,-0.0021,-7.1799,11.3194,-0.0171,-96.9343
56380,-107.1,22.5409,-0.0119,0.186,121.9621,-0.5773,-2.3654,8.1031,-0.0021,-7.1799,11.3194,-0.0171,-96.9343
56396,-107.1,22.5409,-0.0119,0.186,121.9621,-0.5773,-2.3654,8.1031,-0.0021,-7.1799,11.3194,-0.0171,-96.9343
56412,-107.3356,23.2687,-0.0123,0.194,113.5965,-0.2055,-1.7654,8.9021,-0.0033,6.8123,9.0721,-0.0134,-94.8591
56428,-107.3356,23.2687,-0.0123,0.194,113.5965,-0.2055,-1.7654,8.9021,-0.0033,6.8123,9.0721,-0.0134,-94.8591
56460,-107.3356,23.2687,-0.0123,0.194,113.5965,-0.2055,-1.7654,8.9021,-0.0033,6.8123,9.0721,-0.0134,-94.8591
56476,-107.3356,23.2687,-0.0123,0.194,113.5965,-0.2055,-1.7654,8.9021,-0.0033,6.8123,9.0721,-0.0134,-94.8591
56492,-107.3356,23.2687,-0.0123,0.194,113.5965,-0.2055,-1.7654,8.9021,-0.0033,6.8123,9.0721,-0.0134,-94.8591
56510,-107.5415,24.0888,-0.0124,0.1734,106.7245,-0.0652,-1.9978,9.3972,-0.0019,-2.5633,5.4589,0.0149,-52.9312
56524,-107.5415,24.0888,-0.0124,0.1734,106.7245,-0.0652,-1.9978,9.3972,-0.0019,-2.5633,5.4589,0.0149,-52.9312
56540,-107.5415,24.0888,-0.0124,0.1734,106.7245,-0.0652,-1.9978,9.3972,-0.0019,-2.5633,5.4589,0.0149,-52.9312
56556,-107.5415,24.0888,-0.0124,0.1734,106.7245,-0.0652,-1.9978,9.3972,-0.0019,-2.5633,5.4589,0.0149,-52.9312
56572,-107.5415,24.0888,-0.0124,0.1734,106.7245,-0.0652,-1.9978,9.3972,-0.0019,-2.5633,5.4589,0.0149,-52.9312
56590,-107.7584,24.9142,-0.0121,0.1314,104.248,-0.1071,-2.3745,9.5225,0.0002,-4.2948,1.4292,0.0241,-13.9215
56604,-107.7584,24.9142,-0.0121,0.1314,104.248,-0.1071,-2.3745,9.5225,0.0002,-4.2948,1.4292,0.0241,-13.9215
56620,-107.7584,24.9142,-0.0121,0.1314,104.248,-0.1071,-2.3745,9.5225,0.0002,-4.2948,1.4292,0.0241,-13.9215
56636,-107.7584,24.9142,-0.0121,0.1314,104.248,-0.1071,-2.3745,9.5225,0.0002,-4.2948,1.4292,0.0241,-13.9215
56652,-107.7584,24.9142,-0.0121,0.1314,104.248,-0.1071,-2.3745,9.5225,0.0002,-4.2948,1.4292,0.0241,-13.9215
56668,-107.7584,24.9142,-0.0121,0.1314,104.248,-0.1071,-2.3745,9.5225,0.0002,-4.2948,1.4292,0.0241,-13.9215
56685,-107.9744,25.7635,-0.0118,0.0904,103.535,-0.0705,-2.3753,9.6483,-0.0001,-0.0097,1.419,-0.0028,-5.2278
56700,-107.9744,25.7635,-0.0118,0.0904,103.535,-0.0705,-2.3753,9.6483,-0.0001,-0.0097,1.419,-0.0028,-5.2278
56716,-107.9744,25.7635,-0.0118,0.0904,103.535,-0.0705,-2.3753,9.6483,-0.0001,-0.0097,1.419,-0.0028,-5.2278
56732,-107.9744,25.7635,-0.0118,0.0904,103.535,-0.0705,-2.3753,9.6483,-0.0001,-0.0097,1.419,-0.0028,-5.2278
56748,-107.9744,25.7635,-0.0118,0.0904,103.535,-0.0705,-2.3753,9.6483,-0.0001,-0.0097,1.419,-0.0028,-5.2278
56764,-107.9744,25.7635,-0.0118,0.0904,103.535,-0.0705,-2.3753,9.6483,-0.0001,-0.0097,1.419,-0.0028,-5.2278
56782,-108.1964,26.6716,-0.0116,0.0595,103.344,-0.0328,-2.3462,9.7334,-0.0002,0.3104,0.9075,-0.0011,-1.7657
56796,-108.1964,26.6716,-0.0116,0.0595,103.344,-0.0328,-2.3462,9.7334,-0.0002,0.3104,0.9075,-0.0011,-1.7657
56812,-108.1964,26.6716,-0.0116,0.0595,103.344,-0.0328,-2.3462,9.7334,-0.0002,0.3104,0.9075,-0.0011,-1.7657
56828,-108.1964,26.6716,-0.0116,0.0595,103.344,-0.0328,-2.3462,9.7334,-0.0002,0.3104,0.9075,-0.0011,-1.7657
56844,-108.1964,26.6716,-0.0116,0.0595,103.344,-0.0328,-2.3462,9.7334,-0.0002,0.3104,0.9075,-0.0011,-1.7657
56861,-108.4025,27.5318,-0.0115,0.0398,103.2982,-0.0137,-2.3319,9.7864,-0.0001,0.1627,0.6013,0.0009,0.4196
56876,-108.4025,27.5318,-0.0115,0.0398,103.2982,-0.0137,-2.3319,9.7864,-0.0001,0.1627,0.6013,0.0009,0.4196
56892,-108.4025,27.5318,-0.0115,0.0398,103.2982,-0.0137,-2.3319,9.7864,-0.0001,0.1627,0.6013,0.0009,0.4196
56908,-108.4025,27.5318,-0.0115,0.0398,103.2982,-0.0137,-2.3319,9.7864,-0.0001,0.1627,0.6013,0.0009,0.4196
56924,-108.4025,27.5318,-0.0115,0.0398,103.2982,-0.0137,-2.3319,9.7864,-0.0001,0.1627,0.6013,0.0009,0.4196
56940,-108.4025,27.5318,-0.0115,0.0398,103.2982,-0.0137,-2.3319,9.7864,-0.0001,0.1627,0.6013,0.0009,0.4196
56956,-108.4025,27.5318,-0.0115,0.0398,103.2982,-0.0137,-2.3319,9.7864,-0.0001,0.1627,0.6013,0.0009,0.4196
56972,-108.6346,28.509,-0.0114,0.0258,103.2798,-0.0044,-2.3288,9.8349,-0.0,0.0307,0.4874,0.001,0.6955
56988,-108.6346,28.509,-0.0114,0.0258,103.2798,-0.0044,-2.3288,9.8349,-0.0,0.0307,0.4874,0.001,0.6955
57004,-108.6346,28.509,-0.0114,0.0258,103.2798,-0.0044,-2.3288,9.8349,-0.0,0.0307,0.4874,0.001,0.6955
57020,-108.6346,28.509,-0.0114,0.0258,103.2798,-0.0044,-2.3288,9.8349,-0.0,0.0307,0.4874,0.001,0.6955
57036,-108.6346,28.509,-0.0114,0.0258,103.2798,-0.0044,-2.3288,9.8349,-0.0,0.0307,0.4874,0.001,0.6955
57052,-108.8583,29.4555,-0.0113,0.0187,103.2743,-0.0011,-2.3357,9.8892,0.0,-0.0715,0.5658,0.0003,0.6761
57068,-108.8583,29.4555,-0.0113,0.0187,103.2743,-0.0011,-2.3357,9.8892,0.0,-0.0715,0.5658,0.0003,0.6761
57084,-108.8583,29.4555,-0.0113,0.0187,103.2743,-0.0011,-2.3357,9.8892,0.0,-0.0715,0.5658,0.0003,0.6761
57100,-108.8583,29.4555,-0.0113,0.0187,103.2743,-0.0011,-2.3357,9.8892,0.0,-0.0715,0.5658,0.0003,0.6761
57116,-108.8583,29.4555,-0.0113,0.0187,103.2743,-0.0011,-2.3357,9.8892,0.0,-0.0715,0.5658,0.0003,0.6761
57132,-108.8583,29.4555,-0.0113,0.0187,103.2743,-0.0011,-2.3357,9.8892,0.0,-0.0715,0.5658,0.0003,0.6761
57150,-109.0659,30.3346,-0.0113,0.0145,103.2655,-0.0001,-2.3428,9.9287,0.0,-0.0805,0.4455,0.0002,-0.7665
57164,-109.0659,30.3346,-0.0113,0.0145,103.2655,-0.0001,-2.3428,9.9287,0.0,-0.0805,0.4455,0.0002,-0.7665
57180,-109.0659,30.3346,-0.0113,0.0145,103.2655,-0.0001,-2.3428,9.9287,0.0,-0.0805,0.4455,0.0002,-0.7665
57196,-109.0659,30.3346,-0.0113,0.0145,103.2655,-0.0001,-2.3428,9.9287,0.0,-0.0805,0.4455,0.0002,-0.7665
57212,-109.0659,30.3346,-0.0113,0.0145,103.2655,-0.0001,-2.3428,9.9287,0.0,-0.0805,0.4455,0.0002,-0.7665
57228,-109.0659,30.3346,-0.0113,0.0145,103.2655,-0.0001,-2.3428,9.9287,0.0,-0.0805,0.4455,0.0002,-0.7665
57244,-109.2808,31.2456,-0.0113,0.0127,103.2657,0.0002,-2.3551,9.985,0.0,-0.1338,0.6151,-0.0,-0.5839
57260,-109.2808,31.2456,-0.0113,0.0127,103.2657,0.0002,-2.3551,9.985,0.0,-0.1338,0.6151,-0.0,-0.5839
57276,-109.2808,31.2456,-0.0113,0.0127,103.2657,0.0002,-2.3551,9.985,0.0,-0.1338,0.6151,-0.0,-0.5839
57292,-109.2808,31.2456,-0.0113,0.0127,103.2657,0.0002,-2.3551,9.985,0.0,-0.1338,0.6151,-0.0,-0.5839
57308,-109.2808,31.2456,-0.0113,0.0127,103.2657,0.0002,-2.3551,9.985,0.0,-0.1338,0.6151,-0.0,-0.5839
57324,-109.2808,31.2456,-0.0113,0.0127,103.2657,0.0002,-2.3551,9.985,0.0,-0.1338,0.6151,-0.0,-0.5839
57340,-109.5038,32.1912,-0.0112,0.0112,103.2653,0.0002,-2.3651,10.0289,0.0,-0.1058,0.4648,-0.0,-0.6463
57356,-109.5038,32.1912,-0.0112,0.0112,103.2653,0.0002,-2.3651,10.0289,0.0,-0.1058,0.4648,-0.0,-0.6463
57372,-109.5038,32.1912,-0.0112,0.0112,103.2653,0.0002,-2.3651,10.0289,0.0,-0.1058,0.4648,-0.0,-0.6463
57388,-109.5038,32.1912,-0.0112,0.0112,103.2653,0.0002,-2.3651,10.0289,0.0,-0.1058,0.4648,-0.0,-0.6463
57404,-109.5038,32.1912,-0.0112,0.0112,103.2653,0.0002,-2.3651,10.0289,0.0,-0.1058,0.4648,-0.0,-0.6463
57420,-109.7179,33.0993,-0.0112,0.0105,103.2656,0.0002,-2.3763,10.0773,0.0,-0.1247,0.5365,-0.0002,-0.5349
57436,-109.7179,33.0993,-0.0112,0.0105,103.2656,0.0002,-2.3763,10.0773,0.0,-0.1247,0.5365,-0.0002,-0.5349
57452,-109.7179,33.0993,-0.0112,0.0105,103.2656,0.0002,-2.3763,10.0773,0.0,-0.1247,0.5365,-0.0002,-0.5349
57468,-109.7179,33.0993,-0.0112,0.0105,103.2656,0.0002,-2.3763,10.0773,0.0,-0.1247,0.5365,-0.0002,-0.5349
57484,-109.7179,33.0993,-0.0112,0.0105,103.2656,0.0002,-2.3763,10.0773,0.0,-0.1247,0.5365,-0.0002,-0.5349
57500,-109.7179,33.0993,-0.0112,0.0105,103.2656,0.0002,-2.3763,10.0773,0.0,-0.1247,0.5365,-0.0002,-0.5349
57517,-109.9285,33.9925,-0.0112,0.0091,103.272,0.0001,-2.3828,10.1051,0.0,-0.0734,0.3143,-0.0001,0.7224
57532,-109.9285,33.9925,-0.0112,0.0091,103.272,0.0001,-2.3828,10.1051,0.0,-0.0734,0.3143,-0.0001,0.7224
57548,-109.9285,33.9925,-0.0112,0.0091,103.272,0.0001,-2.3828,10.1051,0.0,-0.0734,0.3143,-0.0001,0.7224
57564,-109.9285,33.9925,-0.0112,0.0091,103.272,0.0001,-2.3828,10.1051,0.0,-0.0734,0.3143,-0.0001,0.7224
57580,-109.9285,33.9925,-0.0112,0.0091,103.272,0.0001,-2.3828,10.1051,0.0,-0.0734,0.3143,-0.0001,0.7224
57598,-110.1399,34.8888,-0.0112,0.008,103.265,0.0001,-2.3902,10.1361,-0.0,-0.0834,0.3502,-0.0001,-0.72
57612,-110.1399,34.8888,-0.0112,0.008,103.265,0.0001,-2.3902,10.1361,-0.0,-0.0834,0.3502,-0.0001,-0.72
57628,-110.1399,34.8888,-0.0112,0.008,103.265,0.0001,-2.3902,10.1361,-0.0,-0.0834,0.3502,-0.0001,-0.72
