timestamp,x,y,z,pitch,yaw,roll,vx,vy,vz,ax,ay,az,yaw_rate
134438,-106.6867,-4.8475,-0.0799,0.0,-89.3578,0.0,0.0,0.0,0.0581,0.0,0.0,6.7909,-0.0
134454,-106.6867,-4.8475,-0.0799,0.0,-89.3578,0.0,0.0,0.0,0.0581,0.0,0.0,6.7909,-0.0
134470,-106.6867,-4.8475,-0.0799,0.0,-89.3578,0.0,0.0,0.0,0.0581,0.0,0.0,6.7909,-0.0
134486,-106.6867,-4.8475,-0.0799,0.0,-89.3578,0.0,0.0,0.0,0.0581,0.0,0.0,6.7909,-0.0
134502,-106.6867,-4.8475,-0.0799,0.0,-89.3578,0.0,0.0,0.0,0.0581,0.0,0.0,6.7909,-0.0
134518,-106.6867,-4.8475,-0.0799,0.0,-89.3578,0.0,0.0,0.0,0.0581,0.0,0.0,6.7909,-0.0
134534,-106.6867,-4.8475,-0.0799,0.0,-89.3578,0.0,0.0,0.0,0.0581,0.0,0.0,6.7909,-0.0
134550,-106.6867,-4.8475,-0.0799,0.0,-89.3578,0.0,0.0,0.0,0.0581,0.0,0.0,6.7909,-0.0
134566,-106.6867,-4.8475,-0.0799,0.0,-89.3578,0.0,0.0,0.0,0.0581,0.0,0.0,6.7909,-0.0
134582,-106.6867,-4.8475,-0.0799,0.0,-89.3578,0.0,0.0,0.0,0.0581,0.0,0.0,6.7909,-0.0
134598,-106.6867,-4.8475,-0.0799,0.0,-89.3578,0.0,0.0,0.0,0.0581,0.0,0.0,6.7909,-0.0
134614,-106.6867,-4.8475,-0.0799,0.0,-89.3578,0.0,0.0,0.0,0.0581,0.0,0.0,6.7909,-0.0
134630,-106.6867,-4.8475,-0.0799,0.0,-89.3578,0.0,0.0,0.0,0.0581,0.0,0.0,6.7909,-0.0
134646,-106.6867,-4.8475,-0.0799,0.0,-89.3578,0.0,0.0,0.0,0.0581,0.0,0.0,6.7909,-0.0
134662,-106.6867,-4.8475,-0.0799,0.0,-89.3578,0.0,0.0,0.0,0.0581,0.0,0.0,6.7909,-0.0
134678,-106.6867,-4.8475,-0.0799,0.0,-89.3578,0.0,0.0,0.0,0.0581,0.0,0.0,6.7909,-0.0
134694,-106.6867,-4.8475,-0.0799,0.0,-89.3578,0.0,0.0,0.0,0.0581,0.0,0.0,6.7909,-0.0
134710,-106.6867,-4.8475,-0.0799,0.0,-89.3578,0.0,0.0,0.0,0.0581,0.0,0.0,6.7909,-0.0
134726,-106.6867,-4.8475,-0.0799,0.0,-89.3578,0.0,0.0,0.0,0.0581,0.0,0.0,6.7909,-0.0
134742,-106.6867,-4.8475,-0.0799,0.0,-89.3578,0.0,0.0,0.0,0.0581,0.0,0.0,6.7909,-0.0
134758,-106.6867,-4.8457,-0.0603,-0.0016,-89.3578,0.0,-0.0005,0.0409,0.2372,-0.0015,0.1332,0.5833,-0.0002
134774,-106.6867,-4.8457,-0.0603,-0.0016,-89.3578,0.0,-0.0005,0.0409,0.2372,-0.0015,0.1332,0.5833,-0.0002
134790,-106.6867,-4.8457,-0.0603,-0.0016,-89.3578,0.0,-0.0005,0.0409,0.2372,-0.0015,0.1332,0.5833,-0.0002
134806,-106.6867,-4.8457,-0.0603,-0.0016,-89.3578,0.0,-0.0005,0.0409,0.2372,-0.0015,0.1332,0.5833,-0.0002
134822,-106.6867,-4.8457,-0.0603,-0.0016,-89.3578,0.0,-0.0005,0.0409,0.2372,-0.0015,0.1332,0.5833,-0.0002
134840,-106.6868,-4.842,-0.0413,-0.0042,-89.3578,0.0,-0.0017,0.1491,0.1874,-0.0137,1.2238,-0.5636,-0.0004
134854,-106.6868,-4.842,-0.0413,-0.0042,-89.3578,0.0,-0.0017,0.1491,0.1874,-0.0137,1.2238,-0.5636,-0.0004
134870,-106.6868,-4.842,-0.0413,-0.0042,-89.3578,0.0,-0.0017,0.1491,0.1874,-0.0137,1.2238,-0.5636,-0.0004
134886,-106.6868,-4.842,-0.0413,-0.0042,-89.3578,0.0,-0.0017,0.1491,0.1874,-0.0137,1.2238,-0.5636,-0.0004
134902,-106.6868,-4.842,-0.0413,-0.0042,-89.3578,0.0,-0.0017,0.1491,0.1874,-0.0137,1.2238,-0.5636,-0.0004
134918,-106.6868,-4.842,-0.0413,-0.0042,-89.3578,0.0,-0.0017,0.1491,0.1874,-0.0137,1.2238,-0.5636,-0.0004
134936,-106.6869,-4.8129,-0.0271,-0.0245,-89.3682,-0.0003,-0.0042,0.5275,0.1132,-0.0258,3.9223,-0.7693,-0.3657
134950,-106.6869,-4.8129,-0.0271,-0.0245,-89.3682,-0.0003,-0.0042,0.5275,0.1132,-0.0258,3.9223,-0.7693,-0.3657
134966,-106.6869,-4.8129,-0.0271,-0.0245,-89.3682,-0.0003,-0.0042,0.5275,0.1132,-0.0258,3.9223,-0.7693,-0.3657
134982,-106.6869,-4.8129,-0.0271,-0.0245,-89.3682,-0.0003,-0.0042,0.5275,0.1132,-0.0258,3.9223,-0.7693,-0.3657
134998,-106.6869,-4.8129,-0.0271,-0.0245,-89.3682,-0.0003,-0.0042,0.5275,0.1132,-0.0258,3.9223,-0.7693,-0.3657
135014,-106.6869,-4.8129,-0.0271,-0.0245,-89.3682,-0.0003,-0.0042,0.5275,0.1132,-0.0258,3.9223,-0.7693,-0.3657
135030,-106.6874,-4.7426,-0.0193,-0.0474,-89.3901,-0.0002,-0.0092,0.931,0.0635,-0.0562,4.4553,-0.5487,-0.5083
135046,-106.6874,-4.7426,-0.0193,-0.0474,-89.3901,-0.0002,-0.0092,0.931,0.0635,-0.0562,4.4553,-0.5487,-0.5083
135062,-106.6874,-4.7426,-0.0193,-0.0474,-89.3901,-0.0002,-0.0092,0.931,0.0635,-0.0562,4.4553,-0.5487,-0.5083
135078,-106.6874,-4.7426,-0.0193,-0.0474,-89.3901,-0.0002,-0.0092,0.931,0.0635,-0.0562,4.4553,-0.5487,-0.5083
135094,-106.6874,-4.7426,-0.0193,-0.0474,-89.3901,-0.0002,-0.0092,0.931,0.0635,-0.0562,4.4553,-0.5487,-0.5083
135110,-106.6886,-4.6465,-0.0148,-0.0484,-89.3681,-0.0,-0.0117,1.1611,0.038,-0.0265,2.5114,-0.2785,3.09
135126,-106.6886,-4.6465,-0.0148,-0.0484,-89.3681,-0.0,-0.0117,1.1611,0.038,-0.0265,2.5114,-0.2785,3.09
135142,-106.6886,-4.6465,-0.0148,-0.0484,-89.3681,-0.0,-0.0117,1.1611,0.038,-0.0265,2.5114,-0.2785,3.09
135158,-106.6886,-4.6465,-0.0148,-0.0484,-89.3681,-0.0,-0.0117,1.1611,0.038,-0.0265,2.5114,-0.2785,3.09
135174,-106.6886,-4.6465,-0.0148,-0.0484,-89.3681,-0.0,-0.0117,1.1611,0.038,-0.0265,2.5114,-0.2785,3.09
135190,-106.6886,-4.6465,-0.0148,-0.0484,-89.3681,-0.0,-0.0117,1.1611,0.038,-0.0265,2.5114,-0.2785,3.09
135208,-106.6889,-4.5459,-0.0127,-0.0335,-89.4018,-0.0011,-0.0046,1.1502,0.0161,0.0784,-0.1213,-0.243,2.6848
135222,-106.6889,-4.5459,-0.0127,-0.0335,-89.4018,-0.0011,-0.0046,1.1502,0.0161,0.0784,-0.1213,-0.243,2.6848
135238,-106.6889,-4.5459,-0.0127,-0.0335,-89.4018,-0.0011,-0.0046,1.1502,0.0161,0.0784,-0.1213,-0.243,2.6848
135254,-106.6889,-4.5459,-0.0127,-0.0335,-89.4018,-0.0011,-0.0046,1.1502,0.0161,0.0784,-0.1213,-0.243,2.6848
135270,-106.6889,-4.5459,-0.0127,-0.0335,-89.4018,-0.0011,-0.0046,1.1502,0.0161,0.0784,-0.1213,-0.243,2.6848
135286,-106.6889,-4.5459,-0.0127,-0.0335,-89.4018,-0.0011,-0.0046,1.1502,0.0161,0.0784,-0.1213,-0.243,2.6848
135303,-106.6882,-4.4361,-0.0118,-0.0289,-89.5194,-0.0013,-0.0149,1.3958,0.0071,-0.1093,2.6228,-0.0963,2.0245
135318,-106.6882,-4.4361,-0.0118,-0.0289,-89.5194,-0.0013,-0.0149,1.3958,0.0071,-0.1093,2.6228,-0.0963,2.0245
135334,-106.6882,-4.4361,-0.0118,-0.0289,-89.5194,-0.0013,-0.0149,1.3958,0.0071,-0.1093,2.6228,-0.0963,2.0245
135350,-106.6882,-4.4361,-0.0118,-0.0289,-89.5194,-0.0013,-0.0149,1.3958,0.0071,-0.1093,2.6228,-0.0963,2.0245
135366,-106.6882,-4.4361,-0.0118,-0.0289,-89.5194,-0.0013,-0.0149,1.3958,0.0071,-0.1093,2.6228,-0.0963,2.0245
135383,-106.6882,-4.4361,-0.0118,-0.0289,-89.5194,-0.0013,-0.0149,1.3958,0.0071,-0.1093,2.6228,-0.0963,2.0245
135398,-106.6899,-4.2801,-0.0112,-0.0511,-89.4956,0.0006,-0.0163,1.7861,0.0032,-0.0159,4.1907,-0.041,0.442
135414,-106.6899,-4.2801,-0.0112,-0.0511,-89.4956,0.0006,-0.0163,1.7861,0.0032,-0.0159,4.1907,-0.041,0.442
135430,-106.6899,-4.2801,-0.0112,-0.0511,-89.4956,0.0006,-0.0163,1.7861,0.0032,-0.0159,4.1907,-0.041,0.442
135446,-106.6899,-4.2801,-0.0112,-0.0511,-89.4956,0.0006,-0.0163,1.7861,0.0032,-0.0159,4.1907,-0.041,0.442
135462,-106.6899,-4.2801,-0.0112,-0.0511,-89.4956,0.0006,-0.0163,1.7861,0.0032,-0.0159,4.1907,-0.041,0.442
135479,-106.6921,-4.0936,-0.0109,-0.0584,-89.4483,0.001,-0.0258,2.2366,0.0016,-0.1029,4.896,-0.0182,-1.3607
135494,-106.6921,-4.0936,-0.0109,-0.0584,-89.4483,0.001,-0.0258,2.2366,0.0016,-0.1029,4.896,-0.0182,-1.3607
135510,-106.6921,-4.0936,-0.0109,-0.0584,-89.4483,0.001,-0.0258,2.2366,0.0016,-0.1029,4.896,-0.0182,-1.3607
135526,-106.6921,-4.0936,-0.0109,-0.0584,-89.4483,0.001,-0.0258,2.2366,0.0016,-0.1029,4.896,-0.0182,-1.3607
135542,-106.6921,-4.0936,-0.0109,-0.0584,-89.4483,0.001,-0.0258,2.2366,0.0016,-0.1029,4.896,-0.0182,-1.3607
135558,-106.6921,-4.0936,-0.0109,-0.0584,-89.4483,0.001,-0.0258,2.2366,0.0016,-0.1029,4.896,-0.0182,-1.3607
135575,-106.6943,-3.862,-0.0107,-0.07,-89.4225,0.0001,-0.0238,2.6202,0.0008,0.0219,4.2166,-0.0087,0.6727
135590,-106.6943,-3.862,-0.0107,-0.07,-89.4225,0.0001,-0.0238,2.6202,0.0008,0.0219,4.2166,-0.0087,0.6727
135606,-106.6943,-3.862,-0.0107,-0.07,-89.4225,0.0001,-0.0238,2.6202,0.0008,0.0219,4.2166,-0.0087,0.6727
135622,-106.6943,-3.862,-0.0107,-0.07,-89.4225,0.0001,-0.0238,2.6202,0.0008,0.0219,4.2166,-0.0087,0.6727
135638,-106.6943,-3.862,-0.0107,-0.07,-89.4225,0.0001,-0.0238,2.6202,0.0008,0.0219,4.2166,-0.0087,0.6727
135654,-106.6943,-3.862,-0.0107,-0.07,-89.4225,0.0001,-0.0238,2.6202,0.0008,0.0219,4.2166,-0.0087,0.6727
135670,-106.6971,-3.6012,-0.0107,-0.0686,-89.395,0.0009,-0.0327,3.1241,0.0004,-0.0996,5.6392,-0.0041,0.7503
135686,-106.6971,-3.6012,-0.0107,-0.0686,-89.395,0.0009,-0.0327,3.1241,0.0004,-0.0996,5.6392,-0.0041,0.7503
135702,-106.6971,-3.6012,-0.0107,-0.0686,-89.395,0.0009,-0.0327,3.1241,0.0004,-0.0996,5.6392,-0.0041,0.7503
135718,-106.6971,-3.6012,-0.0107,-0.0686,-89.395,0.0009,-0.0327,3.1241,0.0004,-0.0996,5.6392,-0.0041,0.7503
135734,-106.6971,-3.6012,-0.0107,-0.0686,-89.395,0.0009,-0.0327,3.1241,0.0004,-0.0996,5.6392,-0.0041,0.7503
135750,-106.6971,-3.6012,-0.0107,-0.0686,-89.395,0.0009,-0.0327,3.1241,0.0004,-0.0996,5.6392,-0.0041,0.7503
135766,-106.7003,-3.2949,-0.0107,-0.0716,-89.3945,0.0007,-0.0384,3.6135,0.0002,-0.061,5.277,-0.0023,-1.7078
135782,-106.7003,-3.2949,-0.0107,-0.0716,-89.3945,0.0007,-0.0384,3.6135,0.0002,-0.061,5.277,-0.0023,-1.7078
135798,-106.7003,-3.2949,-0.0107,-0.0716,-89.3945,0.0007,-0.0384,3.6135,0.0002,-0.061,5.277,-0.0023,-1.7078
135814,-106.7003,-3.2949,-0.0107,-0.0716,-89.3945,0.0007,-0.0384,3.6135,0.0002,-0.061,5.277,-0.0023,-1.7078
135830,-106.7003,-3.2949,-0.0107,-0.0716,-89.3945,0.0007,-0.0384,3.6135,0.0002,-0.061,5.277,-0.0023,-1.7078
135848,-106.7031,-2.9564,-0.0106,-0.0764,-89.4674,-0.0006,-0.0357,3.9269,0.0001,0.0301,3.5114,-0.001,-0.3477
135862,-106.7031,-2.9564,-0.0106,-0.0764,-89.4674,-0.0006,-0.0357,3.9269,0.0001,0.0301,3.5114,-0.001,-0.3477
135878,-106.7031,-2.9564,-0.0106,-0.0764,-89.4674,-0.0006,-0.0357,3.9269,0.0001,0.0301,3.5114,-0.001,-0.3477
135894,-106.7031,-2.9564,-0.0106,-0.0764,-89.4674,-0.0006,-0.0357,3.9269,0.0001,0.0301,3.5114,-0.001,-0.3477
135910,-106.7031,-2.9564,-0.0106,-0.0764,-89.4674,-0.0006,-0.0357,3.9269,0.0001,0.0301,3.5114,-0.001,-0.3477
135926,-106.7031,-2.9564,-0.0106,-0.0764,-89.4674,-0.0006,-0.0357,3.9269,0.0001,0.0301,3.5114,-0.001,-0.3477
135944,-106.7056,-2.5654,-0.0105,-0.0835,-89.5595,-0.0018,-0.0341,4.5189,0.0,0.0176,6.5023,-0.0007,-0.5966
135958,-106.7056,-2.5654,-0.0105,-0.0835,-89.5595,-0.0018,-0.0341,4.5189,0.0,0.0176,6.5023,-0.0007,-0.5966
135974,-106.7056,-2.5654,-0.0105,-0.0835,-89.5595,-0.0018,-0.0341,4.5189,0.0,0.0176,6.5023,-0.0007,-0.5966
135990,-106.7056,-2.5654,-0.0105,-0.0835,-89.5595,-0.0018,-0.0341,4.5189,0.0,0.0176,6.5023,-0.0007,-0.5966
136006,-106.7056,-2.5654,-0.0105,-0.0835,-89.5595,-0.0018,-0.0341,4.5189,0.0,0.0176,6.5023,-0.0007,-0.5966
136022,-106.7056,-2.5654,-0.0105,-0.0835,-89.5595,-0.0018,-0.0341,4.5189,0.0,0.0176,6.5023,-0.0007,-0.5966
136038,-106.7091,-2.0998,-0.0105,-0.0943,-89.5623,-0.0014,-0.0394,5.1658,0.0,-0.0562,6.8243,-0.0004,-0.0824
136054,-106.7091,-2.0998,-0.0105,-0.0943,-89.5623,-0.0014,-0.0394,5.1658,0.0,-0.0562,6.8243,-0.0004,-0.0824
136070,-106.7091,-2.0998,-0.0105,-0.0943,-89.5623,-0.0014,-0.0394,5.1658,0.0,-0.0562,6.8243,-0.0004,-0.0824
136086,-106.7091,-2.0998,-0.0105,-0.0943,-89.5623,-0.0014,-0.0394,5.1658,0.0,-0.0562,6.8243,-0.0004,-0.0824
136102,-106.7091,-2.0998,-0.0105,-0.0943,-89.5623,-0.0014,-0.0394,5.1658,0.0,-0.0562,6.8243,-0.0004,-0.0824
136118,-106.7091,-2.0998,-0.0105,-0.0943,-89.5623,-0.0014,-0.0394,5.1658,0.0,-0.0562,6.8243,-0.0004,-0.0824
136134,-106.7128,-1.5814,-0.0104,-0.1051,-89.5794,-0.001,-0.0432,5.8749,0.0,-0.0405,7.6428,0.0,-0.0259
136150,-106.7128,-1.5814,-0.0104,-0.1051,-89.5794,-0.001,-0.0432,5.8749,0.0,-0.0405,7.6428,0.0,-0.0259
136166,-106.7128,-1.5814,-0.0104,-0.1051,-89.5794,-0.001,-0.0432,5.8749,0.0,-0.0405,7.6428,0.0,-0.0259
136182,-106.7128,-1.5814,-0.0104,-0.1051,-89.5794,-0.001,-0.0432,5.8749,0.0,-0.0405,7.6428,0.0,-0.0259
136198,-106.7128,-1.5814,-0.0104,-0.1051,-89.5794,-0.001,-0.0432,5.8749,0.0,-0.0405,7.6428,0.0,-0.0259
136216,-106.7173,-0.992,-0.0103,-0.1157,-89.5667,-0.0005,-0.0497,6.6286,-0.0,-0.0705,8.0847,-0.0002,0.3193
136230,-106.7173,-0.992,-0.0103,-0.1157,-89.5667,-0.0005,-0.0497,6.6286,-0.0,-0.0705,8.0847,-0.0002,0.3193
136246,-106.7173,-0.992,-0.0103,-0.1157,-89.5667,-0.0005,-0.0497,6.6286,-0.0,-0.0705,8.0847,-0.0002,0.3193
136262,-106.7173,-0.992,-0.0103,-0.1157,-89.5667,-0.0005,-0.0497,6.6286,-0.0,-0.0705,8.0847,-0.0002,0.3193
136278,-106.7173,-0.992,-0.0103,-0.1157,-89.5667,-0.0005,-0.0497,6.6286,-0.0,-0.0705,8.0847,-0.0002,0.3193
136294,-106.7173,-0.992,-0.0103,-0.1157,-89.5667,-0.0005,-0.0497,6.6286,-0.0,-0.0705,8.0847,-0.0002,0.3193
136310,-106.722,-0.3536,-0.0102,-0.1248,-89.5751,-0.0004,-0.0551,7.416,-0.0,-0.0598,8.7388,0.0001,-0.1161
136326,-106.722,-0.3536,-0.0102,-0.1248,-89.5751,-0.0004,-0.0551,7.416,-0.0,-0.0598,8.7388,0.0001,-0.1161
136342,-106.722,-0.3536,-0.0102,-0.1248,-89.5751,-0.0004,-0.0551,7.416,-0.0,-0.0598,8.7388,0.0001,-0.1161
136358,-106.722,-0.3536,-0.0102,-0.1248,-89.5751,-0.0004,-0.0551,7.416,-0.0,-0.0598,8.7388,0.0001,-0.1161
136374,-106.722,-0.3536,-0.0102,-0.1248,-89.5751,-0.0004,-0.0551,7.416,-0.0,-0.0598,8.7388,0.0001,-0.1161
136391,-106.7272,0.3392,-0.0103,-0.1193,-89.5711,-0.0002,-0.0591,7.9654,0.0,-0.0442,6.1353,0.0001,0.7825
136406,-106.7272,0.3392,-0.0103,-0.1193,-89.5711,-0.0002,-0.0591,7.9654,0.0,-0.0442,6.1353,0.0001,0.7825
136422,-106.7272,0.3392,-0.0103,-0.1193,-89.5711,-0.0002,-0.0591,7.9654,0.0,-0.0442,6.1353,0.0001,0.7825
136438,-106.7272,0.3392,-0.0103,-0.1193,-89.5711,-0.0002,-0.0591,7.9654,0.0,-0.0442,6.1353,0.0001,0.7825
136454,-106.7272,0.3392,-0.0103,-0.1193,-89.5711,-0.0002,-0.0591,7.9654,0.0,-0.0442,6.1353,0.0001,0.7825
136470,-106.7272,0.3392,-0.0103,-0.1193,-89.5711,-0.0002,-0.0591,7.9654,0.0,-0.0442,6.1353,0.0001,0.7825
136486,-106.7329,1.1114,-0.0103,-0.1127,-89.5736,-0.0001,-0.0639,8.5823,-0.0,-0.052,6.6078,-0.0002,-0.109
136502,-106.7329,1.1114,-0.0103,-0.1127,-89.5736,-0.0001,-0.0639,8.5823,-0.0,-0.052,6.6078,-0.0002,-0.109
136518,-106.7329,1.1114,-0.0103,-0.1127,-89.5736,-0.0001,-0.0639,8.5823,-0.0,-0.052,6.6078,-0.0002,-0.109
136534,-106.7329,1.1114,-0.0103,-0.1127,-89.5736,-0.0001,-0.0639,8.5823,-0.0,-0.052,6.6078,-0.0002,-0.109
136550,-106.7329,1.1114,-0.0103,-0.1127,-89.5736,-0.0001,-0.0639,8.5823,-0.0,-0.052,6.6078,-0.0002,-0.109
136566,-106.7329,1.1114,-0.0103,-0.1127,-89.5736,-0.0001,-0.0639,8.5823,-0.0,-0.052,6.6078,-0.0002,-0.109
136584,-106.739,1.9344,-0.0103,-0.1112,-89.5736,-0.0001,-0.0683,9.1768,0.0,-0.0472,6.4318,0.0002,-0.0008
136598,-106.739,1.9344,-0.0103,-0.1112,-89.5736,-0.0001,-0.0683,9.1768,0.0,-0.0472,6.4318,0.0002,-0.0008
136614,-106.739,1.9344,-0.0103,-0.1112,-89.5736,-0.0001,-0.0683,9.1768,0.0,-0.0472,6.4318,0.0002,-0.0008
136630,-106.739,1.9344,-0.0103,-0.1112,-89.5736,-0.0001,-0.0683,9.1768,0.0,-0.0472,6.4318,0.0002,-0.0008
136646,-106.739,1.9344,-0.0103,-0.1112,-89.5736,-0.0001,-0.0683,9.1768,0.0,-0.0472,6.4318,0.0002,-0.0008
136662,-106.739,1.9344,-0.0103,-0.1112,-89.5736,-0.0001,-0.0683,9.1768,0.0,-0.0472,6.4318,0.0002,-0.0008
136680,-106.7454,2.7894,-0.0104,-0.1057,-89.5737,-0.0001,-0.0721,9.6877,0.0,-0.0419,5.6488,-0.0,-0.0001
136694,-106.7454,2.7894,-0.0104,-0.1057,-89.5737,-0.0001,-0.0721,9.6877,0.0,-0.0419,5.6488,-0.0,-0.0001
136710,-106.7454,2.7894,-0.0104,-0.1057,-89.5737,-0.0001,-0.0721,9.6877,0.0,-0.0419,5.6488,-0.0,-0.0001
136726,-106.7454,2.7894,-0.0104,-0.1057,-89.5737,-0.0001,-0.0721,9.6877,0.0,-0.0419,5.6488,-0.0,-0.0001
136742,-106.7454,2.7894,-0.0104,-0.1057,-89.5737,-0.0001,-0.0721,9.6877,0.0,-0.0419,5.6488,-0.0,-0.0001
136758,-106.7454,2.7894,-0.0104,-0.1057,-89.5737,-0.0001,-0.0721,9.6877,0.0,-0.0419,5.6488,-0.0,-0.0001
136774,-106.7523,3.7233,-0.0104,-0.0971,-89.5737,-0.0,-0.0755,10.1459,0.0,-0.0362,4.8752,0.0,0.0002
136790,-106.7523,3.7233,-0.0104,-0.0971,-89.5737,-0.0,-0.0755,10.1459,0.0,-0.0362,4.8752,0.0,0.0002
136806,-106.7523,3.7233,-0.0104,-0.0971,-89.5737,-0.0,-0.0755,10.1459,0.0,-0.0362,4.8752,0.0,0.0002
136822,-106.7523,3.7233,-0.0104,-0.0971,-89.5737,-0.0,-0.0755,10.1459,0.0,-0.0362,4.8752,0.0,0.0002
136838,-106.7523,3.7233,-0.0104,-0.0971,-89.5737,-0.0,-0.0755,10.1459,0.0,-0.0362,4.8752,0.0,0.0002
136854,-106.7523,3.7233,-0.0104,-0.0971,-89.5737,-0.0,-0.0755,10.1459,0.0,-0.0362,4.8752,0.0,0.0002
136870,-106.7595,4.686,-0.0105,-0.0886,-89.5737,-0.0,-0.0786,10.5657,0.0,-0.0337,4.5215,-0.0,-0.0
136886,-106.7595,4.686,-0.0105,-0.0886,-89.5737,-0.0,-0.0786,10.5657,0.0,-0.0337,4.5215,-0.0,-0.0
136902,-106.7595,4.686,-0.0105,-0.0886,-89.5737,-0.0,-0.0786,10.5657,0.0,-0.0337,4.5215,-0.0,-0.0
136918,-106.7595,4.686,-0.0105,-0.0886,-89.5737,-0.0,-0.0786,10.5657,0.0,-0.0337,4.5215,-0.0,-0.0
136934,-106.7595,4.686,-0.0105,-0.0886,-89.5737,-0.0,-0.0786,10.5657,0.0,-0.0337,4.5215,-0.0,-0.0
136950,-106.7595,4.686,-0.0105,-0.0886,-89.5737,-0.0,-0.0786,10.5657,0.0,-0.0337,4.5215,-0.0,-0.0
136966,-106.7673,5.7411,-0.0106,-0.0807,-89.5737,0.0,-0.0816,10.9657,-0.0,-0.0304,4.0886,-0.0001,-0.0001
136982,-106.7673,5.7411,-0.0106,-0.0807,-89.5737,0.0,-0.0816,10.9657,-0.0,-0.0304,4.0886,-0.0001,-0.0001
136998,-106.7673,5.7411,-0.0106,-0.0807,-89.5737,0.0,-0.0816,10.9657,-0.0,-0.0304,4.0886,-0.0001,-0.0001
137014,-106.7673,5.7411,-0.0106,-0.0807,-89.5737,0.0,-0.0816,10.9657,-0.0,-0.0304,4.0886,-0.0001,-0.0001
137030,-106.7673,5.7411,-0.0106,-0.0807,-89.5737,0.0,-0.0816,10.9657,-0.0,-0.0304,4.0886,-0.0001,-0.0001
137046,-106.7673,5.7411,-0.0106,-0.0807,-89.5737,0.0,-0.0816,10.9657,-0.0,-0.0304,4.0886,-0.0001,-0.0001
137062,-106.7752,6.8045,-0.0106,-0.0746,-89.5737,0.0,-0.0844,11.3416,0.0,-0.0294,3.9461,0.0001,-0.0
137078,-106.7752,6.8045,-0.0106,-0.0746,-89.5737,0.0,-0.0844,11.3416,0.0,-0.0294,3.9461,0.0001,-0.0
137094,-106.7752,6.8045,-0.0106,-0.0746,-89.5737,0.0,-0.0844,11.3416,0.0,-0.0294,3.9461,0.0001,-0.0
137110,-106.7752,6.8045,-0.0106,-0.0746,-89.5737,0.0,-0.0844,11.3416,0.0,-0.0294,3.9461,0.0001,-0.0
137126,-106.7752,6.8045,-0.0106,-0.0746,-89.5737,0.0,-0.0844,11.3416,0.0,-0.0294,3.9461,0.0001,-0.0
137144,-106.783,7.848,-0.0106,-0.071,-89.5737,0.0,-0.087,11.6939,-0.0,-0.029,3.8941,-0.0002,-0.0
137158,-106.783,7.848,-0.0106,-0.071,-89.5737,0.0,-0.087,11.6939,-0.0,-0.029,3.8941,-0.0002,-0.0
137174,-106.783,7.848,-0.0106,-0.071,-89.5737,0.0,-0.087,11.6939,-0.0,-0.029,3.8941,-0.0002,-0.0
137190,-106.783,7.848,-0.0106,-0.071,-89.5737,0.0,-0.087,11.6939,-0.0,-0.029,3.8941,-0.0002,-0.0
137206,-106.783,7.848,-0.0106,-0.071,-89.5737,0.0,-0.087,11.6939,-0.0,-0.029,3.8941,-0.0002,-0.0
137222,-106.783,7.848,-0.0106,-0.071,-89.5737,0.0,-0.087,11.6939,-0.0,-0.029,3.8941,-0.0002,-0.0
137240,-106.7912,8.9527,-0.0107,-0.0674,-89.5737,-0.0,-0.0895,12.029,-0.0,-0.0268,3.6034,0.0001,-0.0
137254,-106.7912,8.9527,-0.0107,-0.0674,-89.5737,-0.0,-0.0895,12.029,-0.0,-0.0268,3.6034,0.0001,-0.0
137270,-106.7912,8.9527,-0.0107,-0.0674,-89.5737,-0.0,-0.0895,12.029,-0.0,-0.0268,3.6034,0.0001,-0.0
137286,-106.7912,8.9527,-0.0107,-0.0674,-89.5737,-0.0,-0.0895,12.029,-0.0,-0.0268,3.6034,0.0001,-0.0
137302,-106.7912,8.9527,-0.0107,-0.0674,-89.5737,-0.0,-0.0895,12.029,-0.0,-0.0268,3.6034,0.0001,-0.0
137318,-106.7912,8.9527,-0.0107,-0.0674,-89.5737,-0.0,-0.0895,12.029,-0.0,-0.0268,3.6034,0.0001,-0.0
137334,-106.8,10.1346,-0.0107,-0.0629,-89.5737,0.0,-0.0919,12.3486,0.0,-0.0246,3.3009,0.0002,0.0
137350,-106.8,10.1346,-0.0107,-0.0629,-89.5737,0.0,-0.0919,12.3486,0.0,-0.0246,3.3009,0.0002,0.0
137366,-106.8,10.1346,-0.0107,-0.0629,-89.5737,0.0,-0.0919,12.3486,0.0,-0.0246,3.3009,0.0002,0.0
137382,-106.8,10.1346,-0.0107,-0.0629,-89.5737,0.0,-0.0919,12.3486,0.0,-0.0246,3.3009,0.0002,0.0
137398,-106.8,10.1346,-0.0107,-0.0629,-89.5737,0.0,-0.0919,12.3486,0.0,-0.0246,3.3009,0.0002,0.0
137414,-106.8,10.1346,-0.0107,-0.0629,-89.5737,0.0,-0.0919,12.3486,0.0,-0.0246,3.3009,0.0002,0.0
137432,-106.8086,11.2938,-0.0107,-0.0587,-89.5736,-0.0,-0.094,12.6319,0.0,-0.0229,3.0569,0.0001,0.0005
137462,-106.8086,11.2938,-0.0107,-0.0587,-89.5736,-0.0,-0.094,12.6319,0.0,-0.0229,3.0569,0.0001,0.0005
137478,-106.8086,11.2938,-0.0107,-0.0587,-89.5736,-0.0,-0.094,12.6319,0.0,-0.0229,3.0569,0.0001,0.0005
137494,-106.8086,11.2938,-0.0107,-0.0587,-89.5736,-0.0,-0.094,12.6319,0.0,-0.0229,3.0569,0.0001,0.0005
137510,-106.8086,11.2938,-0.0107,-0.0587,-89.5736,-0.0,-0.094,12.6319,0.0,-0.0229,3.0569,0.0001,0.0005
137526,-106.8406,12.4394,-0.0108,-0.0465,-90.6651,0.1048,-0.8233,12.7008,0.0009,-8.0845,0.763,0.0098,-26.5029
137542,-106.8406,12.4394,-0.0108,-0.0465,-90.6651,0.1048,-0.8233,12.7008,0.0009,-8.0845,0.763,0.0098,-26.5029
137558,-106.8406,12.4394,-0.0108,-0.0465,-90.6651,0.1048,-0.8233,12.7008,0.0009,-8.0845,0.763,0.0098,-26.5029
137574,-106.8406,12.4394,-0.0108,-0.0465,-90.6651,0.1048,-0.8233,12.7008,0.0009,-8.0845,0.763,0.0098,-26.5029
137590,-106.8406,12.4394,-0.0108,-0.0465,-90.6651,0.1048,-0.8233,12.7008,0.0009,-8.0845,0.763,0.0098,-26.5029
137608,-106.9283,13.5735,-0.0109,-0.0149,-95.1307,0.2416,-1.7163,12.5032,0.0012,-9.9113,-2.1928,0.0036,-70.3162
137622,-106.9283,13.5735,-0.0109,-0.0149,-95.1307,0.2416,-1.7163,12.5032,0.0012,-9.9113,-2.1928,0.0036,-70.3162
137638,-106.9283,13.5735,-0.0109,-0.0149,-95.1307,0.2416,-1.7163,12.5032,0.0012,-9.9113,-2.1928,0.0036,-70.3162
137654,-106.9283,13.5735,-0.0109,-0.0149,-95.1307,0.2416,-1.7163,12.5032,0.0012,-9.9113,-2.1928,0.0036,-70.3162
137670,-106.9283,13.5735,-0.0109,-0.0149,-95.1307,0.2416,-1.7163,12.5032,0.0012,-9.9113,-2.1928,0.0036,-70.3162
137686,-106.9283,13.5735,-0.0109,-0.0149,-95.1307,0.2416,-1.7163,12.5032,0.0012,-9.9113,-2.1928,0.0036,-70.3162
137704,-107.0532,14.7123,-0.0111,0.0174,-104.3573,0.2692,-2.2553,12.2421,0.0003,-5.7915,-2.8051,-0.0102,-123.6421
137718,-107.0532,14.7123,-0.0111,0.0174,-104.3573,0.2692,-2.2553,12.2421,0.0003,-5.7915,-2.8051,-0.0102,-123.6421
137734,-107.0532,14.7123,-0.0111,0.0174,-104.3573,0.2692,-2.2553,12.2421,0.0003,-5.7915,-2.8051,-0.0102,-123.6421
137750,-107.0532,14.7123,-0.0111,0.0174,-104.3573,0.2692,-2.2553,12.2421,0.0003,-5.7915,-2.8051,-0.0102,-123.6421
137766,-107.0532,14.7123,-0.0111,0.0174,-104.3573,0.2692,-2.2553,12.2421,0.0003,-5.7915,-2.8051,-0.0102,-123.6421
137784,-107.0532,14.7123,-0.0111,0.0174,-104.3573,0.2692,-2.2553,12.2421,0.0003,-5.7915,-2.8051,-0.0102,-123.6421
137798,-107.1614,15.7736,-0.0111,0.0186,-118.1658,0.1686,-2.1461,12.0914,-0.0009,1.2085,-1.6679,-0.0129,-176.7311
137814,-107.1614,15.7736,-0.0111,0.0186,-118.1658,0.1686,-2.1461,12.0914,-0.0009,1.2085,-1.6679,-0.0129,-176.7311
137830,-107.1614,15.7736,-0.0111,0.0186,-118.1658,0.1686,-2.1461,12.0914,-0.0009,1.2085,-1.6679,-0.0129,-176.7311
137846,-107.1614,15.7736,-0.0111,0.0186,-118.1658,0.1686,-2.1461,12.0914,-0.0009,1.2085,-1.6679,-0.0129,-176.7311
137862,-107.1614,15.7736,-0.0111,0.0186,-118.1658,0.1686,-2.1461,12.0914,-0.0009,1.2085,-1.6679,-0.0129,-176.7311
137878,-107.1614,15.7736,-0.0111,0.0186,-118.1658,0.1686,-2.1461,12.0914,-0.0009,1.2085,-1.6679,-0.0129,-176.7311
137894,-107.19,16.8633,-0.0107,-0.0555,-137.1978,-0.0774,-0.672,12.102,-0.0004,15.1903,0.1089,0.0049,-207.3965
137910,-107.19,16.8633,-0.0107,-0.0555,-137.1978,-0.0774,-0.672,12.102,-0.0004,15.1903,0.1089,0.0049,-207.3965
137926,-107.19,16.8633,-0.0107,-0.0555,-137.1978,-0.0774,-0.672,12.102,-0.0004,15.1903,0.1089,0.0049,-207.3965
137942,-107.19,16.8633,-0.0107,-0.0555,-137.1978,-0.0774,-0.672,12.102,-0.0004,15.1903,0.1089,0.0049,-207.3965
137958,-107.19,16.8633,-0.0107,-0.0555,-137.1978,-0.0774,-0.672,12.102,-0.0004,15.1903,0.1089,0.0049,-207.3965
137974,-107.0696,17.8264,-0.0098,-0.1664,-156.7329,-0.3271,1.4144,11.6444,0.002,22.9108,-5.0247,0.0266,-219.1298
137990,-107.0696,17.8264,-0.0098,-0.1664,-156.7329,-0.3271,1.4144,11.6444,0.002,22.9108,-5.0247,0.0266,-219.1298
138006,-107.0696,17.8264,-0.0098,-0.1664,-156.7329,-0.3271,1.4144,11.6444,0.002,22.9108,-5.0247,0.0266,-219.1298
138022,-107.0696,17.8264,-0.0098,-0.1664,-156.7329,-0.3271,1.4144,11.6444,0.002,22.9108,-5.0247,0.0266,-219.1298
138038,-107.0696,17.8264,-0.0098,-0.1664,-156.7329,-0.3271,1.4144,11.6444,0.002,22.9108,-5.0247,0.0266,-219.1298
138072,-106.7823,18.7292,-0.0088,-0.2637,-178.2427,-0.5286,3.5945,10.3873,0.0018,22.7057,-13.0934,-0.0018,-228.2923
138086,-106.7823,18.7292,-0.0088,-0.2637,-178.2427,-0.5286,3.5945,10.3873,0.0018,22.7057,-13.0934,-0.0018,-228.2923
138102,-106.7823,18.7292,-0.0088,-0.2637,-178.2427,-0.5286,3.5945,10.3873,0.0018,22.7057,-13.0934,-0.0018,-228.2923
138118,-106.7823,18.7292,-0.0088,-0.2637,-178.2427,-0.5286,3.5945,10.3873,0.0018,22.7057,-13.0934,-0.0018,-228.2923
138134,-106.7823,18.7292,-0.0088,-0.2637,-178.2427,-0.5286,3.5945,10.3873,0.0018,22.7057,-13.0934,-0.0018,-228.2923
138150,-106.7823,18.7292,-0.0088,-0.2637,-178.2427,-0.5286,3.5945,10.3873,0.0018,22.7057,-13.0934,-0.0018,-228.2923
138166,-106.4268,19.4078,-0.0084,-0.2994,161.1515,-0.7167,4.5102,8.2239,0.0019,10.2193,-24.1437,0.001,-230.3422
138182,-106.4268,19.4078,-0.0084,-0.2994,161.1515,-0.7167,4.5102,8.2239,0.0019,10.2193,-24.1437,0.001,-230.3422
138198,-106.4268,19.4078,-0.0084,-0.2994,161.1515,-0.7167,4.5102,8.2239,0.0019,10.2193,-24.1437,0.001,-230.3422
138214,-106.4268,19.4078,-0.0084,-0.2994,161.1515,-0.7167,4.5102,8.2239,0.0019,10.2193,-24.1437,0.001,-230.3422
138230,-106.4268,19.4078,-0.0084,-0.2994,161.1515,-0.7167,4.5102,8.2239,0.0019,10.2193,-24.1437,0.001,-230.3422
138246,-106.1431,19.9328,-0.009,-0.2239,142.1222,-0.8535,3.1104,6.8017,0.005,-15.7384,-15.99,0.0346,-195.3466
138262,-106.1431,19.9328,-0.009,-0.2239,142.1222,-0.8535,3.1104,6.8017,0.005,-15.7384,-15.99,0.0346,-195.3466
138278,-106.1431,19.9328,-0.009,-0.2239,142.1222,-0.8535,3.1104,6.8017,0.005,-15.7384,-15.99,0.0346,-195.3466
138294,-106.1431,19.9328,-0.009,-0.2239,142.1222,-0.8535,3.1104,6.8017,0.005,-15.7384,-15.99,0.0346,-195.3466
138310,-106.1431,19.9328,-0.009,-0.2239,142.1222,-0.8535,3.1104,6.8017,0.005,-15.7384,-15.99,0.0346,-195.3466
138326,-106.1431,19.9328,-0.009,-0.2239,142.1222,-0.8535,3.1104,6.8017,0.005,-15.7384,-15.99,0.0346,-195.3466
138343,-106.0593,20.4359,-0.01,-0.0592,126.7301,-0.9069,0.9419,6.7714,0.0009,-24.8102,-0.3468,-0.0462,-155.4457
138358,-106.0593,20.4359,-0.01,-0.0592,126.7301,-0.9069,0.9419,6.7714,0.0009,-24.8102,-0.3468,-0.0462,-155.4457
138374,-106.0593,20.4359,-0.01,-0.0592,126.7301,-0.9069,0.9419,6.7714,0.0009,-24.8102,-0.3468,-0.0462,-155.4457
138390,-106.0593,20.4359,-0.01,-0.0592,126.7301,-0.9069,0.9419,6.7714,0.0009,-24.8102,-0.3468,-0.0462,-155.4457
138406,-106.0593,20.4359,-0.01,-0.0592,126.7301,-0.9069,0.9419,6.7714,0.0009,-24.8102,-0.3468,-0.0462,-155.4457
138424,-106.1285,21.0117,-0.0111,0.0913,116.0031,-0.7965,-0.5895,7.703,-0.0009,-18.0889,11.0048,-0.0222,-106.3839
138438,-106.1285,21.0117,-0.0111,0.0913,116.0031,-0.7965,-0.5895,7.703,-0.0009,-18.0889,11.0048,-0.0222,-106.3839
138454,-106.1285,21.0117,-0.0111,0.0913,116.0031,-0.7965,-0.5895,7.703,-0.0009,-18.0889,11.0048,-0.0222,-106.3839
138470,-106.1285,21.0117,-0.0111,0.0913,116.0031,-0.7965,-0.5895,7.703,-0.0009,-18.0889,11.0048,-0.0222,-106.3839
138486,-106.1285,21.0117,-0.0111,0.0913,116.0031,-0.7965,-0.5895,7.703,-0.0009,-18.0889,11.0048,-0.0222,-106.3839
138502,-106.1285,21.0117,-0.0111,0.0913,116.0031,-0.7965,-0.5895,7.703,-0.0009,-18.0889,11.0048,-0.0222,-106.3839
138518,-106.2386,21.7021,-0.0118,0.1595,107.6129,-0.4775,-0.4724,8.5536,-0.0026,1.3509,9.8157,-0.0193,-93.7067
138534,-106.2386,21.7021,-0.0118,0.1595,107.6129,-0.4775,-0.4724,8.5536,-0.0026,1.3509,9.8157,-0.0193,-93.7067
138550,-106.2386,21.7021,-0.0118,0.1595,107.6129,-0.4775,-0.4724,8.5536,-0.0026,1.3509,9.8157,-0.0193,-93.7067
138582,-106.2386,21.7021,-0.0118,0.1595,107.6129,-0.4775,-0.4724,8.5536,-0.0026,1.3509,9.8157,-0.0193,-93.7067
138598,-106.339,22.5167,-0.0121,0.1649,100.8326,-0.2836,-0.8799,9.0865,-0.0021,-4.3905,5.7407,0.0057,-49.2457
138615,-106.339,22.5167,-0.0121,0.1649,100.8326,-0.2836,-0.8799,9.0865,-0.0021,-4.3905,5.7407,0.0057,-49.2457
138630,-106.339,22.5167,-0.0121,0.1649,100.8326,-0.2836,-0.8799,9.0865,-0.0021,-4.3905,5.7407,0.0057,-49.2457
138646,-106.339,22.5167,-0.0121,0.1649,100.8326,-0.2836,-0.8799,9.0865,-0.0021,-4.3905,5.7407,0.0057,-49.2457
138662,-106.339,22.5167,-0.0121,0.1649,100.8326,-0.2836,-0.8799,9.0865,-0.0021,-4.3905,5.7407,0.0057,-49.2457
138678,-106.339,22.5167,-0.0121,0.1649,100.8326,-0.2836,-0.8799,9.0865,-0.0021,-4.3905,5.7407,0.0057,-49.2457
138694,-106.339,22.5167,-0.0121,0.1649,100.8326,-0.2836,-0.8799,9.0865,-0.0021,-4.3905,5.7407,0.0057,-49.2457
138710,-106.4708,23.3972,-0.0119,0.1249,98.4414,-0.255,-1.3165,9.2531,-0.0005,-4.5381,1.732,0.0165,-13.2183
138726,-106.4708,23.3972,-0.0119,0.1249,98.4414,-0.255,-1.3165,9.2531,-0.0005,-4.5381,1.732,0.0165,-13.2183
138742,-106.4708,23.3972,-0.0119,0.1249,98.4414,-0.255,-1.3165,9.2531,-0.0005,-4.5381,1.732,0.0165,-13.2183
138758,-106.4708,23.3972,-0.0119,0.1249,98.4414,-0.255,-1.3165,9.2531,-0.0005,-4.5381,1.732,0.0165,-13.2183
138774,-106.4708,23.3972,-0.0119,0.1249,98.4414,-0.255,-1.3165,9.2531,-0.0005,-4.5381,1.732,0.0165,-13.2183
138791,-106.594,24.2307,-0.0117,0.085,97.8545,-0.1666,-1.3316,9.3462,-0.0007,-0.1677,1.0382,-0.002,-2.8163
138806,-106.594,24.2307,-0.0117,0.085,97.8545,-0.1666,-1.3316,9.3462,-0.0007,-0.1677,1.0382,-0.002,-2.8163
138822,-106.594,24.2307,-0.0117,0.085,97.8545,-0.1666,-1.3316,9.3462,-0.0007,-0.1677,1.0382,-0.002,-2.8163
138838,-106.594,24.2307,-0.0117,0.085,97.8545,-0.1666,-1.3316,9.3462,-0.0007,-0.1677,1.0382,-0.002,-2.8163
138854,-106.594,24.2307,-0.0117,0.085,97.8545,-0.1666,-1.3316,9.3462,-0.0007,-0.1677,1.0382,-0.002,-2.8163
138870,-106.594,24.2307,-0.0117,0.085,97.8545,-0.1666,-1.3316,9.3462,-0.0007,-0.1677,1.0382,-0.002,-2.8163
138886,-106.7117,25.0632,-0.0115,0.0572,97.6627,-0.0959,-1.3055,9.4263,-0.0006,0.2935,0.9027,0.0009,-2.0361
138902,-106.7117,25.0632,-0.0115,0.0572,97.6627,-0.0959,-1.3055,9.4263,-0.0006,0.2935,0.9027,0.0009,-2.0361
138918,-106.7117,25.0632,-0.0115,0.0572,97.6627,-0.0959,-1.3055,9.4263,-0.0006,0.2935,0.9027,0.0009,-2.0361
138934,-106.7117,25.0632,-0.0115,0.0572,97.6627,-0.0959,-1.3055,9.4263,-0.0006,0.2935,0.9027,0.0009,-2.0361
138950,-106.7117,25.0632,-0.0115,0.0572,97.6627,-0.0959,-1.3055,9.4263,-0.0006,0.2935,0.9027,0.0009,-2.0361
138967,-106.8286,25.9175,-0.0114,0.0404,97.6063,-0.0524,-1.2909,9.5183,-0.0003,0.1622,1.0211,0.0028,-1.0007
138982,-106.8286,25.9175,-0.0114,0.0404,97.6063,-0.0524,-1.2909,9.5183,-0.0003,0.1622,1.0211,0.0028,-1.0007
138998,-106.8286,25.9175,-0.0114,0.0404,97.6063,-0.0524,-1.2909,9.5183,-0.0003,0.1622,1.0211,0.0028,-1.0007
139014,-106.8286,25.9175,-0.0114,0.0404,97.6063,-0.0524,-1.2909,9.5183,-0.0003,0.1622,1.0211,0.0028,-1.0007
139030,-106.8286,25.9175,-0.0114,0.0404,97.6063,-0.0524,-1.2909,9.5183,-0.0003,0.1622,1.0211,0.0028,-1.0007
139046,-106.8286,25.9175,-0.0114,0.0404,97.6063,-0.0524,-1.2909,9.5183,-0.0003,0.1622,1.0211,0.0028,-1.0007
139062,-106.9453,26.7832,-0.0114,0.0296,97.5901,-0.0283,-1.2873,9.5897,-0.0002,0.0402,0.7884,0.0021,-0.7544
139078,-106.9453,26.7832,-0.0114,0.0296,97.5901,-0.0283,-1.2873,9.5897,-0.0002,0.0402,0.7884,0.0021,-0.7544
139094,-106.9453,26.7832,-0.0114,0.0296,97.5901,-0.0283,-1.2873,9.5897,-0.0002,0.0402,0.7884,0.0021,-0.7544
139110,-106.9453,26.7832,-0.0114,0.0296,97.5901,-0.0283,-1.2873,9.5897,-0.0002,0.0402,0.7884,0.0021,-0.7544
139126,-106.9453,26.7832,-0.0114,0.0296,97.5901,-0.0283,-1.2873,9.5897,-0.0002,0.0402,0.7884,0.0021,-0.7544
139142,-106.9453,26.7832,-0.0114,0.0296,97.5901,-0.0283,-1.2873,9.5897,-0.0002,0.0402,0.7884,0.0021,-0.7544
139158,-107.0636,27.668,-0.0113,0.0221,97.5853,-0.0154,-1.2894,9.6491,-0.0,-0.0232,0.6458,0.0012,-0.7056
139174,-107.0636,27.668,-0.0113,0.0221,97.5853,-0.0154,-1.2894,9.6491,-0.0,-0.0232,0.6458,0.0012,-0.7056
139190,-107.0636,27.668,-0.0113,0.0221,97.5853,-0.0154,-1.2894,9.6491,-0.0,-0.0232,0.6458,0.0012,-0.7056
139206,-107.0636,27.668,-0.0113,0.0221,97.5853,-0.0154,-1.2894,9.6491,-0.0,-0.0232,0.6458,0.0012,-0.7056
139222,-107.0636,27.668,-0.0113,0.0221,97.5853,-0.0154,-1.2894,9.6491,-0.0,-0.0232,0.6458,0.0012,-0.7056
139238,-107.1819,28.5542,-0.0107,0.0391,97.5931,0.0334,-1.2973,9.7201,-0.0155,-0.0864,0.7768,-0.1687,-0.5745
139254,-107.1819,28.5542,-0.0107,0.0391,97.5931,0.0334,-1.2973,9.7201,-0.0155,-0.0864,0.7768,-0.1687,-0.5745
139270,-107.1819,28.5542,-0.0107,0.0391,97.5931,0.0334,-1.2973,9.7201,-0.0155,-0.0864,0.7768,-0.1687,-0.5745
139286,-107.1819,28.5542,-0.0107,0.0391,97.5931,0.0334,-1.2973,9.7201,-0.0155,-0.0864,0.7768,-0.1687,-0.5745
139302,-107.1819,28.5542,-0.0107,0.0391,97.5931,0.0334,-1.2973,9.7201,-0.0155,-0.0864,0.7768,-0.1687,-0.5745
139318,-107.1819,28.5542,-0.0107,0.0391,97.5931,0.0334,-1.2973,9.7201,-0.0155,-0.0864,0.7768,-0.1687,-0.5745
139334,-107.1819,28.5542,-0.0107,0.0391,97.5931,0.0334,-1.2973,9.7201,-0.0155,-0.0864,0.7768,-0.1687,-0.5745
139350,-107.1819,28.5542,-0.0107,0.0391,97.5931,0.0334,-1.2973,9.7201,-0.0155,-0.0864,0.7768,-0.1687,-0.5745
139366,-107.1819,28.5542,-0.0107,0.0391,97.5931,0.0334,-1.2973,9.7201,-0.0155,-0.0864,0.7768,-0.1687,-0.5745
139382,-107.1819,28.5542,-0.0107,0.0391,97.5931,0.0334,-1.2973,9.7201,-0.0155,-0.0864,0.7768,-0.1687,-0.5745
139398,-107.1819,28.5542,-0.0107,0.0391,97.5931,0.0334,-1.2973,9.7201,-0.0155,-0.0864,0.7768,-0.1687,-0.5745
139426,-107.1819,28.5542,-0.0107,0.0391,97.5931,0.0334,-1.2973,9.7201,-0.0155,-0.0864,0.7768,-0.1687,-0.5745
139430,-107.1819,28.5542,-0.0107,0.0391,97.5931,0.0334,-1.2973,9.7201,-0.0155,-0.0864,0.7768,-0.1687,-0.5745
139446,-107.1819,28.5542,-0.0107,0.0391,97.5931,0.0334,-1.2973,9.7201,-0.0155,-0.0864,0.7768,-0.1687,-0.5745
139462,-107.1819,28.5542,-0.0107,0.0391,97.5931,0.0334,-1.2973,9.7201,-0.0155,-0.0864,0.7768,-0.1687,-0.5745
139478,-107.1819,28.5542,-0.0107,0.0391,97.5931,0.0334,-1.2973,9.7201,-0.0155,-0.0864,0.7768,-0.1687,-0.5745
139494,-107.1819,28.5542,-0.0107,0.0391,97.5931,0.0334,-1.2973,9.7201,-0.0155,-0.0864,0.7768,-0.1687,-0.5745
139510,-107.1819,28.5542,-0.0107,0.0391,97.5931,0.0334,-1.2973,9.7201,-0.0155,-0.0864,0.7768,-0.1687,-0.5745
139526,-107.1819,28.5542,-0.0107,0.0391,97.5931,0.0334,-1.2973,9.7201,-0.0155,-0.0864,0.7768,-0.1687,-0.5745
139543,-107.3118,29.5276,-0.0112,0.0123,97.5902,-0.0096,-1.2984,9.7505,-0.0028,-0.0047,0.1281,0.0532,-0.8567
139558,-107.3118,29.5276,-0.0112,0.0123,97.5902,-0.0096,-1.2984,9.7505,-0.0028,-0.0047,0.1281,0.0532,-0.8567
139574,-107.3118,29.5276,-0.0112,0.0123,97.5902,-0.0096,-1.2984,9.7505,-0.0028,-0.0047,0.1281,0.0532,-0.8567
139590,-107.3118,29.5276,-0.0112,0.0123,97.5902,-0.0096,-1.2984,9.7505,-0.0028,-0.0047,0.1281,0.0532,-0.8567
139606,-107.3118,29.5276,-0.0112,0.0123,97.5902,-0.0096,-1.2984,9.7505,-0.0028,-0.0047,0.1281,0.0532,-0.8567
139622,-107.3118,29.5276,-0.0112,0.0123,97.5902,-0.0096,-1.2984,9.7505,-0.0028,-0.0047,0.1281,0.0532,-0.8567
139638,-107.3118,29.5276,-0.0112,0.0123,97.5902,-0.0096,-1.2984,9.7505,-0.0028,-0.0047,0.1281,0.0532,-0.8567
139654,-107.3118,29.5276,-0.0112,0.0123,97.5902,-0.0096,-1.2984,9.7505,-0.0028,-0.0047,0.1281,0.0532,-0.8567
139711,-107.3118,29.5276,-0.0112,0.0123,97.5902,-0.0096,-1.2984,9.7505,-0.0028,-0.0047,0.1281,0.0532,-0.8567
139733,-107.3118,29.5276,-0.0112,0.0123,97.5902,-0.0096,-1.2984,9.7505,-0.0028,-0.0047,0.1281,0.0532,-0.8567
139749,-107.3118,29.5276,-0.0112,0.0123,97.5902,-0.0096,-1.2984,9.7505,-0.0028,-0.0047,0.1281,0.0532,-0.8567
