timestamp,x,y,z,pitch,yaw,roll,vx,vy,vz,ax,ay,az,yaw_rate
1942,-106.6867,-4.8475,-0.025,0.0,-89.3578,0.0,-0.0,0.0,-1.6878,-0.0,0.0,37.1199,0.0
1958,-106.6867,-4.8475,-0.025,0.0,-89.3578,0.0,-0.0,0.0,-1.6878,-0.0,0.0,37.1199,0.0
1976,-106.6867,-4.8468,-0.0637,-0.0012,-89.3578,-0.0,-0.001,0.0931,-0.8027,0.0077,-0.6903,22.2615,-0.0
1990,-106.6867,-4.8468,-0.0637,-0.0012,-89.3578,-0.0,-0.001,0.0931,-0.8027,0.0077,-0.6903,22.2615,-0.0
2006,-106.6867,-4.8466,-0.0741,-0.0014,-89.3578,-0.0,-0.001,0.0878,-0.5002,0.0032,-0.2899,16.6616,-0.0
2022,-106.6867,-4.8464,-0.0796,-0.0014,-89.3578,-0.0,-0.0009,0.0789,-0.2859,0.0061,-0.5387,12.9974,0.0001
2040,-106.6867,-4.8462,-0.0824,-0.0014,-89.3578,-0.0,-0.0008,0.0754,-0.1125,0.0022,-0.1985,9.5928,0.0001
2056,-106.6867,-4.8459,-0.0828,-0.0014,-89.3578,-0.0,-0.0008,0.0704,0.0061,0.0033,-0.299,7.2151,-0.0
2071,-106.6868,-4.8456,-0.0815,-0.0014,-89.3578,-0.0,-0.0008,0.0697,0.0954,0.0005,-0.0452,5.2174,0.0002
2087,-106.6868,-4.8452,-0.0789,-0.0015,-89.3578,0.0,-0.0005,0.0418,0.1606,0.0177,-1.5564,3.636,-0.0006
2105,-106.6868,-4.8448,-0.0755,-0.0015,-89.3578,0.0,-0.0005,0.0411,0.2027,0.0004,-0.0384,2.4054,-0.0004
2118,-106.6868,-4.8443,-0.0714,-0.0015,-89.3578,0.0,-0.0005,0.041,0.2293,-0.0,-0.0063,1.4577,0.0004
2134,-106.6868,-4.8443,-0.0714,-0.0015,-89.3578,0.0,-0.0005,0.041,0.2293,-0.0,-0.0063,1.4577,0.0004
2152,-106.6868,-4.8422,-0.0659,-0.0038,-89.3577,0.0,-0.0015,0.1331,0.244,-0.0457,4.0248,0.6392,0.0023
2167,-106.6868,-4.8383,-0.0611,-0.0081,-89.3584,0.0,-0.0022,0.2086,0.2459,-0.035,3.9015,0.0994,-0.0295
2183,-106.6869,-4.8325,-0.0564,-0.0134,-89.3585,-0.0,-0.0035,0.3216,0.2401,-0.0674,5.9399,-0.3023,0.0099
2198,-106.687,-4.8253,-0.0522,-0.0188,-89.3562,-0.0,-0.0045,0.4163,0.2302,-0.0569,5.2059,-0.5432,0.3022
2214,-106.6871,-4.8164,-0.0482,-0.0244,-89.351,-0.0001,-0.0054,0.5157,0.2179,-0.0511,5.5864,-0.6937,0.448
2230,-106.6872,-4.8074,-0.0448,-0.0288,-89.3437,-0.0001,-0.006,0.591,0.2054,-0.0392,4.7299,-0.7873,0.2223
2246,-106.6872,-4.8074,-0.0448,-0.0288,-89.3437,-0.0001,-0.006,0.591,0.2054,-0.0392,4.7299,-0.7873,0.2223
2262,-106.6874,-4.7957,-0.0414,-0.0339,-89.3419,-0.0,-0.0076,0.6806,0.1907,-0.0913,5.0591,-0.8258,0.0026
2278,-106.6875,-4.7819,-0.038,-0.0388,-89.3413,0.0,-0.0089,0.7666,0.1751,-0.0665,4.6564,-0.8468,0.037
2295,-106.6877,-4.7662,-0.0349,-0.0432,-89.3409,0.0,-0.0099,0.8504,0.1593,-0.0519,4.4314,-0.8372,0.0142
2312,-106.6879,-4.7502,-0.0322,-0.0456,-89.34,0.0001,-0.0101,0.8723,0.1447,-0.014,1.2068,-0.8004,0.1203
2328,-106.6881,-4.7328,-0.0297,-0.0474,-89.3403,0.0001,-0.0106,0.9278,0.1304,-0.0278,2.9956,-0.774,-0.0659
2344,-106.6883,-4.716,-0.0276,-0.0487,-89.3435,0.0,-0.0116,1.0026,0.1185,-0.0583,4.4159,-0.7055,-0.3405
2360,-106.6886,-4.6964,-0.0255,-0.0528,-89.3353,0.0,-0.0123,1.1146,0.1212,-0.0399,6.6325,0.1651,0.4389
2374,-106.6888,-4.6774,-0.0237,-0.0539,-89.3341,0.0001,-0.0134,1.1237,0.1053,-0.0681,0.5558,-0.9722,-0.1871
2390,-106.689,-4.656,-0.0219,-0.053,-89.3371,0.0001,-0.013,1.1193,0.0922,0.022,-0.2405,-0.7144,-0.153
2406,-106.689,-4.656,-0.0219,-0.053,-89.3371,0.0001,-0.013,1.1193,0.0922,0.022,-0.2405,-0.7144,-0.153
2422,-106.6892,-4.6369,-0.0206,-0.0507,-89.3394,0.0,-0.0128,1.113,0.0789,0.0147,-0.3808,-0.7998,-0.1261
2438,-106.6895,-4.6144,-0.0192,-0.0472,-89.3416,0.0,-0.0126,1.1086,0.0692,0.0106,-0.2264,-0.5004,-0.1011
2456,-106.6897,-4.5945,-0.0182,-0.0435,-89.3431,-0.0,-0.0124,1.102,0.0587,0.0077,-0.383,-0.6025,-0.0836
2470,-106.6899,-4.5747,-0.0173,-0.0396,-89.3445,-0.0,-0.0123,1.0966,0.0511,0.0059,-0.3081,-0.4359,-0.0718
2488,-106.6901,-4.5547,-0.0165,-0.0358,-89.3457,-0.0001,-0.0122,1.0915,0.0446,0.005,-0.2909,-0.3748,-0.0664
2505,-106.6903,-4.5352,-0.0158,-0.0323,-89.3482,-0.0001,-0.0122,1.0916,0.0388,0.0028,0.0086,-0.3369,-0.2296
2520,-106.6905,-4.5146,-0.0152,-0.0289,-89.3516,-0.0001,-0.0119,1.0863,0.0339,0.0161,-0.292,-0.2658,-0.1682
2534,-106.6907,-4.4953,-0.0147,-0.0259,-89.3546,-0.0001,-0.0117,1.0911,0.0293,0.0111,0.2784,-0.2685,-0.2089
2550,-106.6909,-4.4759,-0.0143,-0.0233,-89.3573,-0.0001,-0.0119,1.0856,0.0257,-0.011,-0.3193,-0.2094,-0.1426
2566,-106.6909,-4.4759,-0.0143,-0.0233,-89.3573,-0.0001,-0.0119,1.0856,0.0257,-0.011,-0.3193,-0.2094,-0.1426
2582,-106.6911,-4.4519,-0.0138,-0.0251,-89.3593,-0.0001,-0.0138,1.2244,0.0226,-0.1022,7.3691,-0.1668,-0.0999
2598,-106.6914,-4.4305,-0.0135,-0.025,-89.3607,-0.0001,-0.0137,1.218,0.0194,0.0083,-0.3809,-0.1871,-0.0758
2614,-106.6916,-4.4064,-0.0132,-0.0277,-89.3647,-0.0,-0.0152,1.3354,0.0171,-0.0896,6.7369,-0.1329,-0.2171
2632,-106.6919,-4.382,-0.0129,-0.0284,-89.3661,0.0,-0.0151,1.3314,0.015,0.0099,-0.2248,-0.1198,-0.0706
2646,-106.6919,-4.3557,-0.0126,-0.0302,-89.4057,-0.0002,-0.0142,1.4157,0.0131,0.0496,4.6702,-0.1042,-2.0212
2664,-106.6921,-4.3274,-0.0124,-0.0363,-89.4039,-0.0004,-0.0174,1.7132,0.0114,-0.1865,17.3104,-0.0978,-0.2968
2681,-106.6923,-4.2936,-0.0121,-0.047,-89.4308,-0.0005,-0.0196,1.9417,0.01,-0.1288,12.9489,-0.0795,-4.1151
2694,-106.6929,-4.2589,-0.0119,-0.0553,-89.4168,0.0003,-0.0266,2.0774,0.0088,-0.4077,7.9161,-0.0722,-0.9271
2712,-106.6933,-4.2236,-0.0117,-0.06,-89.4115,0.0004,-0.025,2.1385,0.0077,0.0936,3.5731,-0.0616,1.4301
2726,-106.6939,-4.1826,-0.0115,-0.0671,-89.4026,0.0004,-0.0256,2.3127,0.0068,-0.0311,9.5713,-0.0508,2.0659
2743,-106.6941,-4.1371,-0.0114,-0.0725,-89.4381,0.0002,-0.0285,2.3678,0.0059,-0.1513,2.8651,-0.0453,0.3705
2758,-106.6941,-4.1371,-0.0114,-0.0725,-89.4381,0.0002,-0.0285,2.3678,0.0059,-0.1513,2.8651,-0.0453,0.3705
2774,-106.6946,-4.0939,-0.0113,-0.0738,-89.4418,0.0003,-0.0285,2.3905,0.0051,-0.0004,1.2538,-0.0455,1.8099
2791,-106.6951,-4.0508,-0.0112,-0.0725,-89.4463,0.0,-0.0253,2.4028,0.0045,0.1811,0.6883,-0.0357,1.3161
2808,-106.6955,-4.0064,-0.0112,-0.0698,-89.4459,-0.0002,-0.0249,2.4185,0.0039,0.019,0.8574,-0.0308,1.7501
2824,-106.6959,-3.9612,-0.0111,-0.0668,-89.4562,-0.0005,-0.0243,2.4617,0.0034,0.0349,2.3385,-0.0266,1.3355
2840,-106.6965,-3.9149,-0.0111,-0.0644,-89.4411,-0.0004,-0.0256,2.5176,0.003,-0.0737,3.0237,-0.0238,2.4375
2854,-106.6968,-3.871,-0.011,-0.0653,-89.4588,-0.0007,-0.0247,2.7054,0.0026,0.0588,11.3204,-0.0236,0.6687
2870,-106.6971,-3.8213,-0.011,-0.0653,-89.4687,-0.0009,-0.026,2.8085,0.0023,-0.0722,5.5793,-0.0154,-0.5976
2886,-106.6971,-3.8213,-0.011,-0.0653,-89.4687,-0.0009,-0.026,2.8085,0.0023,-0.0722,5.5793,-0.0154,-0.5976
2902,-106.6974,-3.7697,-0.0109,-0.0666,-89.4995,-0.0011,-0.0256,2.8526,0.002,0.0213,2.4001,-0.0159,-1.325
2918,-106.6979,-3.7186,-0.0109,-0.0689,-89.4892,-0.0011,-0.0275,3.0189,0.0017,-0.1111,9.5475,-0.0151,-0.4014
2934,-106.6979,-3.7186,-0.0109,-0.0689,-89.4892,-0.0011,-0.0275,3.0189,0.0017,-0.1111,9.5475,-0.0151,-0.4014
2950,-106.6979,-3.7186,-0.0109,-0.0689,-89.4892,-0.0011,-0.0275,3.0189,0.0017,-0.1111,9.5475,-0.0151,-0.4014
2966,-106.6979,-3.7186,-0.0109,-0.0689,-89.4892,-0.0011,-0.0275,3.0189,0.0017,-0.1111,9.5475,-0.0151,-0.4014
2982,-106.6979,-3.7186,-0.0109,-0.0689,-89.4892,-0.0011,-0.0275,3.0189,0.0017,-0.1111,9.5475,-0.0151,-0.4014
3000,-106.7,-3.4178,-0.0106,-0.0885,-89.5106,-0.0016,-0.0286,3.6503,0.0009,-0.0115,7.068,-0.0098,-0.4399
3014,-106.7,-3.4178,-0.0106,-0.0885,-89.5106,-0.0016,-0.0286,3.6503,0.0009,-0.0115,7.068,-0.0098,-0.4399
3030,-106.7006,-3.3328,-0.0106,-0.0892,-89.5155,-0.0013,-0.0306,3.7328,0.0007,-0.0879,3.5759,-0.006,-0.4679
3048,-106.7013,-3.2467,-0.0106,-0.0917,-89.5179,-0.0011,-0.0317,3.9337,0.0006,-0.0484,9.0251,-0.0052,1.4045
3063,-106.7018,-3.1808,-0.0105,-0.0931,-89.5344,-0.0009,-0.034,4.0505,0.0006,-0.1406,7.069,-0.0032,-1.8135
3080,-106.7025,-3.1117,-0.0105,-0.0935,-89.5149,-0.0007,-0.034,4.1417,0.0005,-0.0033,5.3537,-0.0036,1.4633
3097,-106.703,-3.0355,-0.0105,-0.0949,-89.5274,-0.0005,-0.0367,4.2714,0.0004,-0.1475,7.1501,-0.0029,-1.5733
3110,-106.703,-3.0355,-0.0105,-0.0949,-89.5274,-0.0005,-0.0367,4.2714,0.0004,-0.1475,7.1501,-0.0029,-1.5733
3126,-106.704,-2.9504,-0.0105,-0.094,-89.4888,-0.0002,-0.0371,4.3385,0.0004,-0.0198,3.3587,-0.0031,3.0153
3142,-106.7048,-2.874,-0.0105,-0.0922,-89.4766,0.0,-0.0396,4.391,0.0003,-0.1395,2.9669,-0.0032,-0.5577
3158,-106.7056,-2.7961,-0.0105,-0.0908,-89.459,0.0002,-0.0402,4.4836,0.0003,-0.0349,5.2451,-0.0021,2.1201
3174,-106.7063,-2.7231,-0.0105,-0.0896,-89.4607,0.0004,-0.0422,4.5554,0.0003,-0.124,4.4138,-0.002,-1.0483
3192,-106.7071,-2.6434,-0.0105,-0.0898,-89.4521,0.0004,-0.0426,4.682,0.0002,-0.0219,7.3355,-0.0017,1.5482
3208,-106.7078,-2.5589,-0.0105,-0.0895,-89.4672,0.0005,-0.0446,4.7716,0.0002,-0.1131,4.9754,-0.0015,-1.8464
3224,-106.7085,-2.4761,-0.0105,-0.0895,-89.4637,0.0004,-0.0441,4.8672,0.0002,0.03,5.5437,-0.0014,1.2937
3240,-106.7092,-2.3902,-0.0105,-0.0897,-89.4787,0.0004,-0.0462,4.9702,0.0002,-0.1171,5.8807,-0.0012,-1.8536
3254,-106.71,-2.3037,-0.0105,-0.0901,-89.4723,0.0003,-0.0457,5.0731,0.0001,0.0295,5.959,-0.0013,1.3725
3270,-106.7108,-2.2145,-0.0105,-0.0909,-89.4863,0.0003,-0.0477,5.1838,0.0001,-0.12,6.3524,-0.0017,-1.7351
3286,-106.7116,-2.1263,-0.0105,-0.0918,-89.4783,0.0002,-0.0474,5.2918,0.0001,0.0221,6.4001,0.0001,1.3367
3302,-106.7116,-2.1263,-0.0105,-0.0918,-89.4783,0.0002,-0.0474,5.2918,0.0001,0.0221,6.4001,0.0001,1.3367
3318,-106.7124,-2.0275,-0.0105,-0.0933,-89.4947,0.0001,-0.0497,5.4276,0.0001,-0.1255,7.3587,-0.0018,-1.7559
3334,-106.7133,-1.9349,-0.0105,-0.0943,-89.485,0.0001,-0.0493,5.5237,0.0001,0.0228,5.6712,0.0001,1.389
3350,-106.7141,-1.8406,-0.0105,-0.0959,-89.4929,0.0001,-0.0515,5.656,0.0001,-0.1291,7.8394,-0.0005,-1.1646
3368,-106.715,-1.7427,-0.0104,-0.0981,-89.4832,0.0,-0.0516,5.7948,0.0001,-0.0098,8.1269,0.0001,1.1792
3382,-106.7159,-1.6424,-0.0104,-0.1006,-89.4897,0.0,-0.0538,5.9354,0.0001,-0.1254,8.236,-0.0003,-0.9877
3398,-106.7169,-1.5386,-0.0104,-0.1033,-89.4824,0.0,-0.0542,6.0758,0.0001,-0.0248,8.1284,-0.0002,1.0337
3416,-106.7178,-1.4324,-0.0104,-0.1057,-89.488,0.0,-0.0562,6.2092,0.0001,-0.1138,7.7178,-0.0006,-0.9759
3433,-106.7188,-1.3239,-0.0104,-0.1078,-89.4821,0.0,-0.0566,6.3381,0.0,-0.026,7.4576,-0.0005,1.002
3447,-106.7198,-1.2059,-0.0104,-0.1096,-89.4886,0.0,-0.0586,6.472,0.0,-0.1048,7.2812,-0.001,-1.0479
3464,-106.7209,-1.0953,-0.0103,-0.1105,-89.4845,0.0,-0.0588,6.5803,0.0,-0.015,6.3778,0.0008,0.9964
3478,-106.7209,-1.0953,-0.0103,-0.1105,-89.4845,0.0,-0.0588,6.5803,0.0,-0.015,6.3778,0.0008,0.9964
3494,-106.7221,-0.9606,-0.0103,-0.112,-89.4843,0.0,-0.0606,6.7369,0.0,-0.0868,7.7546,-0.0005,-0.1212
3510,-106.7232,-0.8306,-0.0103,-0.1153,-89.484,0.0,-0.0623,6.929,0.0,-0.0918,10.1907,-0.0004,0.028
3528,-106.7243,-0.7126,-0.0103,-0.1183,-89.4839,0.0,-0.0637,7.0857,0.0,-0.0842,9.3684,-0.0,0.0599
3542,-106.7255,-0.5844,-0.0103,-0.1211,-89.4835,0.0,-0.0651,7.2388,0.0,-0.0765,8.6196,-0.0,0.1352
3560,-106.7266,-0.4539,-0.0103,-0.1232,-89.4829,0.0,-0.0663,7.3765,0.0,-0.0681,7.7585,-0.0007,0.1872
3577,-106.7278,-0.3266,-0.0102,-0.1244,-89.4829,0.0,-0.0674,7.4992,0.0,-0.0641,7.212,0.0003,0.1099
3592,-106.729,-0.193,-0.0102,-0.1248,-89.4833,-0.0,-0.0684,7.616,0.0,-0.0603,6.6454,-0.0004,0.0517
3608,-106.7301,-0.062,-0.0102,-0.1242,-89.4839,0.0,-0.0693,7.7164,0.0,-0.0542,5.9084,-0.0003,-0.018
3623,-106.7313,0.0731,-0.0103,-0.123,-89.4844,0.0,-0.0702,7.8138,-0.0,-0.052,5.6232,-0.0006,-0.0274
3638,-106.7326,0.2164,-0.0103,-0.1209,-89.4849,0.0,-0.0711,7.9042,-0.0,-0.0453,4.9869,0.0003,-0.0225
3654,-106.7326,0.2164,-0.0103,-0.1209,-89.4849,0.0,-0.0711,7.9042,-0.0,-0.0453,4.9869,0.0003,-0.0225
3670,-106.7339,0.3578,-0.0103,-0.1183,-89.4852,0.0,-0.0718,7.987,0.0,-0.0416,4.6768,0.0013,-0.0169
3686,-106.7353,0.5072,-0.0103,-0.1152,-89.4854,0.0,-0.0726,8.0761,0.0,-0.0426,4.8151,-0.0004,-0.0127
3704,-106.7366,0.6603,-0.0103,-0.1119,-89.4856,0.0,-0.0733,8.1588,0.0,-0.0387,4.4048,0.0004,-0.0093
3720,-106.738,0.8125,-0.0104,-0.1087,-89.4858,0.0,-0.0741,8.2457,0.0,-0.0412,4.7042,-0.0008,-0.0071
3735,-106.7392,0.9533,-0.0104,-0.1063,-89.4859,0.0,-0.075,8.3455,0.0,-0.0521,5.9107,0.0002,-0.0056
3751,-106.7406,1.1029,-0.0104,-0.1048,-89.486,0.0,-0.076,8.4669,0.0,-0.0606,6.8556,-0.0,-0.0042
3766,-106.7419,1.2485,-0.0104,-0.1041,-89.486,-0.0,-0.0771,8.5845,0.0,-0.0612,6.9165,-0.0002,-0.0031
3782,-106.7434,1.4198,-0.0104,-0.1037,-89.4861,-0.0,-0.0782,8.7109,0.0,-0.0567,6.4156,0.0007,-0.0022
3798,-106.7434,1.4198,-0.0104,-0.1037,-89.4861,-0.0,-0.0782,8.7109,0.0,-0.0567,6.4156,0.0007,-0.0022
3814,-106.7449,1.5794,-0.0104,-0.1033,-89.4861,-0.0,-0.0791,8.8156,0.0,-0.0512,5.7747,-0.0007,-0.0018
3830,-106.7463,1.7348,-0.0104,-0.1028,-89.4861,0.0,-0.08,8.9202,-0.0,-0.0531,5.9915,-0.0006,-0.0012
3848,-106.7477,1.898,-0.0104,-0.1024,-89.4861,-0.0,-0.081,9.0293,-0.0,-0.0536,6.0293,-0.0008,-0.001
3864,-106.7491,2.0528,-0.0104,-0.102,-89.4861,-0.0,-0.0819,9.1319,0.0,-0.0539,6.0436,0.0014,-0.0007
3881,-106.7505,2.2119,-0.0104,-0.1017,-89.4861,-0.0,-0.0829,9.2369,0.0,-0.0542,6.0814,0.0005,-0.0007
3896,-106.752,2.3795,-0.0104,-0.1014,-89.4861,-0.0,-0.0838,9.342,-0.0,-0.0522,5.8457,-0.001,-0.0005
3913,-106.7535,2.5421,-0.0104,-0.1009,-89.4861,0.0,-0.0847,9.4406,0.0,-0.0508,5.7146,0.0011,-0.0004
3926,-106.7552,2.7245,-0.0104,-0.1002,-89.4861,-0.0,-0.0856,9.5441,0.0,-0.0484,5.4058,-0.0001,-0.0004
3942,-106.7552,2.7245,-0.0104,-0.1002,-89.4861,-0.0,-0.0856,9.5441,0.0,-0.0484,5.4058,-0.0001,-0.0004
3958,-106.7567,2.8941,-0.0104,-0.0994,-89.4861,-0.0,-0.0864,9.6358,0.0,-0.0465,5.1967,-0.0005,-0.0003
3974,-106.7584,3.0818,-0.0104,-0.0983,-89.4861,-0.0,-0.0873,9.7317,0.0,-0.0444,4.9668,0.0001,-0.0003
3991,-106.7601,3.2769,-0.0104,-0.0967,-89.4862,-0.0,-0.0881,9.8194,-0.0,-0.0395,4.4097,-0.0003,-0.0003
4007,-106.7616,3.4462,-0.0105,-0.0952,-89.4862,-0.0,-0.0888,9.8982,0.0,-0.0412,4.5996,0.0002,-0.0002
4024,-106.7633,3.6277,-0.0105,-0.0938,-89.4861,0.0,-0.0896,9.9882,0.0,-0.0443,4.9481,0.0003,-0.0001
4040,-106.765,3.8252,-0.0105,-0.0922,-89.4861,-0.0,-0.0904,10.0789,-0.0,-0.0413,4.6204,-0.0007,0.0001
4054,-106.7666,3.9999,-0.0105,-0.0908,-89.4862,0.0,-0.0911,10.1592,-0.0,-0.0418,4.6617,0.0003,-0.0
4071,-106.7683,4.1918,-0.0105,-0.0895,-89.4861,0.0,-0.0919,10.2484,0.0,-0.0428,4.7606,0.0003,-0.0001
4086,-106.7683,4.1918,-0.0105,-0.0895,-89.4861,0.0,-0.0919,10.2484,0.0,-0.0428,4.7606,0.0003,-0.0001
4102,-106.7699,4.3723,-0.0105,-0.0884,-89.4861,0.0,-0.0927,10.3314,-0.0,-0.0425,4.739,-0.0004,-0.0
4118,-106.7716,4.5545,-0.0105,-0.0874,-89.4861,0.0,-0.0934,10.4155,-0.0,-0.043,4.8047,0.0,-0.0001
4135,-106.7732,4.7372,-0.0105,-0.0865,-89.4861,0.0,-0.0942,10.4988,0.0,-0.0429,4.7781,0.0002,-0.0001
4152,-106.775,4.9383,-0.0105,-0.0856,-89.4861,0.0,-0.0949,10.5868,0.0,-0.0414,4.6219,0.0003,-0.0001
4168,-106.7767,5.1212,-0.0105,-0.0847,-89.4861,0.0,-0.0957,10.6655,0.0,-0.0411,4.5806,0.0001,-0.0001
4185,-106.7783,5.3091,-0.0105,-0.0839,-89.4861,0.0,-0.0964,10.7449,0.0,-0.0406,4.5343,-0.0004,-0.0001
4198,-106.7783,5.3091,-0.0105,-0.0839,-89.4861,0.0,-0.0964,10.7449,0.0,-0.0406,4.5343,-0.0004,-0.0001
4214,-106.7802,5.5201,-0.0105,-0.083,-89.4861,-0.0,-0.0971,10.8305,-0.0,-0.0394,4.3876,-0.0001,-0.0001
4230,-106.7822,5.7386,-0.0106,-0.0821,-89.4862,-0.0,-0.0979,10.9201,-0.0,-0.0401,4.4675,0.0,-0.0
4248,-106.7839,5.9336,-0.0106,-0.0811,-89.4861,0.0,-0.0986,10.9958,0.0,-0.0382,4.2604,0.0003,-0.0
4262,-106.7855,6.1128,-0.0106,-0.0803,-89.4861,-0.0,-0.0992,11.0636,0.0,-0.0375,4.1797,-0.0001,0.0
4279,-106.7872,6.2988,-0.0106,-0.0795,-89.4861,-0.0,-0.0998,11.1324,0.0,-0.0368,4.1109,-0.0001,0.0
4295,-106.7889,6.4868,-0.0106,-0.0786,-89.4861,0.0,-0.1004,11.2004,-0.0,-0.0363,4.043,-0.0007,-0.0
4312,-106.7906,6.6751,-0.0106,-0.0777,-89.4861,0.0,-0.101,11.267,0.0,-0.0356,3.9787,0.001,-0.0
4328,-106.7923,6.8689,-0.0106,-0.0767,-89.4861,0.0,-0.1016,11.3341,0.0,-0.0351,3.9174,-0.0003,-0.0
4344,-106.7941,7.0617,-0.0106,-0.0758,-89.4861,0.0,-0.1022,11.3994,0.0,-0.0346,3.8584,0.0001,-0.0
4360,-106.7958,7.2561,-0.0106,-0.0748,-89.4861,-0.0,-0.1028,11.464,0.0,-0.0341,3.8027,-0.0002,-0.0
4374,-106.7958,7.2561,-0.0106,-0.0748,-89.4861,-0.0,-0.1028,11.464,0.0,-0.0341,3.8027,-0.0002,-0.0
4390,-106.798,7.4996,-0.0106,-0.0736,-89.4861,0.0,-0.1035,11.5431,0.0,-0.0336,3.7416,0.0003,-0.0
4407,-106.8,7.7279,-0.0106,-0.0725,-89.4861,0.0,-0.1042,11.6156,0.0,-0.033,3.6832,-0.0003,-0.0
4422,-106.8019,7.9401,-0.0106,-0.0715,-89.4862,-0.0001,-0.1048,11.6816,-0.0001,-0.0325,3.6281,-0.005,-0.0005
4439,-106.8039,8.1567,-0.0106,-0.0705,-89.4862,-0.0001,-0.1054,11.7477,-0.0,-0.0323,3.5768,0.0035,-0.0004
4455,-106.8057,8.3579,-0.0106,-0.0696,-89.4862,-0.0,-0.1059,11.8079,-0.0,-0.0315,3.5287,0.0011,-0.0003
4472,-106.8075,8.5639,-0.0107,-0.0686,-89.4862,-0.0,-0.1064,11.8684,-0.0,-0.0311,3.4842,0.0003,-0.0003
4488,-106.8095,8.7806,-0.0107,-0.0677,-89.4862,-0.0,-0.107,11.931,0.0,-0.0308,3.4396,0.0006,-0.0002
4502,-106.8112,8.9794,-0.0107,-0.0668,-89.4862,-0.0,-0.1075,11.9874,0.0,-0.0305,3.3962,-0.0,-0.0002
4518,-106.8131,9.1859,-0.0107,-0.066,-89.4862,-0.0,-0.108,12.045,0.0,-0.0301,3.356,-0.0,-0.0001
4535,-106.815,9.4006,-0.0107,-0.0651,-89.4862,-0.0,-0.1085,12.1039,0.0,-0.0297,3.3149,-0.0005,-0.0001
4550,-106.815,9.4006,-0.0107,-0.0651,-89.4862,-0.0,-0.1085,12.1039,0.0,-0.0297,3.3149,-0.0005,-0.0001
4566,-106.8169,9.6166,-0.0107,-0.0642,-89.4862,-0.0,-0.1091,12.1621,0.0,-0.0294,3.2739,0.0003,-0.0001
4584,-106.8191,9.8507,-0.0107,-0.0633,-89.4862,0.0,-0.1096,12.2241,-0.0,-0.0289,3.2326,-0.0004,-0.0001
4600,-106.8211,10.0753,-0.0107,-0.0624,-89.4862,-0.0,-0.1101,12.2825,-0.0,-0.0287,3.1906,-0.0001,-0.0001
4615,-106.8231,10.3008,-0.0107,-0.0616,-89.4862,0.0,-0.1107,12.3401,-0.0,-0.0282,3.1511,0.0,-0.0001
4632,-106.8251,10.5258,-0.0107,-0.0608,-89.4862,0.0,-0.1112,12.3967,0.0,-0.0278,3.1122,0.0006,-0.0001
4647,-106.827,10.7363,-0.0107,-0.0601,-89.4862,0.0,-0.1116,12.4487,-0.0,-0.0276,3.0749,-0.0005,-0.0
4662,-106.827,10.7363,-0.0107,-0.0601,-89.4862,0.0,-0.1116,12.4487,-0.0,-0.0276,3.0749,-0.0005,-0.0
4678,-106.829,10.9651,-0.0107,-0.0593,-89.4862,0.0,-0.1121,12.5044,0.0,-0.0272,3.0391,0.0001,-0.0
4696,-106.8329,11.396,-0.0107,-0.0579,-89.4862,0.0,-0.1131,12.6067,0.0,-0.0266,2.9678,-0.0002,-0.0
4710,-106.8329,11.396,-0.0107,-0.0579,-89.4862,0.0,-0.1131,12.6067,0.0,-0.0266,2.9678,-0.0002,-0.0
4726,-106.8349,11.614,-0.0107,-0.0572,-89.4862,0.0,-0.1135,12.6565,0.0,-0.0259,2.8855,0.0,-0.0
4744,-106.8368,11.8341,-0.0107,-0.0564,-89.4862,-0.0,-0.1139,12.7032,-0.0,-0.0242,2.6929,-0.0008,-0.0
4760,-106.839,12.0738,-0.0107,-0.0554,-89.4862,0.0,-0.1143,12.7505,0.0,-0.0225,2.5154,0.0009,-0.0
4776,-106.841,12.3018,-0.0108,-0.0543,-89.4862,0.0,-0.1147,12.7922,-0.0,-0.0211,2.3379,-0.0003,-0.0
4791,-106.843,12.5187,-0.0108,-0.0532,-89.4862,0.0,-0.1151,12.8291,0.0,-0.0195,2.1778,0.0003,-0.0
4808,-106.8449,12.7359,-0.0108,-0.052,-89.4862,0.0,-0.1154,12.8635,-0.0,-0.0183,2.0354,-0.0004,-0.0
4822,-106.8469,12.957,-0.0108,-0.0506,-89.4862,0.0,-0.1157,12.8961,-0.0,-0.0171,1.9041,-0.0,-0.0
4838,-106.8489,13.1828,-0.0108,-0.0491,-89.4862,0.0,-0.1159,12.9273,0.0,-0.0159,1.7799,0.0002,-0.0
4854,-106.851,13.4095,-0.0108,-0.0476,-89.4862,0.0,-0.1162,12.9563,-0.0,-0.0149,1.6615,-0.0001,-0.0
4870,-106.851,13.4095,-0.0108,-0.0476,-89.4862,0.0,-0.1162,12.9563,-0.0,-0.0149,1.6615,-0.0001,-0.0
4886,-106.853,13.6323,-0.0108,-0.046,-89.4862,-0.0,-0.1164,12.9829,0.0,-0.0139,1.5492,0.0002,-0.0
4902,-106.855,13.8627,-0.0108,-0.0443,-89.4862,-0.0,-0.1167,13.0086,-0.0,-0.013,1.4477,-0.0011,-0.0
4918,-106.8571,14.0893,-0.0108,-0.0427,-89.4862,0.0,-0.1169,13.0321,0.0,-0.0121,1.3492,0.0009,-0.0
4952,-106.8614,14.5687,-0.0109,-0.0391,-89.4862,-0.0,-0.1173,13.0768,-0.0,-0.0106,1.1777,-0.001,-0.0
4967,-106.864,14.8035,-0.0109,-0.0374,-89.5111,0.0045,-0.1753,13.0925,0.0,-3.2346,0.8775,0.0013,-1.9817
4984,-106.8678,15.0256,-0.0109,-0.0355,-89.5882,0.0158,-0.2765,13.0973,0.0001,-5.9694,0.2815,0.0073,-5.4812
4999,-106.8733,15.2519,-0.0109,-0.0331,-89.7444,0.0345,-0.4125,13.0917,0.0003,-7.8695,-0.325,0.0098,-10.2804
5016,-106.8805,15.4722,-0.0109,-0.0303,-89.9877,0.0579,-0.5657,13.0762,0.0005,-9.0915,-0.9167,0.0134,-15.8654
5031,-106.8904,15.7042,-0.0109,-0.0266,-90.3588,0.0868,-0.7423,13.0496,0.0007,-9.9374,-1.4963,0.0128,-22.5824
5046,-106.9018,15.9224,-0.0109,-0.0226,-90.8239,0.1151,-0.9146,13.0163,0.0009,-10.2808,-1.9856,0.012,-29.5053
5062,-106.9018,15.9224,-0.0109,-0.0226,-90.8239,0.1151,-0.9146,13.0163,0.0009,-10.2808,-1.9856,0.012,-29.5053
5078,-106.916,16.1507,-0.011,-0.0177,-91.4461,0.1455,-1.0982,12.9735,0.0011,-10.4439,-2.4351,0.0091,-37.3553
5094,-106.9323,16.3789,-0.011,-0.0122,-92.2167,0.1747,-1.2801,12.924,0.0012,-10.2991,-2.8033,0.0065,-45.7406
5110,-106.9508,16.6073,-0.011,-0.0062,-93.147,0.2014,-1.4566,12.8691,0.0013,-9.9394,-3.09,0.0038,-54.6194
5128,-106.9706,16.8297,-0.011,-0.0002,-94.2142,0.2241,-1.6193,12.8122,0.0012,-9.3649,-3.2773,-0.0024,-63.6757
5142,-106.9909,17.0415,-0.011,0.0057,-95.3857,0.2419,-1.7631,12.7561,0.0012,-8.639,-3.3705,-0.0043,-72.6368
5159,-107.0128,17.2567,-0.0111,0.0116,-96.7413,0.2562,-1.8969,12.6979,0.0011,-7.8641,-3.4202,-0.0066,-82.0758
5176,-107.0352,17.4666,-0.0111,0.0172,-98.2308,0.2658,-2.0124,12.6415,0.0009,-6.9198,-3.3792,-0.0097,-91.5646
5193,-107.0591,17.6832,-0.0111,0.0226,-99.9502,0.2711,-2.1153,12.5842,0.0007,-5.9322,-3.3049,-0.01,-101.6403
5208,-107.083,17.8967,-0.0111,0.0273,-101.8328,0.2715,-2.1974,12.5301,0.0005,-4.7679,-3.1417,-0.0125,-111.8033
5222,-107.1083,18.1206,-0.0112,0.0314,-104.0187,0.2666,-2.2626,12.4761,0.0003,-3.5783,-2.9637,-0.0125,-122.7163
5238,-107.132,18.3325,-0.0112,0.0341,-106.2882,0.2571,-2.3,12.4296,0.0,-2.151,-2.6727,-0.0142,-133.182
5254,-107.1543,18.5371,-0.0112,0.0356,-108.671,0.2435,-2.313,12.3892,-0.0002,-0.7656,-2.3873,-0.0125,-143.3939
5270,-107.1543,18.5371,-0.0112,0.0356,-108.671,0.2435,-2.313,12.3892,-0.0002,-0.7656,-2.3873,-0.0125,-143.3939
5288,-107.1762,18.7454,-0.0112,0.0358,-111.302,0.2252,-2.3031,12.3521,-0.0004,0.5675,-2.1324,-0.0138,-153.9282
5302,-107.1966,18.9515,-0.0112,0.0344,-114.1106,0.2031,-2.2687,12.3199,-0.0006,1.9846,-1.8575,-0.0124,-164.4368
5320,-107.2181,19.1881,-0.0112,0.0309,-117.5811,0.1743,-2.1836,12.2933,-0.0009,4.2214,-1.3188,-0.0112,-176.1398
5336,-107.2344,19.401,-0.0112,0.0242,-120.9299,0.139,-2.0348,12.2895,-0.001,8.1358,-0.2128,-0.0091,-185.1098
5350,-107.2344,19.401,-0.0112,0.0242,-120.9299,0.139,-2.0348,12.2895,-0.001,8.1358,-0.2128,-0.0091,-185.1098
5366,-107.2501,19.6797,-0.0111,0.01,-125.5598,0.0842,-1.7303,12.3012,-0.0013,12.5887,0.4869,-0.0137,-194.3047
5382,-107.2562,19.8781,-0.011,-0.0045,-129.0058,0.0378,-1.4551,12.3079,-0.0016,15.839,0.3847,-0.0149,-199.6456
5398,-107.2576,20.0677,-0.0109,-0.0209,-132.4022,-0.0092,-1.1542,12.306,-0.0018,17.9802,-0.1147,-0.0132,-203.9585
5416,-107.2534,20.2744,-0.0108,-0.0417,-136.2149,-0.0642,-0.7898,12.289,-0.0008,19.787,-0.9205,0.0568,-208.0134
5430,-107.2439,20.4706,-0.0106,-0.0632,-139.9344,-0.1163,-0.4149,12.254,0.0002,21.2129,-1.9858,0.0549,-211.2337
5448,-107.2294,20.6568,-0.0105,-0.0846,-143.5521,-0.1652,-0.0372,12.1997,0.0009,22.2589,-3.1971,0.0397,-213.8481
5464,-107.2097,20.8397,-0.0103,-0.1062,-147.1931,-0.2129,0.3515,12.1235,0.0014,23.0107,-4.5109,0.0293,-216.1005
5480,-107.1819,21.0357,-0.0101,-0.1301,-151.2,-0.2642,0.7844,12.0139,0.0017,23.5253,-5.9545,0.02,-218.2758
5496,-107.1517,21.2094,-0.0099,-0.1508,-154.8436,-0.307,1.1792,11.8891,0.0019,23.7889,-7.5245,0.0128,-219.9845
5510,-107.1126,21.3959,-0.0097,-0.1729,-158.8687,-0.3529,1.6129,11.7243,0.0021,23.8498,-9.0615,0.0077,-221.7732
5526,-107.1126,21.3959,-0.0097,-0.1729,-158.8687,-0.3529,1.6129,11.7243,0.0021,23.8498,-9.0615,0.0077,-221.7732
5558,-107.0197,21.7462,-0.0093,-0.2127,-166.7948,-0.4335,2.4437,11.3174,0.0021,23.2427,-12.3196,-0.0026,-225.0485
5574,-106.9582,21.9346,-0.0091,-0.2326,-171.3007,-0.4786,2.8606,10.9937,0.0022,20.8837,-16.2182,0.003,-225.6837
5590,-106.9108,22.0675,-0.009,-0.2439,-174.6082,-0.5114,3.1104,10.696,0.0022,17.0971,-20.3796,0.0025,-226.6172
5609,-106.8533,22.2152,-0.0089,-0.2546,-178.4559,-0.5536,3.3602,10.3189,0.0022,14.7597,-22.2781,0.0023,-227.5331
5622,-106.7988,22.3458,-0.0088,-0.2624,177.9774,-0.5932,3.5523,9.9434,0.0022,12.2812,-23.999,0.0004,-228.0872
5639,-106.7328,22.4923,-0.0087,-0.2693,173.7375,-0.6434,3.7289,9.4708,0.0023,9.5105,-25.4545,0.0012,-228.4635
5655,-106.6734,22.6169,-0.0086,-0.2733,169.9189,-0.687,3.8353,9.0255,0.0023,6.3649,-26.6474,0.0001,-228.4716
5671,-106.6155,22.7365,-0.0086,-0.2721,166.0962,-0.7287,3.7215,8.6339,0.0022,-6.73,-23.1607,-0.004,-223.9086
5687,-106.5661,22.8488,-0.0087,-0.2592,162.5483,-0.7596,3.4094,8.3571,0.002,-19.1131,-16.9542,-0.0119,-215.0079
5704,-106.5221,22.9604,-0.0088,-0.2406,159.0768,-0.7812,3.0924,8.0936,-0.0021,-19.0529,-15.839,-0.2484,-206.5724
5718,-106.4787,23.0904,-0.0091,-0.2118,155.0759,-0.8069,2.6686,7.7879,-0.003,-21.2216,-15.3024,-0.0444,-198.5093
5734,-106.4515,23.1897,-0.0093,-0.1863,152.0165,-0.831,2.3142,7.5443,0.0042,-22.582,-15.5228,0.4612,-193.7429
5752,-106.4303,23.2883,-0.0094,-0.1594,148.9565,-0.8573,1.9592,7.3231,0.0034,-22.1714,-13.8192,-0.0497,-190.3193
5768,-106.4156,23.3878,-0.0095,-0.1323,145.8532,-0.8825,1.5658,7.1355,0.0028,-23.8026,-11.3484,-0.0379,-186.8733
5782,-106.4083,23.4851,-0.0097,-0.1054,142.8766,-0.9017,1.1532,7.0284,0.0023,-25.3281,-6.5771,-0.0331,-181.1216
5798,-106.4083,23.5835,-0.0099,-0.0773,139.9988,-0.9129,0.7289,6.9909,0.0017,-25.8846,-2.288,-0.0319,-173.5933
5814,-106.4147,23.6787,-0.0101,-0.0498,137.3825,-0.9158,0.3262,7.0089,0.0013,-25.7887,1.156,-0.0301,-165.4726
5830,-106.4279,23.7802,-0.0103,-0.0201,134.7993,-0.9113,-0.0851,7.0713,0.0008,-25.2652,3.8346,-0.0277,-156.4191
5846,-106.448,23.8875,-0.0105,0.0105,132.303,-0.9008,-0.492,7.1614,0.0004,-24.3052,5.3785,-0.0275,-146.5903
5862,-106.4742,23.9981,-0.0107,0.0401,129.976,-0.8858,-0.8747,7.273,0.0,-22.8243,6.6547,-0.0198,-136.1116
5878,-106.4742,23.9981,-0.0107,0.0401,129.976,-0.8858,-0.8747,7.273,0.0,-22.8243,6.6547,-0.0198,-136.1116
5894,-106.506,24.1134,-0.0109,0.0682,127.8064,-0.8659,-1.2255,7.409,-0.0003,-20.7076,8.0324,-0.0191,-125.4147
5910,-106.5428,24.2339,-0.0111,0.0941,125.7867,-0.8394,-1.5201,7.5694,-0.0006,-17.1999,9.364,-0.0182,-115.5898
5928,-106.585,24.365,-0.0113,0.118,123.8119,-0.8004,-1.7277,7.7562,-0.0009,-11.5222,10.3683,-0.0173,-107.8843
5942,-106.6263,24.4916,-0.0115,0.1361,122.0551,-0.7534,-1.8332,7.9332,-0.0012,-6.2513,10.4807,-0.0183,-102.9031
5959,-106.6708,24.6301,-0.0116,0.1513,120.2581,-0.6915,-1.8719,8.1164,-0.0016,-2.1549,10.2094,-0.0192,-99.3584
5975,-106.7141,24.7695,-0.0117,0.1621,118.5382,-0.6229,-1.8468,8.2887,-0.002,1.4239,9.7873,-0.0215,-97.2775
5991,-106.7569,24.914,-0.0118,0.1696,116.8216,-0.5475,-1.7736,8.4542,-0.0023,4.1084,9.2887,-0.0217,-96.0824
6007,-106.7975,25.0605,-0.0119,0.174,115.1322,-0.47,-1.6647,8.6092,-0.0027,6.1583,8.7618,-0.02,-95.4612
6024,-106.8388,25.222,-0.012,0.176,113.315,-0.3841,-1.5164,8.7655,-0.003,7.7727,8.1908,-0.0159,-95.2029
6038,-106.8388,25.222,-0.012,0.176,113.315,-0.3841,-1.5164,8.7655,-0.003,7.7727,8.1908,-0.0159,-95.2029
6070,-106.9087,25.5376,-0.0121,0.1741,109.8624,-0.2295,-1.1655,9.0318,-0.0033,10.2157,7.057,-0.0072,-95.3308
6088,-106.9507,25.762,-0.0122,0.1711,107.5408,-0.1414,-1.0177,9.2218,-0.0034,5.8972,7.577,-0.0014,-90.5266
6102,-106.9825,25.9447,-0.0122,0.1687,105.8192,-0.0942,-1.004,9.3489,-0.0032,0.684,6.357,0.0106,-83.4377
6118,-106.9825,25.9447,-0.0122,0.1687,105.8192,-0.0942,-1.004,9.3489,-0.0032,0.684,6.357,0.0106,-83.4377
6136,-107.0146,26.1339,-0.0122,0.1657,104.2599,-0.0665,-1.0704,9.4589,-0.0028,-3.2554,5.3922,0.0184,-72.816
6152,-107.0451,26.311,-0.0123,0.1613,103.0544,-0.0599,-1.1994,9.5245,-0.0024,-6.8473,3.4803,0.0232,-60.921
6168,-107.0755,26.4813,-0.0122,0.1556,102.1238,-0.0684,-1.3587,9.5568,-0.0017,-8.8571,1.7947,0.0337,-48.6457
6184,-107.1076,26.6554,-0.0122,0.1484,101.3846,-0.0831,-1.4893,9.5867,-0.001,-7.1364,1.6354,0.0387,-37.7665
6198,-107.1396,26.8267,-0.0122,0.1408,100.8254,-0.096,-1.5778,9.6183,-0.0005,-4.9379,1.7658,0.0329,-29.1061
6214,-107.1396,26.8267,-0.0122,0.1408,100.8254,-0.096,-1.5778,9.6183,-0.0005,-4.9379,1.7658,0.0329,-29.1061
6230,-107.1765,27.0243,-0.0121,0.1319,100.3329,-0.1047,-1.6387,9.6543,-0.0,-2.9621,1.7499,0.0207,-21.5773
6248,-107.2097,27.2032,-0.012,0.1234,100.0094,-0.1071,-1.6686,9.6866,0.0001,-1.6122,1.7404,0.0094,-16.2914
6264,-107.2436,27.3887,-0.012,0.1147,99.7599,-0.1044,-1.6812,9.7172,0.0002,-0.6626,1.6027,0.002,-12.2902
6280,-107.2785,27.5827,-0.0119,0.1059,99.5667,-0.0975,-1.6818,9.7457,0.0002,-0.0263,1.4294,-0.0012,-9.5289
6294,-107.3108,27.7651,-0.0118,0.098,99.4301,-0.0891,-1.6763,9.7714,0.0001,0.2943,1.371,-0.0043,-7.6764
6310,-107.3108,27.7651,-0.0118,0.098,99.4301,-0.0891,-1.6763,9.7714,0.0001,0.2943,1.371,-0.0043,-7.6764
6326,-107.3462,27.9713,-0.0114,0.1135,99.3188,-0.0053,-1.6689,9.7939,0.0424,0.3487,1.068,2.0086,-4.5188
6343,-107.3783,28.1607,-0.0107,0.1369,99.2465,0.0911,-1.6645,9.8146,0.0433,0.2276,1.0762,0.0452,-2.814
6359,-107.4113,28.356,-0.0101,0.1505,99.196,0.1421,-1.6601,9.8222,-0.0339,0.2249,0.3809,-3.8907,-1.526
6374,-107.4461,28.5591,-0.0104,0.1183,99.158,0.0592,-1.6405,9.8708,-0.0254,0.9465,2.3545,0.4133,-1.7745
6390,-107.4461,28.5591,-0.0104,0.1183,99.158,0.0592,-1.6405,9.8708,-0.0254,0.9465,2.3545,0.4133,-1.7745
6407,-107.4793,28.7575,-0.0107,0.0959,99.1331,0.0188,-1.6267,9.8916,-0.0197,0.6904,1.0334,0.2861,-1.0265
6422,-107.5117,28.9537,-0.0109,0.079,99.1167,-0.0015,-1.6177,9.9109,-0.0159,0.4504,0.9748,0.1894,-0.4367
6440,-107.5429,29.1451,-0.0111,0.0669,99.1071,-0.01,-1.6121,9.9266,-0.0117,0.2923,0.8139,0.2185,0.3224
6455,-107.5429,29.1451,-0.0111,0.0669,99.1071,-0.01,-1.6121,9.9266,-0.0117,0.2923,0.8139,0.2185,0.3224
6470,-107.5803,29.3748,-0.0112,0.0565,99.0902,-0.0133,-1.6081,9.9422,-0.0077,0.1711,0.6749,0.1723,-1.1287
6486,-107.6124,29.574,-0.0113,0.0498,99.0864,-0.0135,-1.6063,9.9583,-0.0055,0.0914,0.8066,0.1113,0.0182
6503,-107.6481,29.7949,-0.0113,0.0438,99.0787,-0.0123,-1.6051,9.9745,-0.0039,0.0551,0.7269,0.073,-0.5488
6518,-107.678,29.9811,-0.0114,0.0395,99.0732,-0.0109,-1.6045,9.9863,-0.0029,0.0307,0.6348,0.0509,-0.9331
6534,-107.678,29.9811,-0.0114,0.0395,99.0732,-0.0109,-1.6045,9.9863,-0.0029,0.0307,0.6348,0.0509,-0.9331
6550,-107.7068,30.1602,-0.0114,0.036,99.069,-0.0096,-1.6041,9.995,-0.0021,0.0256,0.484,0.046,-1.3442
6566,-107.7375,30.3514,-0.0114,0.0327,99.0644,-0.0082,-1.6034,10.0005,-0.0015,0.0331,0.2894,0.0333,-1.9591
6583,-107.7686,30.5462,-0.0111,0.0131,99.0604,0.0149,-1.6026,9.9996,0.0181,0.04,-0.0479,1.0036,-2.4497
6600,-107.7989,30.737,-0.0105,-0.02,99.0586,0.0523,-1.6053,10.0044,0.019,-0.1367,0.2553,0.049,-2.2774
6614,-107.829,30.9247,-0.0104,-0.0245,99.0617,0.0494,-1.6082,10.0239,-0.0111,-0.1568,1.0354,-1.6069,-1.6546
6631,-107.829,30.9247,-0.0104,-0.0245,99.0617,0.0494,-1.6082,10.0239,-0.0111,-0.1568,1.0354,-1.6069,-1.6546
6646,-107.8628,31.1344,-0.0107,-0.0078,99.0668,0.0238,-1.6048,10.0333,-0.0082,0.1628,0.4525,0.1396,0.4914
6664,-107.8928,31.322,-0.0109,0.0021,99.0697,0.0111,-1.6044,10.046,-0.0066,0.0182,0.6772,0.0847,1.0098
6680,-107.9243,31.5194,-0.011,0.0085,99.0737,0.004,-1.6045,10.0538,-0.0049,-0.0006,0.4001,0.0834,1.8225
6696,-107.955,31.7116,-0.0111,0.012,99.0745,0.0006,-1.6046,10.0574,-0.0036,-0.0059,0.1884,0.0697,2.0865
6710,-107.9844,31.8957,-0.0112,0.0138,99.0739,-0.0011,-1.6053,10.0632,-0.0026,-0.0423,0.3175,0.0552,1.8735
6727,-107.9844,31.8957,-0.0112,0.0138,99.0739,-0.0011,-1.6053,10.0632,-0.0026,-0.0423,0.3175,0.0552,1.8735
6742,-108.0176,32.1038,-0.0112,0.0149,99.0685,-0.002,-1.6081,10.0793,-0.0017,-0.1341,0.7783,0.045,-0.4932
6760,-108.0491,32.3009,-0.0113,0.0154,99.0649,-0.0023,-1.6104,10.0916,-0.0012,-0.1148,0.6272,0.0244,-1.1582
6776,-108.0815,32.5041,-0.0113,0.0156,99.0689,-0.0024,-1.6126,10.1054,-0.0007,-0.1103,0.6894,0.0237,0.3852
6791,-108.1114,32.6912,-0.0113,0.0156,99.0711,-0.0023,-1.6144,10.117,-0.0005,-0.099,0.6269,0.0129,0.8057
6806,-108.1413,32.879,-0.0113,0.0153,99.0737,-0.0022,-1.6158,10.1256,-0.0003,-0.073,0.4612,0.012,1.3452
6822,-108.1413,32.879,-0.0113,0.0153,99.0737,-0.0022,-1.6158,10.1256,-0.0003,-0.073,0.4612,0.012,1.3452
6838,-108.1743,33.0856,-0.0113,0.015,99.0692,-0.002,-1.618,10.1382,-0.0001,-0.1095,0.6196,0.0075,-0.4254
6856,-108.2207,33.377,-0.0113,0.0144,99.0789,-0.0018,-1.6205,10.1531,0.0,-0.0886,0.5177,0.0051,1.311
6870,-108.2207,33.377,-0.0113,0.0144,99.0789,-0.0018,-1.6205,10.1531,0.0,-0.0886,0.5177,0.0051,1.311
6886,-108.2483,33.5498,-0.0113,0.0139,99.0788,-0.0017,-1.6217,10.1593,0.0001,-0.0684,0.3661,0.0025,1.2839
6904,-108.2821,33.761,-0.0113,0.0135,99.0741,-0.0016,-1.624,10.1718,0.0001,-0.1112,0.6031,0.0012,-0.4619
6919,-108.3132,33.9557,-0.0113,0.0131,99.0712,-0.0014,-1.6259,10.1818,0.0001,-0.0984,0.5218,0.0013,-1.0147
6935,-108.3442,34.15,-0.0113,0.0126,99.0685,-0.0013,-1.6271,10.1879,0.0002,-0.0617,0.3199,0.0009,-1.6312
6950,-108.3442,34.15,-0.0113,0.0126,99.0685,-0.0013,-1.6271,10.1879,0.0002,-0.0617,0.3199,0.0009,-1.6312
6966,-108.3784,34.364,-0.0113,0.0122,99.074,-0.0012,-1.6289,10.1999,0.0001,-0.0868,0.5703,-0.0002,0.5155
6982,-108.4121,34.5753,-0.0113,0.0119,99.0715,-0.0011,-1.6309,10.2126,0.0001,-0.0981,0.6168,-0.0003,-0.29
7000,-108.4452,34.7826,-0.0113,0.0117,99.0729,-0.001,-1.6328,10.2246,0.0001,-0.0915,0.589,-0.0,0.1687
7016,-108.476,34.9755,-0.0113,0.0115,99.0743,-0.0009,-1.6344,10.235,0.0001,-0.0849,0.5506,-0.0003,0.4144
7030,-108.5076,35.1733,-0.0113,0.0113,99.0772,-0.0008,-1.6357,10.2439,0.0001,-0.0702,0.4616,-0.0007,0.9493
7046,-108.5076,35.1733,-0.0113,0.0113,99.0772,-0.0008,-1.6357,10.2439,0.0001,-0.0702,0.4616,-0.0007,0.9493
7062,-108.5382,35.3648,-0.0113,0.011,99.0795,-0.0007,-1.6366,10.2495,0.0001,-0.0468,0.3024,-0.0003,1.4633
7078,-108.5701,35.5653,-0.0112,0.0105,99.0817,-0.0006,-1.637,10.2522,0.0001,-0.0195,0.1368,-0.0011,2.0143
7096,-108.6041,35.7778,-0.0112,0.0101,99.0764,-0.0006,-1.6392,10.2643,0.0001,-0.1061,0.5833,-0.0,-0.4686
7110,-108.6347,35.969,-0.0112,0.01,99.0741,-0.0005,-1.641,10.2739,0.0001,-0.0964,0.515,-0.0001,-0.9188
7126,-108.6347,35.969,-0.0112,0.01,99.0741,-0.0005,-1.641,10.2739,0.0001,-0.0964,0.515,-0.0001,-0.9188
7142,-108.6665,36.168,-0.0112,0.0097,99.071,-0.0005,-1.6422,10.2802,0.0001,-0.0639,0.3282,-0.0006,-1.5889
7160,-108.6988,36.3703,-0.0112,0.0093,99.0691,-0.0005,-1.6428,10.2827,0.0001,-0.0281,0.1246,-0.0007,-2.0872
7175,-108.7296,36.5629,-0.0112,0.0089,99.0697,-0.0005,-1.6434,10.2862,0.0,-0.0343,0.19,-0.0007,-1.914
7192,-108.7619,36.7654,-0.0112,0.0084,99.0688,-0.0005,-1.6441,10.2897,0.0,-0.0331,0.1742,-0.0001,-2.1776
7206,-108.7933,36.9617,-0.0112,0.008,99.0692,-0.0005,-1.6448,10.294,0.0,-0.0391,0.2277,0.0001,-2.0292
7222,-108.7933,36.9617,-0.0112,0.008,99.0692,-0.0005,-1.6448,10.294,0.0,-0.0391,0.2277,0.0001,-2.0292
7238,-108.826,37.1664,-0.0112,0.0076,99.0685,-0.0004,-1.6455,10.2979,0.0,-0.0357,0.1979,-0.0003,-2.2608
