timestamp,x,y,z,pitch,yaw,roll,vx,vy,vz,ax,ay,az,yaw_rate
77567,-106.6867,-4.8475,-0.0799,0.0,-89.3578,0.0,-0.0,-0.0,0.0482,-0.0,0.0,7.1199,0.0
77583,-106.6867,-4.8475,-0.0799,0.0,-89.3578,0.0,-0.0,-0.0,0.0482,-0.0,0.0,7.1199,0.0
77599,-106.6867,-4.8475,-0.0799,0.0,-89.3578,0.0,-0.0,-0.0,0.0482,-0.0,0.0,7.1199,0.0
77615,-106.6867,-4.8475,-0.0799,0.0,-89.3578,0.0,-0.0,-0.0,0.0482,-0.0,0.0,7.1199,0.0
77631,-106.6867,-4.8475,-0.0799,0.0,-89.3578,0.0,-0.0,-0.0,0.0482,-0.0,0.0,7.1199,0.0
77647,-106.6867,-4.8475,-0.0799,0.0,-89.3578,0.0,-0.0,-0.0,0.0482,-0.0,0.0,7.1199,0.0
77663,-106.6867,-4.8475,-0.0799,0.0,-89.3578,0.0,-0.0,-0.0,0.0482,-0.0,0.0,7.1199,0.0
77679,-106.6867,-4.8475,-0.0799,0.0,-89.3578,0.0,-0.0,-0.0,0.0482,-0.0,0.0,7.1199,0.0
77695,-106.6867,-4.8475,-0.0799,0.0,-89.3578,0.0,-0.0,-0.0,0.0482,-0.0,0.0,7.1199,0.0
77711,-106.6867,-4.8475,-0.0799,0.0,-89.3578,0.0,-0.0,-0.0,0.0482,-0.0,0.0,7.1199,0.0
77727,-106.6867,-4.8475,-0.0799,0.0,-89.3578,0.0,-0.0,-0.0,0.0482,-0.0,0.0,7.1199,0.0
77743,-106.6867,-4.8475,-0.0799,0.0,-89.3578,0.0,-0.0,-0.0,0.0482,-0.0,0.0,7.1199,0.0
77759,-106.6867,-4.8458,-0.0606,-0.0016,-89.3578,0.0,-0.0004,0.04,0.2369,-0.0025,0.224,1.0565,-0.0003
77775,-106.6867,-4.8458,-0.0606,-0.0016,-89.3578,0.0,-0.0004,0.04,0.2369,-0.0025,0.224,1.0565,-0.0003
77791,-106.6867,-4.8458,-0.0606,-0.0016,-89.3578,0.0,-0.0004,0.04,0.2369,-0.0025,0.224,1.0565,-0.0003
77807,-106.6867,-4.8458,-0.0606,-0.0016,-89.3578,0.0,-0.0004,0.04,0.2369,-0.0025,0.224,1.0565,-0.0003
77823,-106.6867,-4.8458,-0.0606,-0.0016,-89.3578,0.0,-0.0004,0.04,0.2369,-0.0025,0.224,1.0565,-0.0003
77839,-106.6867,-4.8458,-0.0606,-0.0016,-89.3578,0.0,-0.0004,0.04,0.2369,-0.0025,0.224,1.0565,-0.0003
77855,-106.6867,-4.8458,-0.0606,-0.0016,-89.3578,0.0,-0.0004,0.04,0.2369,-0.0025,0.224,1.0565,-0.0003
77871,-106.6867,-4.8458,-0.0606,-0.0016,-89.3578,0.0,-0.0004,0.04,0.2369,-0.0025,0.224,1.0565,-0.0003
77887,-106.6867,-4.8458,-0.0606,-0.0016,-89.3578,0.0,-0.0004,0.04,0.2369,-0.0025,0.224,1.0565,-0.0003
77903,-106.6868,-4.8411,-0.0395,-0.0049,-89.3577,0.0,-0.0011,0.101,0.1793,-0.0047,0.4215,-0.3984,-0.0018
77919,-106.6868,-4.8411,-0.0395,-0.0049,-89.3577,0.0,-0.0011,0.101,0.1793,-0.0047,0.4215,-0.3984,-0.0018
77935,-106.6868,-4.8411,-0.0395,-0.0049,-89.3577,0.0,-0.0011,0.101,0.1793,-0.0047,0.4215,-0.3984,-0.0018
77951,-106.6868,-4.8411,-0.0395,-0.0049,-89.3577,0.0,-0.0011,0.101,0.1793,-0.0047,0.4215,-0.3984,-0.0018
77967,-106.6868,-4.8411,-0.0395,-0.0049,-89.3577,0.0,-0.0011,0.101,0.1793,-0.0047,0.4215,-0.3984,-0.0018
77983,-106.6868,-4.8411,-0.0395,-0.0049,-89.3577,0.0,-0.0011,0.101,0.1793,-0.0047,0.4215,-0.3984,-0.0018
78000,-106.6871,-4.8083,-0.0258,-0.0252,-89.3625,-0.0002,-0.005,0.5367,0.1049,-0.0394,4.3907,-0.7499,-0.1222
78015,-106.6871,-4.8083,-0.0258,-0.0252,-89.3625,-0.0002,-0.005,0.5367,0.1049,-0.0394,4.3907,-0.7499,-0.1222
78031,-106.6871,-4.8083,-0.0258,-0.0252,-89.3625,-0.0002,-0.005,0.5367,0.1049,-0.0394,4.3907,-0.7499,-0.1222
78047,-106.6871,-4.8083,-0.0258,-0.0252,-89.3625,-0.0002,-0.005,0.5367,0.1049,-0.0394,4.3907,-0.7499,-0.1222
78063,-106.6871,-4.8083,-0.0258,-0.0252,-89.3625,-0.0002,-0.005,0.5367,0.1049,-0.0394,4.3907,-0.7499,-0.1222
78079,-106.6871,-4.8083,-0.0258,-0.0252,-89.3625,-0.0002,-0.005,0.5367,0.1049,-0.0394,4.3907,-0.7499,-0.1222
78095,-106.6878,-4.7402,-0.0185,-0.0428,-89.3704,0.0002,-0.0124,0.8646,0.0574,-0.0791,3.5345,-0.5117,0.7031
78111,-106.6878,-4.7402,-0.0185,-0.0428,-89.3704,0.0002,-0.0124,0.8646,0.0574,-0.0791,3.5345,-0.5117,0.7031
78127,-106.6878,-4.7402,-0.0185,-0.0428,-89.3704,0.0002,-0.0124,0.8646,0.0574,-0.0791,3.5345,-0.5117,0.7031
78143,-106.6878,-4.7402,-0.0185,-0.0428,-89.3704,0.0002,-0.0124,0.8646,0.0574,-0.0791,3.5345,-0.5117,0.7031
78159,-106.6878,-4.7402,-0.0185,-0.0428,-89.3704,0.0002,-0.0124,0.8646,0.0574,-0.0791,3.5345,-0.5117,0.7031
78177,-106.6897,-4.6398,-0.0143,-0.0519,-89.3499,0.0015,-0.0203,1.1373,0.0323,-0.0866,2.9818,-0.275,-2.8458
78191,-106.6897,-4.6398,-0.0143,-0.0519,-89.3499,0.0015,-0.0203,1.1373,0.0323,-0.0866,2.9818,-0.275,-2.8458
78207,-106.6897,-4.6398,-0.0143,-0.0519,-89.3499,0.0015,-0.0203,1.1373,0.0323,-0.0866,2.9818,-0.275,-2.8458
78223,-106.6897,-4.6398,-0.0143,-0.0519,-89.3499,0.0015,-0.0203,1.1373,0.0323,-0.0866,2.9818,-0.275,-2.8458
78239,-106.6897,-4.6398,-0.0143,-0.0519,-89.3499,0.0015,-0.0203,1.1373,0.0323,-0.0866,2.9818,-0.275,-2.8458
78255,-106.6897,-4.6398,-0.0143,-0.0519,-89.3499,0.0015,-0.0203,1.1373,0.0323,-0.0866,2.9818,-0.275,-2.8458
78273,-106.6916,-4.5283,-0.0124,-0.0341,-89.3256,0.0006,-0.0201,1.1253,0.0132,0.0016,-0.1254,-0.1996,-2.9825
78287,-106.6916,-4.5283,-0.0124,-0.0341,-89.3256,0.0006,-0.0201,1.1253,0.0132,0.0016,-0.1254,-0.1996,-2.9825
78303,-106.6916,-4.5283,-0.0124,-0.0341,-89.3256,0.0006,-0.0201,1.1253,0.0132,0.0016,-0.1254,-0.1996,-2.9825
78319,-106.6916,-4.5283,-0.0124,-0.0341,-89.3256,0.0006,-0.0201,1.1253,0.0132,0.0016,-0.1254,-0.1996,-2.9825
78335,-106.6916,-4.5283,-0.0124,-0.0341,-89.3256,0.0006,-0.0201,1.1253,0.0132,0.0016,-0.1254,-0.1996,-2.9825
78351,-106.6916,-4.5283,-0.0124,-0.0341,-89.3256,0.0006,-0.0201,1.1253,0.0132,0.0016,-0.1254,-0.1996,-2.9825
78369,-106.694,-4.4161,-0.0117,-0.0196,-89.2914,0.0015,-0.0282,1.164,0.0058,-0.0832,0.4012,-0.0775,-4.1597
78383,-106.694,-4.4161,-0.0117,-0.0196,-89.2914,0.0015,-0.0282,1.164,0.0058,-0.0832,0.4012,-0.0775,-4.1597
78399,-106.694,-4.4161,-0.0117,-0.0196,-89.2914,0.0015,-0.0282,1.164,0.0058,-0.0832,0.4012,-0.0775,-4.1597
78415,-106.694,-4.4161,-0.0117,-0.0196,-89.2914,0.0015,-0.0282,1.164,0.0058,-0.0832,0.4012,-0.0775,-4.1597
78431,-106.694,-4.4161,-0.0117,-0.0196,-89.2914,0.0015,-0.0282,1.164,0.0058,-0.0832,0.4012,-0.0775,-4.1597
78447,-106.694,-4.4161,-0.0117,-0.0196,-89.2914,0.0015,-0.0282,1.164,0.0058,-0.0832,0.4012,-0.0775,-4.1597
78465,-106.6962,-4.2953,-0.0113,-0.027,-89.2522,-0.0007,-0.0157,1.5502,0.0027,0.1346,4.1563,-0.0331,3.2846
78479,-106.6962,-4.2953,-0.0113,-0.027,-89.2522,-0.0007,-0.0157,1.5502,0.0027,0.1346,4.1563,-0.0331,3.2846
78495,-106.6962,-4.2953,-0.0113,-0.027,-89.2522,-0.0007,-0.0157,1.5502,0.0027,0.1346,4.1563,-0.0331,3.2846
78511,-106.6962,-4.2953,-0.0113,-0.027,-89.2522,-0.0007,-0.0157,1.5502,0.0027,0.1346,4.1563,-0.0331,3.2846
78527,-106.6962,-4.2953,-0.0113,-0.027,-89.2522,-0.0007,-0.0157,1.5502,0.0027,0.1346,4.1563,-0.0331,3.2846
78543,-106.6962,-4.2953,-0.0113,-0.027,-89.2522,-0.0007,-0.0157,1.5502,0.0027,0.1346,4.1563,-0.0331,3.2846
78561,-106.6979,-4.1156,-0.0109,-0.0628,-89.3147,-0.0008,-0.0269,2.1221,0.0013,-0.1243,6.3187,-0.0151,-0.3151
78575,-106.6979,-4.1156,-0.0109,-0.0628,-89.3147,-0.0008,-0.0269,2.1221,0.0013,-0.1243,6.3187,-0.0151,-0.3151
78591,-106.6979,-4.1156,-0.0109,-0.0628,-89.3147,-0.0008,-0.0269,2.1221,0.0013,-0.1243,6.3187,-0.0151,-0.3151
78607,-106.6979,-4.1156,-0.0109,-0.0628,-89.3147,-0.0008,-0.0269,2.1221,0.0013,-0.1243,6.3187,-0.0151,-0.3151
78623,-106.6979,-4.1156,-0.0109,-0.0628,-89.3147,-0.0008,-0.0269,2.1221,0.0013,-0.1243,6.3187,-0.0151,-0.3151
78639,-106.6979,-4.1156,-0.0109,-0.0628,-89.3147,-0.0008,-0.0269,2.1221,0.0013,-0.1243,6.3187,-0.0151,-0.3151
78655,-106.7006,-3.882,-0.0106,-0.0811,-89.3361,-0.0006,-0.0336,2.8055,0.0007,-0.0731,7.4245,-0.0074,-0.7968
78671,-106.7006,-3.882,-0.0106,-0.0811,-89.3361,-0.0006,-0.0336,2.8055,0.0007,-0.0731,7.4245,-0.0074,-0.7968
78687,-106.7006,-3.882,-0.0106,-0.0811,-89.3361,-0.0006,-0.0336,2.8055,0.0007,-0.0731,7.4245,-0.0074,-0.7968
78703,-106.7006,-3.882,-0.0106,-0.0811,-89.3361,-0.0006,-0.0336,2.8055,0.0007,-0.0731,7.4245,-0.0074,-0.7968
78719,-106.7006,-3.882,-0.0106,-0.0811,-89.3361,-0.0006,-0.0336,2.8055,0.0007,-0.0731,7.4245,-0.0074,-0.7968
78737,-106.7042,-3.6031,-0.0106,-0.0816,-89.3094,-0.0002,-0.0392,3.1624,0.0003,-0.0605,3.9001,-0.0035,-0.6894
78751,-106.7042,-3.6031,-0.0106,-0.0816,-89.3094,-0.0002,-0.0392,3.1624,0.0003,-0.0605,3.9001,-0.0035,-0.6894
78767,-106.7042,-3.6031,-0.0106,-0.0816,-89.3094,-0.0002,-0.0392,3.1624,0.0003,-0.0605,3.9001,-0.0035,-0.6894
78783,-106.7042,-3.6031,-0.0106,-0.0816,-89.3094,-0.0002,-0.0392,3.1624,0.0003,-0.0605,3.9001,-0.0035,-0.6894
78799,-106.7042,-3.6031,-0.0106,-0.0816,-89.3094,-0.0002,-0.0392,3.1624,0.0003,-0.0605,3.9001,-0.0035,-0.6894
78815,-106.7042,-3.6031,-0.0106,-0.0816,-89.3094,-0.0002,-0.0392,3.1624,0.0003,-0.0605,3.9001,-0.0035,-0.6894
78833,-106.7083,-3.2816,-0.0106,-0.0773,-89.2867,-0.0001,-0.0442,3.5921,0.0002,-0.0542,4.6067,-0.0016,0.6186
78847,-106.7083,-3.2816,-0.0106,-0.0773,-89.2867,-0.0001,-0.0442,3.5921,0.0002,-0.0542,4.6067,-0.0016,0.6186
78863,-106.7083,-3.2816,-0.0106,-0.0773,-89.2867,-0.0001,-0.0442,3.5921,0.0002,-0.0542,4.6067,-0.0016,0.6186
78879,-106.7083,-3.2816,-0.0106,-0.0773,-89.2867,-0.0001,-0.0442,3.5921,0.0002,-0.0542,4.6067,-0.0016,0.6186
78895,-106.7083,-3.2816,-0.0106,-0.0773,-89.2867,-0.0001,-0.0442,3.5921,0.0002,-0.0542,4.6067,-0.0016,0.6186
78911,-106.7083,-3.2816,-0.0106,-0.0773,-89.2867,-0.0001,-0.0442,3.5921,0.0002,-0.0542,4.6067,-0.0016,0.6186
78929,-106.7128,-2.9006,-0.0106,-0.0791,-89.3094,-0.0002,-0.0493,4.1174,0.0001,-0.0521,5.4077,-0.001,0.224
78943,-106.7128,-2.9006,-0.0106,-0.0791,-89.3094,-0.0002,-0.0493,4.1174,0.0001,-0.0521,5.4077,-0.001,0.224
78959,-106.7128,-2.9006,-0.0106,-0.0791,-89.3094,-0.0002,-0.0493,4.1174,0.0001,-0.0521,5.4077,-0.001,0.224
78975,-106.7128,-2.9006,-0.0106,-0.0791,-89.3094,-0.0002,-0.0493,4.1174,0.0001,-0.0521,5.4077,-0.001,0.224
78991,-106.7128,-2.9006,-0.0106,-0.0791,-89.3094,-0.0002,-0.0493,4.1174,0.0001,-0.0521,5.4077,-0.001,0.224
79007,-106.7128,-2.9006,-0.0106,-0.0791,-89.3094,-0.0002,-0.0493,4.1174,0.0001,-0.0521,5.4077,-0.001,0.224
79025,-106.7176,-2.4737,-0.0104,-0.1052,-89.3502,-0.0007,-0.0595,5.1321,0.0,-0.1113,11.0779,-0.0004,-2.2643
79039,-106.7176,-2.4737,-0.0104,-0.1052,-89.3502,-0.0007,-0.0595,5.1321,0.0,-0.1113,11.0779,-0.0004,-2.2643
79055,-106.7176,-2.4737,-0.0104,-0.1052,-89.3502,-0.0007,-0.0595,5.1321,0.0,-0.1113,11.0779,-0.0004,-2.2643
79071,-106.7176,-2.4737,-0.0104,-0.1052,-89.3502,-0.0007,-0.0595,5.1321,0.0,-0.1113,11.0779,-0.0004,-2.2643
79087,-106.7176,-2.4737,-0.0104,-0.1052,-89.3502,-0.0007,-0.0595,5.1321,0.0,-0.1113,11.0779,-0.0004,-2.2643
79103,-106.7176,-2.4737,-0.0104,-0.1052,-89.3502,-0.0007,-0.0595,5.1321,0.0,-0.1113,11.0779,-0.0004,-2.2643
79121,-106.7236,-1.934,-0.0102,-0.1248,-89.3721,-0.0009,-0.066,5.9181,0.0,-0.0679,8.1342,-0.0004,-2.6827
79135,-106.7236,-1.934,-0.0102,-0.1248,-89.3721,-0.0009,-0.066,5.9181,0.0,-0.0679,8.1342,-0.0004,-2.6827
79151,-106.7236,-1.934,-0.0102,-0.1248,-89.3721,-0.0009,-0.066,5.9181,0.0,-0.0679,8.1342,-0.0004,-2.6827
79167,-106.7236,-1.934,-0.0102,-0.1248,-89.3721,-0.0009,-0.066,5.9181,0.0,-0.0679,8.1342,-0.0004,-2.6827
79183,-106.7236,-1.934,-0.0102,-0.1248,-89.3721,-0.0009,-0.066,5.9181,0.0,-0.0679,8.1342,-0.0004,-2.6827
79199,-106.7236,-1.934,-0.0102,-0.1248,-89.3721,-0.0009,-0.066,5.9181,0.0,-0.0679,8.1342,-0.0004,-2.6827
79217,-106.73,-1.338,-0.0103,-0.1234,-89.3915,-0.001,-0.0723,6.5712,0.0,-0.0663,6.9071,-0.0001,-2.8353
79231,-106.73,-1.338,-0.0103,-0.1234,-89.3915,-0.001,-0.0723,6.5712,0.0,-0.0663,6.9071,-0.0001,-2.8353
79247,-106.73,-1.338,-0.0103,-0.1234,-89.3915,-0.001,-0.0723,6.5712,0.0,-0.0663,6.9071,-0.0001,-2.8353
79263,-106.73,-1.338,-0.0103,-0.1234,-89.3915,-0.001,-0.0723,6.5712,0.0,-0.0663,6.9071,-0.0001,-2.8353
79279,-106.73,-1.338,-0.0103,-0.1234,-89.3915,-0.001,-0.0723,6.5712,0.0,-0.0663,6.9071,-0.0001,-2.8353
79295,-106.73,-1.338,-0.0103,-0.1234,-89.3915,-0.001,-0.0723,6.5712,0.0,-0.0663,6.9071,-0.0001,-2.8353
79311,-106.7371,-0.6898,-0.0103,-0.1159,-89.3917,-0.0008,-0.0778,7.1767,-0.0,-0.0587,6.4415,-0.0001,-2.326
79327,-106.7371,-0.6898,-0.0103,-0.1159,-89.3917,-0.0008,-0.0778,7.1767,-0.0,-0.0587,6.4415,-0.0001,-2.326
79343,-106.7371,-0.6898,-0.0103,-0.1159,-89.3917,-0.0008,-0.0778,7.1767,-0.0,-0.0587,6.4415,-0.0001,-2.326
79359,-106.7371,-0.6898,-0.0103,-0.1159,-89.3917,-0.0008,-0.0778,7.1767,-0.0,-0.0587,6.4415,-0.0001,-2.326
79375,-106.7371,-0.6898,-0.0103,-0.1159,-89.3917,-0.0008,-0.0778,7.1767,-0.0,-0.0587,6.4415,-0.0001,-2.326
79391,-106.7446,0.0031,-0.0103,-0.1136,-89.3902,-0.0006,-0.0843,7.8028,0.0,-0.0705,6.7976,0.0001,-1.8998
79407,-106.7446,0.0031,-0.0103,-0.1136,-89.3902,-0.0006,-0.0843,7.8028,0.0,-0.0705,6.7976,0.0001,-1.8998
79423,-106.7446,0.0031,-0.0103,-0.1136,-89.3902,-0.0006,-0.0843,7.8028,0.0,-0.0705,6.7976,0.0001,-1.8998
79439,-106.7446,0.0031,-0.0103,-0.1136,-89.3902,-0.0006,-0.0843,7.8028,0.0,-0.0705,6.7976,0.0001,-1.8998
79455,-106.7446,0.0031,-0.0103,-0.1136,-89.3902,-0.0006,-0.0843,7.8028,0.0,-0.0705,6.7976,0.0001,-1.8998
79471,-106.7446,0.0031,-0.0103,-0.1136,-89.3902,-0.0006,-0.0843,7.8028,0.0,-0.0705,6.7976,0.0001,-1.8998
79489,-106.7528,0.7589,-0.0103,-0.1101,-89.3898,-0.0004,-0.0905,8.381,-0.0,-0.0664,6.2149,-0.0002,-1.8345
79503,-106.7528,0.7589,-0.0103,-0.1101,-89.3898,-0.0004,-0.0905,8.381,-0.0,-0.0664,6.2149,-0.0002,-1.8345
79519,-106.7528,0.7589,-0.0103,-0.1101,-89.3898,-0.0004,-0.0905,8.381,-0.0,-0.0664,6.2149,-0.0002,-1.8345
79535,-106.7528,0.7589,-0.0103,-0.1101,-89.3898,-0.0004,-0.0905,8.381,-0.0,-0.0664,6.2149,-0.0002,-1.8345
79551,-106.7528,0.7589,-0.0103,-0.1101,-89.3898,-0.0004,-0.0905,8.381,-0.0,-0.0664,6.2149,-0.0002,-1.8345
79567,-106.7528,0.7589,-0.0103,-0.1101,-89.3898,-0.0004,-0.0905,8.381,-0.0,-0.0664,6.2149,-0.0002,-1.8345
79585,-106.7619,1.6021,-0.0104,-0.1024,-89.3906,-0.0002,-0.0961,8.8967,-0.0,-0.0581,5.3028,0.0001,-2.116
79599,-106.7619,1.6021,-0.0104,-0.1024,-89.3906,-0.0002,-0.0961,8.8967,-0.0,-0.0581,5.3028,0.0001,-2.116
79615,-106.7619,1.6021,-0.0104,-0.1024,-89.3906,-0.0002,-0.0961,8.8967,-0.0,-0.0581,5.3028,0.0001,-2.116
79631,-106.7619,1.6021,-0.0104,-0.1024,-89.3906,-0.0002,-0.0961,8.8967,-0.0,-0.0581,5.3028,0.0001,-2.116
79647,-106.7619,1.6021,-0.0104,-0.1024,-89.3906,-0.0002,-0.0961,8.8967,-0.0,-0.0581,5.3028,0.0001,-2.116
79663,-106.7619,1.6021,-0.0104,-0.1024,-89.3906,-0.0002,-0.0961,8.8967,-0.0,-0.0581,5.3028,0.0001,-2.116
79679,-106.7713,2.4693,-0.0104,-0.0969,-89.3882,-0.0002,-0.1018,9.4159,-0.0,-0.0596,5.4963,-0.0001,-1.5533
79695,-106.7713,2.4693,-0.0104,-0.0969,-89.3882,-0.0002,-0.1018,9.4159,-0.0,-0.0596,5.4963,-0.0001,-1.5533
79711,-106.7713,2.4693,-0.0104,-0.0969,-89.3882,-0.0002,-0.1018,9.4159,-0.0,-0.0596,5.4963,-0.0001,-1.5533
79727,-106.7713,2.4693,-0.0104,-0.0969,-89.3882,-0.0002,-0.1018,9.4159,-0.0,-0.0596,5.4963,-0.0001,-1.5533
79743,-106.7713,2.4693,-0.0104,-0.0969,-89.3882,-0.0002,-0.1018,9.4159,-0.0,-0.0596,5.4963,-0.0001,-1.5533
79759,-106.7713,2.4693,-0.0104,-0.0969,-89.3882,-0.0002,-0.1018,9.4159,-0.0,-0.0596,5.4963,-0.0001,-1.5533
79777,-106.7808,3.345,-0.0105,-0.0945,-89.3861,-0.0001,-0.1071,9.913,0.0,-0.0588,5.5016,0.0002,-1.0033
79791,-106.7808,3.345,-0.0105,-0.0945,-89.3861,-0.0001,-0.1071,9.913,0.0,-0.0588,5.5016,0.0002,-1.0033
79807,-106.7808,3.345,-0.0105,-0.0945,-89.3861,-0.0001,-0.1071,9.913,0.0,-0.0588,5.5016,0.0002,-1.0033
79823,-106.7808,3.345,-0.0105,-0.0945,-89.3861,-0.0001,-0.1071,9.913,0.0,-0.0588,5.5016,0.0002,-1.0033
79839,-106.7808,3.345,-0.0105,-0.0945,-89.3861,-0.0001,-0.1071,9.913,0.0,-0.0588,5.5016,0.0002,-1.0033
79855,-106.7808,3.345,-0.0105,-0.0945,-89.3861,-0.0001,-0.1071,9.913,0.0,-0.0588,5.5016,0.0002,-1.0033
79873,-106.7914,4.3286,-0.0105,-0.089,-89.3872,-0.0001,-0.112,10.3642,0.0,-0.0509,4.6638,0.0,-1.3464
79887,-106.7914,4.3286,-0.0105,-0.089,-89.3872,-0.0001,-0.112,10.3642,0.0,-0.0509,4.6638,0.0,-1.3464
79903,-106.7914,4.3286,-0.0105,-0.089,-89.3872,-0.0001,-0.112,10.3642,0.0,-0.0509,4.6638,0.0,-1.3464
79919,-106.7914,4.3286,-0.0105,-0.089,-89.3872,-0.0001,-0.112,10.3642,0.0,-0.0509,4.6638,0.0,-1.3464
79935,-106.7914,4.3286,-0.0105,-0.089,-89.3872,-0.0001,-0.112,10.3642,0.0,-0.0509,4.6638,0.0,-1.3464
79951,-106.7914,4.3286,-0.0105,-0.089,-89.3872,-0.0001,-0.112,10.3642,0.0,-0.0509,4.6638,0.0,-1.3464
79967,-106.8018,5.2864,-0.0105,-0.0842,-89.3844,-0.0001,-0.1165,10.7858,0.0,-0.0497,4.6641,0.0,-0.6363
79983,-106.8018,5.2864,-0.0105,-0.0842,-89.3844,-0.0001,-0.1165,10.7858,0.0,-0.0497,4.6641,0.0,-0.6363
79999,-106.8018,5.2864,-0.0105,-0.0842,-89.3844,-0.0001,-0.1165,10.7858,0.0,-0.0497,4.6641,0.0,-0.6363
80015,-106.8018,5.2864,-0.0105,-0.0842,-89.3844,-0.0001,-0.1165,10.7858,0.0,-0.0497,4.6641,0.0,-0.6363
80031,-106.8018,5.2864,-0.0105,-0.0842,-89.3844,-0.0001,-0.1165,10.7858,0.0,-0.0497,4.6641,0.0,-0.6363
80047,-106.8018,5.2864,-0.0105,-0.0842,-89.3844,-0.0001,-0.1165,10.7858,0.0,-0.0497,4.6641,0.0,-0.6363
80063,-106.8134,6.3589,-0.0106,-0.0787,-89.3859,-0.0,-0.1209,11.1864,0.0,-0.0448,4.1129,0.0,-0.9734
80079,-106.8134,6.3589,-0.0106,-0.0787,-89.3859,-0.0,-0.1209,11.1864,0.0,-0.0448,4.1129,0.0,-0.9734
80095,-106.8134,6.3589,-0.0106,-0.0787,-89.3859,-0.0,-0.1209,11.1864,0.0,-0.0448,4.1129,0.0,-0.9734
80111,-106.8134,6.3589,-0.0106,-0.0787,-89.3859,-0.0,-0.1209,11.1864,0.0,-0.0448,4.1129,0.0,-0.9734
80127,-106.8134,6.3589,-0.0106,-0.0787,-89.3859,-0.0,-0.1209,11.1864,0.0,-0.0448,4.1129,0.0,-0.9734
80143,-106.8134,6.3589,-0.0106,-0.0787,-89.3859,-0.0,-0.1209,11.1864,0.0,-0.0448,4.1129,0.0,-0.9734
80161,-106.8255,7.482,-0.0106,-0.0723,-89.3856,-0.0,-0.1249,11.5548,-0.0,-0.0407,3.736,-0.0001,-0.949
80175,-106.8255,7.482,-0.0106,-0.0723,-89.3856,-0.0,-0.1249,11.5548,-0.0,-0.0407,3.736,-0.0001,-0.949
80191,-106.8255,7.482,-0.0106,-0.0723,-89.3856,-0.0,-0.1249,11.5548,-0.0,-0.0407,3.736,-0.0001,-0.949
80207,-106.8255,7.482,-0.0106,-0.0723,-89.3856,-0.0,-0.1249,11.5548,-0.0,-0.0407,3.736,-0.0001,-0.949
80223,-106.8255,7.482,-0.0106,-0.0723,-89.3856,-0.0,-0.1249,11.5548,-0.0,-0.0407,3.736,-0.0001,-0.949
80239,-106.8255,7.482,-0.0106,-0.0723,-89.3856,-0.0,-0.1249,11.5548,-0.0,-0.0407,3.736,-0.0001,-0.949
80255,-106.8376,8.5983,-0.0107,-0.0677,-89.384,0.0,-0.1286,11.9011,-0.0,-0.0389,3.644,-0.0,-0.5746
80271,-106.8376,8.5983,-0.0107,-0.0677,-89.384,0.0,-0.1286,11.9011,-0.0,-0.0389,3.644,-0.0,-0.5746
80287,-106.8376,8.5983,-0.0107,-0.0677,-89.384,0.0,-0.1286,11.9011,-0.0,-0.0389,3.644,-0.0,-0.5746
80303,-106.8376,8.5983,-0.0107,-0.0677,-89.384,0.0,-0.1286,11.9011,-0.0,-0.0389,3.644,-0.0,-0.5746
80319,-106.8376,8.5983,-0.0107,-0.0677,-89.384,0.0,-0.1286,11.9011,-0.0,-0.0389,3.644,-0.0,-0.5746
80335,-106.8494,9.6926,-0.0107,-0.0642,-89.3825,-0.0,-0.1319,12.2163,0.0,-0.0369,3.4779,0.0001,-0.2241
80351,-106.8494,9.6926,-0.0107,-0.0642,-89.3825,-0.0,-0.1319,12.2163,0.0,-0.0369,3.4779,0.0001,-0.2241
80367,-106.8494,9.6926,-0.0107,-0.0642,-89.3825,-0.0,-0.1319,12.2163,0.0,-0.0369,3.4779,0.0001,-0.2241
80383,-106.8494,9.6926,-0.0107,-0.0642,-89.3825,-0.0,-0.1319,12.2163,0.0,-0.0369,3.4779,0.0001,-0.2241
80399,-106.8494,9.6926,-0.0107,-0.0642,-89.3825,-0.0,-0.1319,12.2163,0.0,-0.0369,3.4779,0.0001,-0.2241
80415,-106.8494,9.6926,-0.0107,-0.0642,-89.3825,-0.0,-0.1319,12.2163,0.0,-0.0369,3.4779,0.0001,-0.2241
80433,-106.8614,10.8005,-0.0107,-0.0605,-89.379,0.0,-0.1349,12.5007,-0.0,-0.0339,3.1775,-0.0001,0.4546
80447,-106.8614,10.8005,-0.0107,-0.0605,-89.379,0.0,-0.1349,12.5007,-0.0,-0.0339,3.1775,-0.0001,0.4546
80463,-106.8614,10.8005,-0.0107,-0.0605,-89.379,0.0,-0.1349,12.5007,-0.0,-0.0339,3.1775,-0.0001,0.4546
80479,-106.8614,10.8005,-0.0107,-0.0605,-89.379,0.0,-0.1349,12.5007,-0.0,-0.0339,3.1775,-0.0001,0.4546
80495,-106.8614,10.8005,-0.0107,-0.0605,-89.379,0.0,-0.1349,12.5007,-0.0,-0.0339,3.1775,-0.0001,0.4546
80511,-106.8614,10.8005,-0.0107,-0.0605,-89.379,0.0,-0.1349,12.5007,-0.0,-0.0339,3.1775,-0.0001,0.4546
80529,-106.8742,11.9871,-0.0107,-0.0558,-89.3799,0.0,-0.1378,12.7597,0.0,-0.0304,2.7609,0.0001,0.2598
80543,-106.8742,11.9871,-0.0107,-0.0558,-89.3799,0.0,-0.1378,12.7597,0.0,-0.0304,2.7609,0.0001,0.2598
80559,-106.8742,11.9871,-0.0107,-0.0558,-89.3799,0.0,-0.1378,12.7597,0.0,-0.0304,2.7609,0.0001,0.2598
80591,-106.8742,11.9871,-0.0107,-0.0558,-89.3799,0.0,-0.1378,12.7597,0.0,-0.0304,2.7609,0.0001,0.2598
80607,-106.8742,11.9871,-0.0107,-0.0558,-89.3799,0.0,-0.1378,12.7597,0.0,-0.0304,2.7609,0.0001,0.2598
80623,-106.9102,13.1359,-0.0108,-0.042,-90.4849,0.1061,-0.8661,12.7903,0.0009,-8.1176,0.3414,0.01,-26.5916
80639,-106.9102,13.1359,-0.0108,-0.042,-90.4849,0.1061,-0.8661,12.7903,0.0009,-8.1176,0.3414,0.01,-26.5916
80655,-106.9102,13.1359,-0.0108,-0.042,-90.4849,0.1061,-0.8661,12.7903,0.0009,-8.1176,0.3414,0.01,-26.5916
80671,-106.9102,13.1359,-0.0108,-0.042,-90.4849,0.1061,-0.8661,12.7903,0.0009,-8.1176,0.3414,0.01,-26.5916
80687,-106.9102,13.1359,-0.0108,-0.042,-90.4849,0.1061,-0.8661,12.7903,0.0009,-8.1176,0.3414,0.01,-26.5916
80705,-107.0045,14.3044,-0.0109,-0.0097,-95.1151,0.2434,-1.7758,12.5659,0.0012,-9.8584,-2.4319,0.0032,-71.5664
80719,-107.0045,14.3044,-0.0109,-0.0097,-95.1151,0.2434,-1.7758,12.5659,0.0012,-9.8584,-2.4319,0.0032,-71.5664
80735,-107.0045,14.3044,-0.0109,-0.0097,-95.1151,0.2434,-1.7758,12.5659,0.0012,-9.8584,-2.4319,0.0032,-71.5664
80751,-107.0045,14.3044,-0.0109,-0.0097,-95.1151,0.2434,-1.7758,12.5659,0.0012,-9.8584,-2.4319,0.0032,-71.5664
80767,-107.0045,14.3044,-0.0109,-0.0097,-95.1151,0.2434,-1.7758,12.5659,0.0012,-9.8584,-2.4319,0.0032,-71.5664
80783,-107.0045,14.3044,-0.0109,-0.0097,-95.1151,0.2434,-1.7758,12.5659,0.0012,-9.8584,-2.4319,0.0032,-71.5664
80801,-107.1273,15.396,-0.0111,0.0204,-103.9363,0.2691,-2.289,12.3057,0.0003,-5.7816,-2.9316,-0.0102,-122.4647
80815,-107.1273,15.396,-0.0111,0.0204,-103.9363,0.2691,-2.289,12.3057,0.0003,-5.7816,-2.9316,-0.0102,-122.4647
80831,-107.1273,15.396,-0.0111,0.0204,-103.9363,0.2691,-2.289,12.3057,0.0003,-5.7816,-2.9316,-0.0102,-122.4647
80847,-107.1273,15.396,-0.0111,0.0204,-103.9363,0.2691,-2.289,12.3057,0.0003,-5.7816,-2.9316,-0.0102,-122.4647
80863,-107.1273,15.396,-0.0111,0.0204,-103.9363,0.2691,-2.289,12.3057,0.0003,-5.7816,-2.9316,-0.0102,-122.4647
80879,-107.1273,15.396,-0.0111,0.0204,-103.9363,0.2691,-2.289,12.3057,0.0003,-5.7816,-2.9316,-0.0102,-122.4647
80895,-107.2442,16.5173,-0.0111,0.0204,-118.5112,0.1627,-2.1683,12.141,-0.0009,1.2696,-1.733,-0.0126,-178.4165
80911,-107.2442,16.5173,-0.0111,0.0204,-118.5112,0.1627,-2.1683,12.141,-0.0009,1.2696,-1.733,-0.0126,-178.4165
80927,-107.2442,16.5173,-0.0111,0.0204,-118.5112,0.1627,-2.1683,12.141,-0.0009,1.2696,-1.733,-0.0126,-178.4165
80943,-107.2442,16.5173,-0.0111,0.0204,-118.5112,0.1627,-2.1683,12.141,-0.0009,1.2696,-1.733,-0.0126,-178.4165
80959,-107.2442,16.5173,-0.0111,0.0204,-118.5112,0.1627,-2.1683,12.141,-0.0009,1.2696,-1.733,-0.0126,-178.4165
80975,-107.2442,16.5173,-0.0111,0.0204,-118.5112,0.1627,-2.1683,12.141,-0.0009,1.2696,-1.733,-0.0126,-178.4165
80991,-107.2748,17.5583,-0.0107,-0.0511,-136.665,-0.0714,-0.7501,12.1535,-0.0005,15.3644,0.1349,0.004,-207.4611
81007,-107.2748,17.5583,-0.0107,-0.0511,-136.665,-0.0714,-0.7501,12.1535,-0.0005,15.3644,0.1349,0.004,-207.4611
81023,-107.2748,17.5583,-0.0107,-0.0511,-136.665,-0.0714,-0.7501,12.1535,-0.0005,15.3644,0.1349,0.004,-207.4611
81039,-107.2748,17.5583,-0.0107,-0.0511,-136.665,-0.0714,-0.7501,12.1535,-0.0005,15.3644,0.1349,0.004,-207.4611
81055,-107.2748,17.5583,-0.0107,-0.0511,-136.665,-0.0714,-0.7501,12.1535,-0.0005,15.3644,0.1349,0.004,-207.4611
81072,-107.1603,18.5284,-0.0098,-0.1634,-156.2413,-0.324,1.336,11.7103,0.002,22.8857,-4.8624,0.028,-219.4597
81087,-107.1603,18.5284,-0.0098,-0.1634,-156.2413,-0.324,1.336,11.7103,0.002,22.8857,-4.8624,0.028,-219.4597
81103,-107.1603,18.5284,-0.0098,-0.1634,-156.2413,-0.324,1.336,11.7103,0.002,22.8857,-4.8624,0.028,-219.4597
81119,-107.1603,18.5284,-0.0098,-0.1634,-156.2413,-0.324,1.336,11.7103,0.002,22.8857,-4.8624,0.028,-219.4597
81135,-107.1603,18.5284,-0.0098,-0.1634,-156.2413,-0.324,1.336,11.7103,0.002,22.8857,-4.8624,0.028,-219.4597
81151,-107.1603,18.5284,-0.0098,-0.1634,-156.2413,-0.324,1.336,11.7103,0.002,22.8857,-4.8624,0.028,-219.4597
81167,-106.8654,19.4686,-0.0088,-0.2652,-178.596,-0.5335,3.5977,10.4092,0.0018,22.7228,-13.0713,-0.0018,-229.0912
81199,-106.8654,19.4686,-0.0088,-0.2652,-178.596,-0.5335,3.5977,10.4092,0.0018,22.7228,-13.0713,-0.0018,-229.0912
81215,-106.8654,19.4686,-0.0088,-0.2652,-178.596,-0.5335,3.5977,10.4092,0.0018,22.7228,-13.0713,-0.0018,-229.0912
81231,-106.8654,19.4686,-0.0088,-0.2652,-178.596,-0.5335,3.5977,10.4092,0.0018,22.7228,-13.0713,-0.0018,-229.0912
81247,-106.8654,19.4686,-0.0088,-0.2652,-178.596,-0.5335,3.5977,10.4092,0.0018,22.7228,-13.0713,-0.0018,-229.0912
81265,-106.5068,20.1571,-0.0084,-0.3001,160.4007,-0.7219,4.4834,8.1993,0.0019,9.7456,-24.317,0.0007,-231.6152
81279,-106.5068,20.1571,-0.0084,-0.3001,160.4007,-0.7219,4.4834,8.1993,0.0019,9.7456,-24.317,0.0007,-231.6152
81295,-106.5068,20.1571,-0.0084,-0.3001,160.4007,-0.7219,4.4834,8.1993,0.0019,9.7456,-24.317,0.0007,-231.6152
81311,-106.5068,20.1571,-0.0084,-0.3001,160.4007,-0.7219,4.4834,8.1993,0.0019,9.7456,-24.317,0.0007,-231.6152
81327,-106.5068,20.1571,-0.0084,-0.3001,160.4007,-0.7219,4.4834,8.1993,0.0019,9.7456,-24.317,0.0007,-231.6152
81343,-106.2466,20.6684,-0.009,-0.2157,142.2048,-0.8525,2.987,6.9273,0.004,-17.5622,-14.929,0.0253,-195.499
81359,-106.2466,20.6684,-0.009,-0.2157,142.2048,-0.8525,2.987,6.9273,0.004,-17.5622,-14.929,0.0253,-195.499
81375,-106.2466,20.6684,-0.009,-0.2157,142.2048,-0.8525,2.987,6.9273,0.004,-17.5622,-14.929,0.0253,-195.499
81391,-106.2466,20.6684,-0.009,-0.2157,142.2048,-0.8525,2.987,6.9273,0.004,-17.5622,-14.929,0.0253,-195.499
81407,-106.2466,20.6684,-0.009,-0.2157,142.2048,-0.8525,2.987,6.9273,0.004,-17.5622,-14.929,0.0253,-195.499
81423,-106.2466,20.6684,-0.009,-0.2157,142.2048,-0.8525,2.987,6.9273,0.004,-17.5622,-14.929,0.0253,-195.499
81440,-106.173,21.1818,-0.01,-0.0544,126.7767,-0.9076,0.8242,6.8683,0.0007,-24.6985,-0.6741,-0.038,-154.9992
81455,-106.173,21.1818,-0.01,-0.0544,126.7767,-0.9076,0.8242,6.8683,0.0007,-24.6985,-0.6741,-0.038,-154.9992
81471,-106.173,21.1818,-0.01,-0.0544,126.7767,-0.9076,0.8242,6.8683,0.0007,-24.6985,-0.6741,-0.038,-154.9992
81487,-106.173,21.1818,-0.01,-0.0544,126.7767,-0.9076,0.8242,6.8683,0.0007,-24.6985,-0.6741,-0.038,-154.9992
81503,-106.173,21.1818,-0.01,-0.0544,126.7767,-0.9076,0.8242,6.8683,0.0007,-24.6985,-0.6741,-0.038,-154.9992
81521,-106.2513,21.7654,-0.0111,0.0917,116.1237,-0.7983,-0.6952,7.76,-0.001,-17.9089,10.5101,-0.0199,-105.0053
81535,-106.2513,21.7654,-0.0111,0.0917,116.1237,-0.7983,-0.6952,7.76,-0.001,-17.9089,10.5101,-0.0199,-105.0053
81551,-106.2513,21.7654,-0.0111,0.0917,116.1237,-0.7983,-0.6952,7.76,-0.001,-17.9089,10.5101,-0.0199,-105.0053
81567,-106.2513,21.7654,-0.0111,0.0917,116.1237,-0.7983,-0.6952,7.76,-0.001,-17.9089,10.5101,-0.0199,-105.0053
81583,-106.2513,21.7654,-0.0111,0.0917,116.1237,-0.7983,-0.6952,7.76,-0.001,-17.9089,10.5101,-0.0199,-105.0053
81599,-106.2513,21.7654,-0.0111,0.0917,116.1237,-0.7983,-0.6952,7.76,-0.001,-17.9089,10.5101,-0.0199,-105.0053
81615,-106.3682,22.4683,-0.0118,0.1567,107.6767,-0.4661,-0.5147,8.6003,-0.0027,2.0595,9.5856,-0.0196,-93.6452
81631,-106.3682,22.4683,-0.0118,0.1567,107.6767,-0.4661,-0.5147,8.6003,-0.0027,2.0595,9.5856,-0.0196,-93.6452
81647,-106.3682,22.4683,-0.0118,0.1567,107.6767,-0.4661,-0.5147,8.6003,-0.0027,2.0595,9.5856,-0.0196,-93.6452
81663,-106.3682,22.4683,-0.0118,0.1567,107.6767,-0.4661,-0.5147,8.6003,-0.0027,2.0595,9.5856,-0.0196,-93.6452
81679,-106.3682,22.4683,-0.0118,0.1567,107.6767,-0.4661,-0.5147,8.6003,-0.0027,2.0595,9.5856,-0.0196,-93.6452
81711,-106.4272,23.2387,-0.0121,0.156,99.5038,-0.1046,0.4007,9.104,-0.0033,10.4025,5.7233,-0.0073,-91.9666
81727,-106.4272,23.2387,-0.0121,0.156,99.5038,-0.1046,0.4007,9.104,-0.0033,10.4025,5.7233,-0.0073,-91.9666
81743,-106.4272,23.2387,-0.0121,0.156,99.5038,-0.1046,0.4007,9.104,-0.0033,10.4025,5.7233,-0.0073,-91.9666
81759,-106.4272,23.2387,-0.0121,0.156,99.5038,-0.1046,0.4007,9.104,-0.0033,10.4025,5.7233,-0.0073,-91.9666
81775,-106.4272,23.2387,-0.0121,0.156,99.5038,-0.1046,0.4007,9.104,-0.0033,10.4025,5.7233,-0.0073,-91.9666
81793,-106.4305,24.0954,-0.0122,0.1402,92.6549,0.0031,0.3147,9.5861,-0.0014,-0.9364,5.2492,0.0207,-50.3671
81807,-106.4305,24.0954,-0.0122,0.1402,92.6549,0.0031,0.3147,9.5861,-0.0014,-0.9364,5.2492,0.0207,-50.3671
81823,-106.4305,24.0954,-0.0122,0.1402,92.6549,0.0031,0.3147,9.5861,-0.0014,-0.9364,5.2492,0.0207,-50.3671
81839,-106.4305,24.0954,-0.0122,0.1402,92.6549,0.0031,0.3147,9.5861,-0.0014,-0.9364,5.2492,0.0207,-50.3671
81855,-106.4305,24.0954,-0.0122,0.1402,92.6549,0.0031,0.3147,9.5861,-0.0014,-0.9364,5.2492,0.0207,-50.3671
81871,-106.4305,24.0954,-0.0122,0.1402,92.6549,0.0031,0.3147,9.5861,-0.0014,-0.9364,5.2492,0.0207,-50.3671
81889,-106.4423,25.0042,-0.012,0.1059,90.1651,-0.0635,-0.007,9.7926,0.0005,-3.4364,2.2057,0.0203,-12.3676
81903,-106.4423,25.0042,-0.012,0.1059,90.1651,-0.0635,-0.007,9.7926,0.0005,-3.4364,2.2057,0.0203,-12.3676
81919,-106.4423,25.0042,-0.012,0.1059,90.1651,-0.0635,-0.007,9.7926,0.0005,-3.4364,2.2057,0.0203,-12.3676
81935,-106.4423,25.0042,-0.012,0.1059,90.1651,-0.0635,-0.007,9.7926,0.0005,-3.4364,2.2057,0.0203,-12.3676
81951,-106.4423,25.0042,-0.012,0.1059,90.1651,-0.0635,-0.007,9.7926,0.0005,-3.4364,2.2057,0.0203,-12.3676
81967,-106.4423,25.0042,-0.012,0.1059,90.1651,-0.0635,-0.007,9.7926,0.0005,-3.4364,2.2057,0.0203,-12.3676
81983,-106.4461,25.9124,-0.0117,0.0731,89.5305,-0.0405,0.0303,9.9056,0.0001,0.4047,1.2264,-0.0041,-2.8268
81999,-106.4461,25.9124,-0.0117,0.0731,89.5305,-0.0405,0.0303,9.9056,0.0001,0.4047,1.2264,-0.0041,-2.8268
82015,-106.4461,25.9124,-0.0117,0.0731,89.5305,-0.0405,0.0303,9.9056,0.0001,0.4047,1.2264,-0.0041,-2.8268
82031,-106.4461,25.9124,-0.0117,0.0731,89.5305,-0.0405,0.0303,9.9056,0.0001,0.4047,1.2264,-0.0041,-2.8268
82047,-106.4461,25.9124,-0.0117,0.0731,89.5305,-0.0405,0.0303,9.9056,0.0001,0.4047,1.2264,-0.0041,-2.8268
82065,-106.4422,26.7959,-0.0115,0.0487,89.3507,-0.0157,0.0753,9.9578,-0.0001,0.5064,0.5871,-0.002,-1.9096
82079,-106.4422,26.7959,-0.0115,0.0487,89.3507,-0.0157,0.0753,9.9578,-0.0001,0.5064,0.5871,-0.002,-1.9096
82095,-106.4422,26.7959,-0.0115,0.0487,89.3507,-0.0157,0.0753,9.9578,-0.0001,0.5064,0.5871,-0.002,-1.9096
82111,-106.4422,26.7959,-0.0115,0.0487,89.3507,-0.0157,0.0753,9.9578,-0.0001,0.5064,0.5871,-0.002,-1.9096
82127,-106.4422,26.7959,-0.0115,0.0487,89.3507,-0.0157,0.0753,9.9578,-0.0001,0.5064,0.5871,-0.002,-1.9096
82143,-106.4422,26.7959,-0.0115,0.0487,89.3507,-0.0157,0.0753,9.9578,-0.0001,0.5064,0.5871,-0.002,-1.9096
82160,-106.4338,27.725,-0.0114,0.0331,89.2954,-0.0027,0.1048,10.0225,-0.0,0.3168,0.6963,0.0004,-0.9818
82175,-106.4338,27.725,-0.0114,0.0331,89.2954,-0.0027,0.1048,10.0225,-0.0,0.3168,0.6963,0.0004,-0.9818
82191,-106.4338,27.725,-0.0114,0.0331,89.2954,-0.0027,0.1048,10.0225,-0.0,0.3168,0.6963,0.0004,-0.9818
82207,-106.4338,27.725,-0.0114,0.0331,89.2954,-0.0027,0.1048,10.0225,-0.0,0.3168,0.6963,0.0004,-0.9818
82223,-106.4338,27.725,-0.0114,0.0331,89.2954,-0.0027,0.1048,10.0225,-0.0,0.3168,0.6963,0.0004,-0.9818
82239,-106.4338,27.725,-0.0114,0.0331,89.2954,-0.0027,0.1048,10.0225,-0.0,0.3168,0.6963,0.0004,-0.9818
82255,-106.4235,28.6243,-0.0114,0.0178,89.3003,0.0225,0.1149,10.0644,-0.009,0.113,0.4669,-0.0996,0.8235
82271,-106.4235,28.6243,-0.0114,0.0178,89.3003,0.0225,0.1149,10.0644,-0.009,0.113,0.4669,-0.0996,0.8235
82287,-106.4235,28.6243,-0.0114,0.0178,89.3003,0.0225,0.1149,10.0644,-0.009,0.113,0.4669,-0.0996,0.8235
82303,-106.4235,28.6243,-0.0114,0.0178,89.3003,0.0225,0.1149,10.0644,-0.009,0.113,0.4669,-0.0996,0.8235
82319,-106.4235,28.6243,-0.0114,0.0178,89.3003,0.0225,0.1149,10.0644,-0.009,0.113,0.4669,-0.0996,0.8235
82335,-106.4235,28.6243,-0.0114,0.0178,89.3003,0.0225,0.1149,10.0644,-0.009,0.113,0.4669,-0.0996,0.8235
82351,-106.412,29.5996,-0.0115,0.0052,89.3078,0.0299,0.1204,10.1078,0.0002,0.0573,0.4494,0.0948,0.7726
82367,-106.412,29.5996,-0.0115,0.0052,89.3078,0.0299,0.1204,10.1078,0.0002,0.0573,0.4494,0.0948,0.7726
82383,-106.412,29.5996,-0.0115,0.0052,89.3078,0.0299,0.1204,10.1078,0.0002,0.0573,0.4494,0.0948,0.7726
82399,-106.412,29.5996,-0.0115,0.0052,89.3078,0.0299,0.1204,10.1078,0.0002,0.0573,0.4494,0.0948,0.7726
82415,-106.412,29.5996,-0.0115,0.0052,89.3078,0.0299,0.1204,10.1078,0.0002,0.0573,0.4494,0.0948,0.7726
82433,-106.4006,30.5468,-0.0114,0.006,89.3096,0.0191,0.123,10.1604,0.0012,0.0275,0.5631,0.0107,0.6569
82447,-106.4006,30.5468,-0.0114,0.006,89.3096,0.0191,0.123,10.1604,0.0012,0.0275,0.5631,0.0107,0.6569
82463,-106.4006,30.5468,-0.0114,0.006,89.3096,0.0191,0.123,10.1604,0.0012,0.0275,0.5631,0.0107,0.6569
82479,-106.4006,30.5468,-0.0114,0.006,89.3096,0.0191,0.123,10.1604,0.0012,0.0275,0.5631,0.0107,0.6569
82495,-106.4006,30.5468,-0.0114,0.006,89.3096,0.0191,0.123,10.1604,0.0012,0.0275,0.5631,0.0107,0.6569
82511,-106.4006,30.5468,-0.0114,0.006,89.3096,0.0191,0.123,10.1604,0.0012,0.0275,0.5631,0.0107,0.6569
82529,-106.3894,31.4707,-0.0112,0.0004,89.3124,0.0067,0.1234,10.2108,-0.0017,0.0051,0.5552,-0.0319,1.0229
82543,-106.3894,31.4707,-0.0112,0.0004,89.3124,0.0067,0.1234,10.2108,-0.0017,0.0051,0.5552,-0.0319,1.0229
82559,-106.3894,31.4707,-0.0112,0.0004,89.3124,0.0067,0.1234,10.2108,-0.0017,0.0051,0.5552,-0.0319,1.0229
82575,-106.3894,31.4707,-0.0112,0.0004,89.3124,0.0067,0.1234,10.2108,-0.0017,0.0051,0.5552,-0.0319,1.0229
82591,-106.3894,31.4707,-0.0112,0.0004,89.3124,0.0067,0.1234,10.2108,-0.0017,0.0051,0.5552,-0.0319,1.0229
82607,-106.3894,31.4707,-0.0112,0.0004,89.3124,0.0067,0.1234,10.2108,-0.0017,0.0051,0.5552,-0.0319,1.0229
82625,-106.3781,32.4053,-0.0113,0.0089,89.3151,0.0073,0.1239,10.266,0.0,0.0049,0.6055,0.0189,0.8978
82639,-106.3781,32.4053,-0.0113,0.0089,89.3151,0.0073,0.1239,10.266,0.0,0.0049,0.6055,0.0189,0.8978
82655,-106.3781,32.4053,-0.0113,0.0089,89.3151,0.0073,0.1239,10.266,0.0,0.0049,0.6055,0.0189,0.8978
82671,-106.3781,32.4053,-0.0113,0.0089,89.3151,0.0073,0.1239,10.266,0.0,0.0049,0.6055,0.0189,0.8978
82687,-106.3781,32.4053,-0.0113,0.0089,89.3151,0.0073,0.1239,10.266,0.0,0.0049,0.6055,0.0189,0.8978
82703,-106.3669,33.3353,-0.0113,0.0096,89.3177,0.0046,0.1239,10.3118,0.0002,0.0006,0.5063,0.0023,0.572
82719,-106.3669,33.3353,-0.0113,0.0096,89.3177,0.0046,0.1239,10.3118,0.0002,0.0006,0.5063,0.0023,0.572
82735,-106.3669,33.3353,-0.0113,0.0096,89.3177,0.0046,0.1239,10.3118,0.0002,0.0006,0.5063,0.0023,0.572
82751,-106.3669,33.3353,-0.0113,0.0096,89.3177,0.0046,0.1239,10.3118,0.0002,0.0006,0.5063,0.0023,0.572
82767,-106.3669,33.3353,-0.0113,0.0096,89.3177,0.0046,0.1239,10.3118,0.0002,0.0006,0.5063,0.0023,0.572
82783,-106.3669,33.3353,-0.0113,0.0096,89.3177,0.0046,0.1239,10.3118,0.0002,0.0006,0.5063,0.0023,0.572
82801,-106.3559,34.2618,-0.0112,0.0082,89.3123,0.0027,0.1238,10.3342,0.0002,-0.002,0.2504,-0.0004,-0.7516
82815,-106.3559,34.2618,-0.0112,0.0082,89.3123,0.0027,0.1238,10.3342,0.0002,-0.002,0.2504,-0.0004,-0.7516
82831,-106.3559,34.2618,-0.0112,0.0082,89.3123,0.0027,0.1238,10.3342,0.0002,-0.002,0.2504,-0.0004,-0.7516
82847,-106.3559,34.2618,-0.0112,0.0082,89.3123,0.0027,0.1238,10.3342,0.0002,-0.002,0.2504,-0.0004,-0.7516
82863,-106.3559,34.2618,-0.0112,0.0082,89.3123,0.0027,0.1238,10.3342,0.0002,-0.002,0.2504,-0.0004,-0.7516
82879,-106.3559,34.2618,-0.0112,0.0082,89.3123,0.0027,0.1238,10.3342,0.0002,-0.002,0.2504,-0.0004,-0.7516
82896,-106.3446,35.2043,-0.0112,0.0082,89.3134,0.0016,0.1242,10.383,0.0001,0.0042,0.5359,-0.0008,-0.5433
