timestamp,x,y,z,pitch,yaw,roll,vx,vy,vz,ax,ay,az,yaw_rate
65829,-106.6867,-4.8475,-0.0795,0.0,-89.3578,0.0,0.0,0.0,0.0487,0.0,0.0,7.0983,-0.0
65845,-106.6867,-4.8475,-0.0795,0.0,-89.3578,0.0,0.0,0.0,0.0487,0.0,0.0,7.0983,-0.0
65861,-106.6867,-4.8475,-0.0795,0.0,-89.3578,0.0,0.0,0.0,0.0487,0.0,0.0,7.0983,-0.0
65877,-106.6867,-4.8475,-0.0795,0.0,-89.3578,0.0,0.0,0.0,0.0487,0.0,0.0,7.0983,-0.0
65893,-106.6867,-4.8475,-0.0795,0.0,-89.3578,0.0,0.0,0.0,0.0487,0.0,0.0,7.0983,-0.0
65909,-106.6867,-4.8475,-0.0795,0.0,-89.3578,0.0,0.0,0.0,0.0487,0.0,0.0,7.0983,-0.0
65925,-106.6867,-4.8475,-0.0795,0.0,-89.3578,0.0,0.0,0.0,0.0487,0.0,0.0,7.0983,-0.0
65941,-106.6867,-4.8475,-0.0795,0.0,-89.3578,0.0,0.0,0.0,0.0487,0.0,0.0,7.0983,-0.0
65957,-106.6867,-4.8475,-0.0795,0.0,-89.3578,0.0,0.0,0.0,0.0487,0.0,0.0,7.0983,-0.0
65973,-106.6867,-4.8475,-0.0795,0.0,-89.3578,0.0,0.0,0.0,0.0487,0.0,0.0,7.0983,-0.0
65989,-106.6867,-4.8475,-0.0795,0.0,-89.3578,0.0,0.0,0.0,0.0487,0.0,0.0,7.0983,-0.0
66005,-106.6867,-4.8475,-0.0795,0.0,-89.3578,0.0,0.0,0.0,0.0487,0.0,0.0,7.0983,-0.0
66021,-106.6867,-4.8475,-0.0795,0.0,-89.3578,0.0,0.0,0.0,0.0487,0.0,0.0,7.0983,-0.0
66037,-106.6867,-4.8475,-0.0795,0.0,-89.3578,0.0,0.0,0.0,0.0487,0.0,0.0,7.0983,-0.0
66053,-106.6867,-4.8475,-0.0795,0.0,-89.3578,0.0,0.0,0.0,0.0487,0.0,0.0,7.0983,-0.0
66069,-106.6867,-4.8475,-0.0795,0.0,-89.3578,0.0,0.0,0.0,0.0487,0.0,0.0,7.0983,-0.0
66085,-106.6867,-4.8475,-0.0795,0.0,-89.3578,0.0,0.0,0.0,0.0487,0.0,0.0,7.0983,-0.0
66101,-106.6867,-4.8475,-0.0795,0.0,-89.3578,0.0,0.0,0.0,0.0487,0.0,0.0,7.0983,-0.0
66117,-106.6867,-4.8475,-0.0795,0.0,-89.3578,0.0,0.0,0.0,0.0487,0.0,0.0,7.0983,-0.0
66133,-106.6867,-4.8475,-0.0795,0.0,-89.3578,0.0,0.0,0.0,0.0487,0.0,0.0,7.0983,-0.0
66149,-106.6867,-4.8475,-0.0795,0.0,-89.3578,0.0,0.0,0.0,0.0487,0.0,0.0,7.0983,-0.0
66165,-106.6867,-4.8458,-0.0603,-0.0016,-89.3578,0.0,-0.0004,0.0401,0.2354,-0.0014,0.1228,0.5725,-0.0001
66181,-106.6867,-4.8458,-0.0603,-0.0016,-89.3578,0.0,-0.0004,0.0401,0.2354,-0.0014,0.1228,0.5725,-0.0001
66197,-106.6867,-4.8458,-0.0603,-0.0016,-89.3578,0.0,-0.0004,0.0401,0.2354,-0.0014,0.1228,0.5725,-0.0001
66213,-106.6867,-4.8458,-0.0603,-0.0016,-89.3578,0.0,-0.0004,0.0401,0.2354,-0.0014,0.1228,0.5725,-0.0001
66229,-106.6867,-4.8458,-0.0603,-0.0016,-89.3578,0.0,-0.0004,0.0401,0.2354,-0.0014,0.1228,0.5725,-0.0001
66245,-106.6867,-4.8458,-0.0603,-0.0016,-89.3578,0.0,-0.0004,0.0401,0.2354,-0.0014,0.1228,0.5725,-0.0001
66261,-106.6867,-4.8458,-0.0603,-0.0016,-89.3578,0.0,-0.0004,0.0401,0.2354,-0.0014,0.1228,0.5725,-0.0001
66277,-106.6867,-4.8458,-0.0603,-0.0016,-89.3578,0.0,-0.0004,0.0401,0.2354,-0.0014,0.1228,0.5725,-0.0001
66296,-106.6868,-4.8411,-0.0393,-0.0048,-89.3577,0.0,-0.0011,0.1008,0.178,-0.0049,0.4386,-0.4144,-0.0009
66309,-106.6868,-4.8411,-0.0393,-0.0048,-89.3577,0.0,-0.0011,0.1008,0.178,-0.0049,0.4386,-0.4144,-0.0009
66325,-106.6868,-4.8411,-0.0393,-0.0048,-89.3577,0.0,-0.0011,0.1008,0.178,-0.0049,0.4386,-0.4144,-0.0009
66341,-106.6868,-4.8411,-0.0393,-0.0048,-89.3577,0.0,-0.0011,0.1008,0.178,-0.0049,0.4386,-0.4144,-0.0009
66357,-106.6868,-4.8411,-0.0393,-0.0048,-89.3577,0.0,-0.0011,0.1008,0.178,-0.0049,0.4386,-0.4144,-0.0009
66373,-106.6868,-4.8411,-0.0393,-0.0048,-89.3577,0.0,-0.0011,0.1008,0.178,-0.0049,0.4386,-0.4144,-0.0009
66389,-106.6872,-4.807,-0.0264,-0.0287,-89.3577,0.0,-0.0067,0.5953,0.1089,-0.0604,5.3895,-0.7537,0.0077
66405,-106.6872,-4.807,-0.0264,-0.0287,-89.3577,0.0,-0.0067,0.5953,0.1089,-0.0604,5.3895,-0.7537,0.0077
66421,-106.6872,-4.807,-0.0264,-0.0287,-89.3577,0.0,-0.0067,0.5953,0.1089,-0.0604,5.3895,-0.7537,0.0077
66437,-106.6872,-4.807,-0.0264,-0.0287,-89.3577,0.0,-0.0067,0.5953,0.1089,-0.0604,5.3895,-0.7537,0.0077
66453,-106.6872,-4.807,-0.0264,-0.0287,-89.3577,0.0,-0.0067,0.5953,0.1089,-0.0604,5.3895,-0.7537,0.0077
66469,-106.6872,-4.807,-0.0264,-0.0287,-89.3577,0.0,-0.0067,0.5953,0.1089,-0.0604,5.3895,-0.7537,0.0077
66485,-106.6872,-4.807,-0.0264,-0.0287,-89.3577,0.0,-0.0067,0.5953,0.1089,-0.0604,5.3895,-0.7537,0.0077
66501,-106.6872,-4.807,-0.0264,-0.0287,-89.3577,0.0,-0.0067,0.5953,0.1089,-0.0604,5.3895,-0.7537,0.0077
66517,-106.6881,-4.723,-0.0184,-0.0491,-89.357,0.0,-0.0109,0.9757,0.057,-0.0377,3.431,-0.4683,0.045
66533,-106.6881,-4.723,-0.0184,-0.0491,-89.357,0.0,-0.0109,0.9757,0.057,-0.0377,3.431,-0.4683,0.045
66549,-106.6881,-4.723,-0.0184,-0.0491,-89.357,0.0,-0.0109,0.9757,0.057,-0.0377,3.431,-0.4683,0.045
66565,-106.6881,-4.723,-0.0184,-0.0491,-89.357,0.0,-0.0109,0.9757,0.057,-0.0377,3.431,-0.4683,0.045
66581,-106.6881,-4.723,-0.0184,-0.0491,-89.357,0.0,-0.0109,0.9757,0.057,-0.0377,3.431,-0.4683,0.045
66600,-106.6881,-4.723,-0.0184,-0.0491,-89.357,0.0,-0.0109,0.9757,0.057,-0.0377,3.431,-0.4683,0.045
66613,-106.6897,-4.6084,-0.014,-0.0502,-89.3184,0.0002,-0.0157,1.2607,0.0294,-0.0455,2.6642,-0.2571,0.7798
66629,-106.6897,-4.6084,-0.014,-0.0502,-89.3184,0.0002,-0.0157,1.2607,0.0294,-0.0455,2.6642,-0.2571,0.7798
66645,-106.6897,-4.6084,-0.014,-0.0502,-89.3184,0.0002,-0.0157,1.2607,0.0294,-0.0455,2.6642,-0.2571,0.7798
66661,-106.6897,-4.6084,-0.014,-0.0502,-89.3184,0.0002,-0.0157,1.2607,0.0294,-0.0455,2.6642,-0.2571,0.7798
66677,-106.6897,-4.6084,-0.014,-0.0502,-89.3184,0.0002,-0.0157,1.2607,0.0294,-0.0455,2.6642,-0.2571,0.7798
66696,-106.6913,-4.499,-0.0124,-0.0322,-89.2912,0.0005,-0.0158,1.2359,0.0126,-0.0011,-0.2713,-0.185,0.0309
66709,-106.6913,-4.499,-0.0124,-0.0322,-89.2912,0.0005,-0.0158,1.2359,0.0126,-0.0011,-0.2713,-0.185,0.0309
66725,-106.6913,-4.499,-0.0124,-0.0322,-89.2912,0.0005,-0.0158,1.2359,0.0126,-0.0011,-0.2713,-0.185,0.0309
66741,-106.6913,-4.499,-0.0124,-0.0322,-89.2912,0.0005,-0.0158,1.2359,0.0126,-0.0011,-0.2713,-0.185,0.0309
66757,-106.6913,-4.499,-0.0124,-0.0322,-89.2912,0.0005,-0.0158,1.2359,0.0126,-0.0011,-0.2713,-0.185,0.0309
66773,-106.6913,-4.499,-0.0124,-0.0322,-89.2912,0.0005,-0.0158,1.2359,0.0126,-0.0011,-0.2713,-0.185,0.0309
66797,-106.6913,-4.499,-0.0124,-0.0322,-89.2912,0.0005,-0.0158,1.2359,0.0126,-0.0011,-0.2713,-0.185,0.0309
66805,-106.694,-4.3655,-0.0116,-0.0323,-89.2303,0.0025,-0.0299,1.4624,0.0055,-0.1427,2.3004,-0.0718,5.2545
66821,-106.694,-4.3655,-0.0116,-0.0323,-89.2303,0.0025,-0.0299,1.4624,0.0055,-0.1427,2.3004,-0.0718,5.2545
66837,-106.694,-4.3655,-0.0116,-0.0323,-89.2303,0.0025,-0.0299,1.4624,0.0055,-0.1427,2.3004,-0.0718,5.2545
66853,-106.694,-4.3655,-0.0116,-0.0323,-89.2303,0.0025,-0.0299,1.4624,0.0055,-0.1427,2.3004,-0.0718,5.2545
66869,-106.694,-4.3655,-0.0116,-0.0323,-89.2303,0.0025,-0.0299,1.4624,0.0055,-0.1427,2.3004,-0.0718,5.2545
66885,-106.694,-4.3655,-0.0116,-0.0323,-89.2303,0.0025,-0.0299,1.4624,0.0055,-0.1427,2.3004,-0.0718,5.2545
66901,-106.6967,-4.2063,-0.0112,-0.0365,-89.2296,0.0008,-0.0275,1.7024,0.0024,0.023,2.3295,-0.0297,0.623
66917,-106.6967,-4.2063,-0.0112,-0.0365,-89.2296,0.0008,-0.0275,1.7024,0.0024,0.023,2.3295,-0.0297,0.623
66933,-106.6967,-4.2063,-0.0112,-0.0365,-89.2296,0.0008,-0.0275,1.7024,0.0024,0.023,2.3295,-0.0297,0.623
66949,-106.6967,-4.2063,-0.0112,-0.0365,-89.2296,0.0008,-0.0275,1.7024,0.0024,0.023,2.3295,-0.0297,0.623
66965,-106.6967,-4.2063,-0.0112,-0.0365,-89.2296,0.0008,-0.0275,1.7024,0.0024,0.023,2.3295,-0.0297,0.623
66981,-106.6967,-4.2063,-0.0112,-0.0365,-89.2296,0.0008,-0.0275,1.7024,0.0024,0.023,2.3295,-0.0297,0.623
66997,-106.6967,-4.2063,-0.0112,-0.0365,-89.2296,0.0008,-0.0275,1.7024,0.0024,0.023,2.3295,-0.0297,0.623
67013,-106.7004,-3.9954,-0.0109,-0.0576,-89.2072,0.0004,-0.0367,2.3372,0.0011,-0.0852,5.9012,-0.0121,-2.8494
67029,-106.7004,-3.9954,-0.0109,-0.0576,-89.2072,0.0004,-0.0367,2.3372,0.0011,-0.0852,5.9012,-0.0121,-2.8494
67045,-106.7004,-3.9954,-0.0109,-0.0576,-89.2072,0.0004,-0.0367,2.3372,0.0011,-0.0852,5.9012,-0.0121,-2.8494
67061,-106.7004,-3.9954,-0.0109,-0.0576,-89.2072,0.0004,-0.0367,2.3372,0.0011,-0.0852,5.9012,-0.0121,-2.8494
67077,-106.7004,-3.9954,-0.0109,-0.0576,-89.2072,0.0004,-0.0367,2.3372,0.0011,-0.0852,5.9012,-0.0121,-2.8494
67093,-106.7004,-3.9954,-0.0109,-0.0576,-89.2072,0.0004,-0.0367,2.3372,0.0011,-0.0852,5.9012,-0.0121,-2.8494
67109,-106.7057,-3.7318,-0.0106,-0.0802,-89.0782,0.0008,-0.0513,3.0634,0.0005,-0.1476,7.3428,-0.0058,1.3279
67125,-106.7057,-3.7318,-0.0106,-0.0802,-89.0782,0.0008,-0.0513,3.0634,0.0005,-0.1476,7.3428,-0.0058,1.3279
67141,-106.7057,-3.7318,-0.0106,-0.0802,-89.0782,0.0008,-0.0513,3.0634,0.0005,-0.1476,7.3428,-0.0058,1.3279
67157,-106.7057,-3.7318,-0.0106,-0.0802,-89.0782,0.0008,-0.0513,3.0634,0.0005,-0.1476,7.3428,-0.0058,1.3279
67173,-106.7057,-3.7318,-0.0106,-0.0802,-89.0782,0.0008,-0.0513,3.0634,0.0005,-0.1476,7.3428,-0.0058,1.3279
67189,-106.7057,-3.7318,-0.0106,-0.0802,-89.0782,0.0008,-0.0513,3.0634,0.0005,-0.1476,7.3428,-0.0058,1.3279
67210,-106.7106,-3.3968,-0.0105,-0.0889,-89.1238,-0.0001,-0.0564,3.6457,0.0002,-0.0506,5.7766,-0.003,-0.0707
67221,-106.7106,-3.3968,-0.0105,-0.0889,-89.1238,-0.0001,-0.0564,3.6457,0.0002,-0.0506,5.7766,-0.003,-0.0707
67237,-106.7106,-3.3968,-0.0105,-0.0889,-89.1238,-0.0001,-0.0564,3.6457,0.0002,-0.0506,5.7766,-0.003,-0.0707
67253,-106.7106,-3.3968,-0.0105,-0.0889,-89.1238,-0.0001,-0.0564,3.6457,0.0002,-0.0506,5.7766,-0.003,-0.0707
67269,-106.7106,-3.3968,-0.0105,-0.0889,-89.1238,-0.0001,-0.0564,3.6457,0.0002,-0.0506,5.7766,-0.003,-0.0707
67285,-106.7106,-3.3968,-0.0105,-0.0889,-89.1238,-0.0001,-0.0564,3.6457,0.0002,-0.0506,5.7766,-0.003,-0.0707
67301,-106.7165,-3.0118,-0.0105,-0.0879,-89.126,-0.0003,-0.0634,4.1486,0.0001,-0.0697,4.9698,-0.0012,-0.0103
67317,-106.7165,-3.0118,-0.0105,-0.0879,-89.126,-0.0003,-0.0634,4.1486,0.0001,-0.0697,4.9698,-0.0012,-0.0103
67333,-106.7165,-3.0118,-0.0105,-0.0879,-89.126,-0.0003,-0.0634,4.1486,0.0001,-0.0697,4.9698,-0.0012,-0.0103
67349,-106.7165,-3.0118,-0.0105,-0.0879,-89.126,-0.0003,-0.0634,4.1486,0.0001,-0.0697,4.9698,-0.0012,-0.0103
67365,-106.7165,-3.0118,-0.0105,-0.0879,-89.126,-0.0003,-0.0634,4.1486,0.0001,-0.0697,4.9698,-0.0012,-0.0103
67381,-106.7165,-3.0118,-0.0105,-0.0879,-89.126,-0.0003,-0.0634,4.1486,0.0001,-0.0697,4.9698,-0.0012,-0.0103
67400,-106.7232,-2.5792,-0.0105,-0.095,-89.1263,-0.0002,-0.0736,4.8255,0.0001,-0.1053,6.9912,-0.0005,-0.0003
67413,-106.7232,-2.5792,-0.0105,-0.095,-89.1263,-0.0002,-0.0736,4.8255,0.0001,-0.1053,6.9912,-0.0005,-0.0003
67429,-106.7232,-2.5792,-0.0105,-0.095,-89.1263,-0.0002,-0.0736,4.8255,0.0001,-0.1053,6.9912,-0.0005,-0.0003
67445,-106.7232,-2.5792,-0.0105,-0.095,-89.1263,-0.0002,-0.0736,4.8255,0.0001,-0.1053,6.9912,-0.0005,-0.0003
67461,-106.7232,-2.5792,-0.0105,-0.095,-89.1263,-0.0002,-0.0736,4.8255,0.0001,-0.1053,6.9912,-0.0005,-0.0003
67477,-106.7232,-2.5792,-0.0105,-0.095,-89.1263,-0.0002,-0.0736,4.8255,0.0001,-0.1053,6.9912,-0.0005,-0.0003
67493,-106.7232,-2.5792,-0.0105,-0.095,-89.1263,-0.0002,-0.0736,4.8255,0.0001,-0.1053,6.9912,-0.0005,-0.0003
67509,-106.731,-2.0675,-0.0104,-0.0996,-89.1249,-0.0001,-0.083,5.4442,0.0,-0.0934,6.1536,-0.0003,0.2454
67525,-106.731,-2.0675,-0.0104,-0.0996,-89.1249,-0.0001,-0.083,5.4442,0.0,-0.0934,6.1536,-0.0003,0.2454
67541,-106.731,-2.0675,-0.0104,-0.0996,-89.1249,-0.0001,-0.083,5.4442,0.0,-0.0934,6.1536,-0.0003,0.2454
67557,-106.731,-2.0675,-0.0104,-0.0996,-89.1249,-0.0001,-0.083,5.4442,0.0,-0.0934,6.1536,-0.0003,0.2454
67573,-106.731,-2.0675,-0.0104,-0.0996,-89.1249,-0.0001,-0.083,5.4442,0.0,-0.0934,6.1536,-0.0003,0.2454
67589,-106.731,-2.0675,-0.0104,-0.0996,-89.1249,-0.0001,-0.083,5.4442,0.0,-0.0934,6.1536,-0.0003,0.2454
67608,-106.731,-2.0675,-0.0104,-0.0996,-89.1249,-0.0001,-0.083,5.4442,0.0,-0.0934,6.1536,-0.0003,0.2454
67621,-106.7398,-1.4954,-0.0104,-0.0987,-89.1199,0.0001,-0.0936,6.0283,0.0,-0.093,5.1474,-0.0002,-1.4418
67637,-106.7398,-1.4954,-0.0104,-0.0987,-89.1199,0.0001,-0.0936,6.0283,0.0,-0.093,5.1474,-0.0002,-1.4418
67653,-106.7398,-1.4954,-0.0104,-0.0987,-89.1199,0.0001,-0.0936,6.0283,0.0,-0.093,5.1474,-0.0002,-1.4418
67669,-106.7398,-1.4954,-0.0104,-0.0987,-89.1199,0.0001,-0.0936,6.0283,0.0,-0.093,5.1474,-0.0002,-1.4418
67685,-106.7398,-1.4954,-0.0104,-0.0987,-89.1199,0.0001,-0.0936,6.0283,0.0,-0.093,5.1474,-0.0002,-1.4418
67701,-106.7398,-1.4954,-0.0104,-0.0987,-89.1199,0.0001,-0.0936,6.0283,0.0,-0.093,5.1474,-0.0002,-1.4418
67720,-106.7497,-0.8726,-0.0104,-0.0993,-89.084,0.0005,-0.1042,6.6408,-0.0,-0.1074,6.2055,-0.0003,1.6093
67733,-106.7497,-0.8726,-0.0104,-0.0993,-89.084,0.0005,-0.1042,6.6408,-0.0,-0.1074,6.2055,-0.0003,1.6093
67749,-106.7497,-0.8726,-0.0104,-0.0993,-89.084,0.0005,-0.1042,6.6408,-0.0,-0.1074,6.2055,-0.0003,1.6093
67765,-106.7497,-0.8726,-0.0104,-0.0993,-89.084,0.0005,-0.1042,6.6408,-0.0,-0.1074,6.2055,-0.0003,1.6093
67781,-106.7497,-0.8726,-0.0104,-0.0993,-89.084,0.0005,-0.1042,6.6408,-0.0,-0.1074,6.2055,-0.0003,1.6093
67797,-106.7497,-0.8726,-0.0104,-0.0993,-89.084,0.0005,-0.1042,6.6408,-0.0,-0.1074,6.2055,-0.0003,1.6093
67813,-106.7497,-0.8726,-0.0104,-0.0993,-89.084,0.0005,-0.1042,6.6408,-0.0,-0.1074,6.2055,-0.0003,1.6093
67829,-106.7608,-0.1747,-0.0104,-0.1045,-89.085,0.0006,-0.1174,7.3254,-0.0,-0.1239,6.4039,-0.0,-1.155
67845,-106.7608,-0.1747,-0.0104,-0.1045,-89.085,0.0006,-0.1174,7.3254,-0.0,-0.1239,6.4039,-0.0,-1.155
67861,-106.7608,-0.1747,-0.0104,-0.1045,-89.085,0.0006,-0.1174,7.3254,-0.0,-0.1239,6.4039,-0.0,-1.155
67877,-106.7608,-0.1747,-0.0104,-0.1045,-89.085,0.0006,-0.1174,7.3254,-0.0,-0.1239,6.4039,-0.0,-1.155
67893,-106.7608,-0.1747,-0.0104,-0.1045,-89.085,0.0006,-0.1174,7.3254,-0.0,-0.1239,6.4039,-0.0,-1.155
67909,-106.7608,-0.1747,-0.0104,-0.1045,-89.085,0.0006,-0.1174,7.3254,-0.0,-0.1239,6.4039,-0.0,-1.155
67925,-106.7608,-0.1747,-0.0104,-0.1045,-89.085,0.0006,-0.1174,7.3254,-0.0,-0.1239,6.4039,-0.0,-1.155
67941,-106.7731,0.5921,-0.0104,-0.1082,-89.0779,0.0005,-0.1279,7.9977,-0.0,-0.0946,6.037,0.0001,0.9054
67957,-106.7731,0.5921,-0.0104,-0.1082,-89.0779,0.0005,-0.1279,7.9977,-0.0,-0.0946,6.037,0.0001,0.9054
67973,-106.7731,0.5921,-0.0104,-0.1082,-89.0779,0.0005,-0.1279,7.9977,-0.0,-0.0946,6.037,0.0001,0.9054
67989,-106.7731,0.5921,-0.0104,-0.1082,-89.0779,0.0005,-0.1279,7.9977,-0.0,-0.0946,6.037,0.0001,0.9054
68005,-106.7731,0.5921,-0.0104,-0.1082,-89.0779,0.0005,-0.1279,7.9977,-0.0,-0.0946,6.037,0.0001,0.9054
68021,-106.7731,0.5921,-0.0104,-0.1082,-89.0779,0.0005,-0.1279,7.9977,-0.0,-0.0946,6.037,0.0001,0.9054
68040,-106.7865,1.4236,-0.0104,-0.1071,-89.0819,0.0003,-0.1385,8.616,0.0,-0.1016,5.9463,0.0002,-0.6557
68053,-106.7865,1.4236,-0.0104,-0.1071,-89.0819,0.0003,-0.1385,8.616,0.0,-0.1016,5.9463,0.0002,-0.6557
68069,-106.7865,1.4236,-0.0104,-0.1071,-89.0819,0.0003,-0.1385,8.616,0.0,-0.1016,5.9463,0.0002,-0.6557
68085,-106.7865,1.4236,-0.0104,-0.1071,-89.0819,0.0003,-0.1385,8.616,0.0,-0.1016,5.9463,0.0002,-0.6557
68101,-106.7865,1.4236,-0.0104,-0.1071,-89.0819,0.0003,-0.1385,8.616,0.0,-0.1016,5.9463,0.0002,-0.6557
68117,-106.7865,1.4236,-0.0104,-0.1071,-89.0819,0.0003,-0.1385,8.616,0.0,-0.1016,5.9463,0.0002,-0.6557
68133,-106.7865,1.4236,-0.0104,-0.1071,-89.0819,0.0003,-0.1385,8.616,0.0,-0.1016,5.9463,0.0002,-0.6557
68152,-106.8008,2.3147,-0.0104,-0.1027,-89.0792,0.0002,-0.1474,9.1827,0.0,-0.081,5.183,-0.0001,0.3167
68165,-106.8008,2.3147,-0.0104,-0.1027,-89.0792,0.0002,-0.1474,9.1827,0.0,-0.081,5.183,-0.0001,0.3167
68181,-106.8008,2.3147,-0.0104,-0.1027,-89.0792,0.0002,-0.1474,9.1827,0.0,-0.081,5.183,-0.0001,0.3167
68197,-106.8008,2.3147,-0.0104,-0.1027,-89.0792,0.0002,-0.1474,9.1827,0.0,-0.081,5.183,-0.0001,0.3167
68213,-106.8008,2.3147,-0.0104,-0.1027,-89.0792,0.0002,-0.1474,9.1827,0.0,-0.081,5.183,-0.0001,0.3167
68229,-106.8008,2.3147,-0.0104,-0.1027,-89.0792,0.0002,-0.1474,9.1827,0.0,-0.081,5.183,-0.0001,0.3167
68245,-106.8157,3.2414,-0.0104,-0.0985,-89.08,0.0001,-0.1562,9.7285,-0.0,-0.0907,5.5745,-0.0003,-0.0176
68261,-106.8157,3.2414,-0.0104,-0.0985,-89.08,0.0001,-0.1562,9.7285,-0.0,-0.0907,5.5745,-0.0003,-0.0176
68277,-106.8157,3.2414,-0.0104,-0.0985,-89.08,0.0001,-0.1562,9.7285,-0.0,-0.0907,5.5745,-0.0003,-0.0176
68293,-106.8157,3.2414,-0.0104,-0.0985,-89.08,0.0001,-0.1562,9.7285,-0.0,-0.0907,5.5745,-0.0003,-0.0176
68309,-106.8157,3.2414,-0.0104,-0.0985,-89.08,0.0001,-0.1562,9.7285,-0.0,-0.0907,5.5745,-0.0003,-0.0176
68325,-106.8157,3.2414,-0.0104,-0.0985,-89.08,0.0001,-0.1562,9.7285,-0.0,-0.0907,5.5745,-0.0003,-0.0176
68350,-106.8317,4.2412,-0.0105,-0.0933,-89.08,0.0001,-0.1642,10.2275,0.0,-0.0785,4.8861,0.0003,0.0001
68357,-106.8317,4.2412,-0.0105,-0.0933,-89.08,0.0001,-0.1642,10.2275,0.0,-0.0785,4.8861,0.0003,0.0001
68373,-106.8317,4.2412,-0.0105,-0.0933,-89.08,0.0001,-0.1642,10.2275,0.0,-0.0785,4.8861,0.0003,0.0001
68389,-106.8317,4.2412,-0.0105,-0.0933,-89.08,0.0001,-0.1642,10.2275,0.0,-0.0785,4.8861,0.0003,0.0001
68405,-106.8317,4.2412,-0.0105,-0.0933,-89.08,0.0001,-0.1642,10.2275,0.0,-0.0785,4.8861,0.0003,0.0001
68421,-106.8317,4.2412,-0.0105,-0.0933,-89.08,0.0001,-0.1642,10.2275,0.0,-0.0785,4.8861,0.0003,0.0001
68437,-106.8317,4.2412,-0.0105,-0.0933,-89.08,0.0001,-0.1642,10.2275,0.0,-0.0785,4.8861,0.0003,0.0001
68456,-106.8485,5.2877,-0.0105,-0.0861,-89.0799,0.0,-0.1715,10.6778,0.0,-0.067,4.1749,0.0,-0.0
68469,-106.8485,5.2877,-0.0105,-0.0861,-89.0799,0.0,-0.1715,10.6778,0.0,-0.067,4.1749,0.0,-0.0
68485,-106.8485,5.2877,-0.0105,-0.0861,-89.0799,0.0,-0.1715,10.6778,0.0,-0.067,4.1749,0.0,-0.0
68501,-106.8485,5.2877,-0.0105,-0.0861,-89.0799,0.0,-0.1715,10.6778,0.0,-0.067,4.1749,0.0,-0.0
68517,-106.8485,5.2877,-0.0105,-0.0861,-89.0799,0.0,-0.1715,10.6778,0.0,-0.067,4.1749,0.0,-0.0
68533,-106.8485,5.2877,-0.0105,-0.0861,-89.0799,0.0,-0.1715,10.6778,0.0,-0.067,4.1749,0.0,-0.0
68549,-106.866,6.3781,-0.0106,-0.08,-89.08,0.0,-0.1783,11.1011,0.0,-0.0678,4.2246,0.0,0.0
68565,-106.866,6.3781,-0.0106,-0.08,-89.08,0.0,-0.1783,11.1011,0.0,-0.0678,4.2246,0.0,0.0
68581,-106.866,6.3781,-0.0106,-0.08,-89.08,0.0,-0.1783,11.1011,0.0,-0.0678,4.2246,0.0,0.0
68597,-106.866,6.3781,-0.0106,-0.08,-89.08,0.0,-0.1783,11.1011,0.0,-0.0678,4.2246,0.0,0.0
68613,-106.866,6.3781,-0.0106,-0.08,-89.08,0.0,-0.1783,11.1011,0.0,-0.0678,4.2246,0.0,0.0
68629,-106.866,6.3781,-0.0106,-0.08,-89.08,0.0,-0.1783,11.1011,0.0,-0.0678,4.2246,0.0,0.0
68645,-106.866,6.3781,-0.0106,-0.08,-89.08,0.0,-0.1783,11.1011,0.0,-0.0678,4.2246,0.0,0.0
68664,-106.8842,7.5093,-0.0106,-0.0744,-89.0799,0.0,-0.1846,11.4952,-0.0,-0.0603,3.7554,-0.0001,-0.0001
68677,-106.8842,7.5093,-0.0106,-0.0744,-89.0799,0.0,-0.1846,11.4952,-0.0,-0.0603,3.7554,-0.0001,-0.0001
68693,-106.8842,7.5093,-0.0106,-0.0744,-89.0799,0.0,-0.1846,11.4952,-0.0,-0.0603,3.7554,-0.0001,-0.0001
68709,-106.8842,7.5093,-0.0106,-0.0744,-89.0799,0.0,-0.1846,11.4952,-0.0,-0.0603,3.7554,-0.0001,-0.0001
68725,-106.8842,7.5093,-0.0106,-0.0744,-89.0799,0.0,-0.1846,11.4952,-0.0,-0.0603,3.7554,-0.0001,-0.0001
68741,-106.8842,7.5093,-0.0106,-0.0744,-89.0799,0.0,-0.1846,11.4952,-0.0,-0.0603,3.7554,-0.0001,-0.0001
68757,-106.8842,7.5093,-0.0106,-0.0744,-89.0799,0.0,-0.1846,11.4952,-0.0,-0.0603,3.7554,-0.0001,-0.0001
68773,-106.903,8.6786,-0.0106,-0.0694,-89.08,0.0,-0.1905,11.863,-0.0,-0.0557,3.4671,0.0,-0.0
68789,-106.903,8.6786,-0.0106,-0.0694,-89.08,0.0,-0.1905,11.863,-0.0,-0.0557,3.4671,0.0,-0.0
68805,-106.903,8.6786,-0.0106,-0.0694,-89.08,0.0,-0.1905,11.863,-0.0,-0.0557,3.4671,0.0,-0.0
68821,-106.903,8.6786,-0.0106,-0.0694,-89.08,0.0,-0.1905,11.863,-0.0,-0.0557,3.4671,0.0,-0.0
68853,-106.903,8.6786,-0.0106,-0.0694,-89.08,0.0,-0.1905,11.863,-0.0,-0.0557,3.4671,0.0,-0.0
68877,-106.9524,9.8749,-0.0107,-0.0546,-90.5059,0.1267,-1.0482,11.9775,0.001,-7.9675,1.0643,0.0094,-31.5553
68885,-106.9524,9.8749,-0.0107,-0.0546,-90.5059,0.1267,-1.0482,11.9775,0.001,-7.9675,1.0643,0.0094,-31.5553
68901,-106.9524,9.8749,-0.0107,-0.0546,-90.5059,0.1267,-1.0482,11.9775,0.001,-7.9675,1.0643,0.0094,-31.5553
68917,-106.9524,9.8749,-0.0107,-0.0546,-90.5059,0.1267,-1.0482,11.9775,0.001,-7.9675,1.0643,0.0094,-31.5553
68933,-106.9524,9.8749,-0.0107,-0.0546,-90.5059,0.1267,-1.0482,11.9775,0.001,-7.9675,1.0643,0.0094,-31.5553
68949,-106.9524,9.8749,-0.0107,-0.0546,-90.5059,0.1267,-1.0482,11.9775,0.001,-7.9675,1.0643,0.0094,-31.5553
68965,-106.9524,9.8749,-0.0107,-0.0546,-90.5059,0.1267,-1.0482,11.9775,0.001,-7.9675,1.0643,0.0094,-31.5553
68988,-107.0717,11.0596,-0.0109,-0.0154,-96.4062,0.2704,-2.04,11.7571,0.0011,-9.1788,-2.0407,0.0007,-83.7907
68997,-107.0717,11.0596,-0.0109,-0.0154,-96.4062,0.2704,-2.04,11.7571,0.0011,-9.1788,-2.0407,0.0007,-83.7907
69013,-107.0717,11.0596,-0.0109,-0.0154,-96.4062,0.2704,-2.04,11.7571,0.0011,-9.1788,-2.0407,0.0007,-83.7907
69029,-107.0717,11.0596,-0.0109,-0.0154,-96.4062,0.2704,-2.04,11.7571,0.0011,-9.1788,-2.0407,0.0007,-83.7907
69045,-107.0717,11.0596,-0.0109,-0.0154,-96.4062,0.2704,-2.04,11.7571,0.0011,-9.1788,-2.0407,0.0007,-83.7907
69061,-107.0717,11.0596,-0.0109,-0.0154,-96.4062,0.2704,-2.04,11.7571,0.0011,-9.1788,-2.0407,0.0007,-83.7907
69077,-107.0717,11.0596,-0.0109,-0.0154,-96.4062,0.2704,-2.04,11.7571,0.0011,-9.1788,-2.0407,0.0007,-83.7907
69097,-107.224,12.2026,-0.0111,0.0177,-107.9943,0.2668,-2.5236,11.4892,-0.0001,-4.2953,-2.3789,-0.0105,-143.6509
69109,-107.224,12.2026,-0.0111,0.0177,-107.9943,0.2668,-2.5236,11.4892,-0.0001,-4.2953,-2.3789,-0.0105,-143.6509
69125,-107.224,12.2026,-0.0111,0.0177,-107.9943,0.2668,-2.5236,11.4892,-0.0001,-4.2953,-2.3789,-0.0105,-143.6509
69141,-107.224,12.2026,-0.0111,0.0177,-107.9943,0.2668,-2.5236,11.4892,-0.0001,-4.2953,-2.3789,-0.0105,-143.6509
69157,-107.224,12.2026,-0.0111,0.0177,-107.9943,0.2668,-2.5236,11.4892,-0.0001,-4.2953,-2.3789,-0.0105,-143.6509
69173,-107.224,12.2026,-0.0111,0.0177,-107.9943,0.2668,-2.5236,11.4892,-0.0001,-4.2953,-2.3789,-0.0105,-143.6509
69189,-107.338,13.2144,-0.011,-0.0003,-123.8663,0.1182,-1.9918,11.4873,-0.0012,5.7305,-0.0206,-0.0124,-188.8727
69205,-107.338,13.2144,-0.011,-0.0003,-123.8663,0.1182,-1.9918,11.4873,-0.0012,5.7305,-0.0206,-0.0124,-188.8727
69221,-107.338,13.2144,-0.011,-0.0003,-123.8663,0.1182,-1.9918,11.4873,-0.0012,5.7305,-0.0206,-0.0124,-188.8727
69237,-107.338,13.2144,-0.011,-0.0003,-123.8663,0.1182,-1.9918,11.4873,-0.0012,5.7305,-0.0206,-0.0124,-188.8727
69253,-107.338,13.2144,-0.011,-0.0003,-123.8663,0.1182,-1.9918,11.4873,-0.0012,5.7305,-0.0206,-0.0124,-188.8727
69269,-107.338,13.2144,-0.011,-0.0003,-123.8663,0.1182,-1.9918,11.4873,-0.0012,5.7305,-0.0206,-0.0124,-188.8727
69285,-107.3299,14.2532,-0.0103,-0.1077,-143.7266,-0.1683,-0.0585,11.4676,0.001,19.5312,-0.1988,0.0223,-207.8989
69301,-107.3299,14.2532,-0.0103,-0.1077,-143.7266,-0.1683,-0.0585,11.4676,0.001,19.5312,-0.1988,0.0223,-207.8989
69317,-107.3299,14.2532,-0.0103,-0.1077,-143.7266,-0.1683,-0.0585,11.4676,0.001,19.5312,-0.1988,0.0223,-207.8989
69333,-107.3299,14.2532,-0.0103,-0.1077,-143.7266,-0.1683,-0.0585,11.4676,0.001,19.5312,-0.1988,0.0223,-207.8989
69349,-107.3299,14.2532,-0.0103,-0.1077,-143.7266,-0.1683,-0.0585,11.4676,0.001,19.5312,-0.1988,0.0223,-207.8989
69365,-107.3299,14.2532,-0.0103,-0.1077,-143.7266,-0.1683,-0.0585,11.4676,0.001,19.5312,-0.1988,0.0223,-207.8989
69389,-107.1453,15.2017,-0.0093,-0.2193,-164.5174,-0.4112,2.2433,10.7437,0.0021,23.5901,-7.4191,0.0113,-216.7552
69397,-107.1453,15.2017,-0.0093,-0.2193,-164.5174,-0.4112,2.2433,10.7437,0.0021,23.5901,-7.4191,0.0113,-216.7552
69413,-107.1453,15.2017,-0.0093,-0.2193,-164.5174,-0.4112,2.2433,10.7437,0.0021,23.5901,-7.4191,0.0113,-216.7552
69429,-107.1453,15.2017,-0.0093,-0.2193,-164.5174,-0.4112,2.2433,10.7437,0.0021,23.5901,-7.4191,0.0113,-216.7552
69461,-107.1453,15.2017,-0.0093,-0.2193,-164.5174,-0.4112,2.2433,10.7437,0.0021,23.5901,-7.4191,0.0113,-216.7552
69477,-106.8373,15.9679,-0.0087,-0.2712,174.9116,-0.6529,3.6203,8.7124,0.0023,14.5909,-21.5244,0.0024,-217.8773
69493,-106.8373,15.9679,-0.0087,-0.2712,174.9116,-0.6529,3.6203,8.7124,0.0023,14.5909,-21.5244,0.0024,-217.8773
69509,-106.8373,15.9679,-0.0087,-0.2712,174.9116,-0.6529,3.6203,8.7124,0.0023,14.5909,-21.5244,0.0024,-217.8773
69525,-106.8373,15.9679,-0.0087,-0.2712,174.9116,-0.6529,3.6203,8.7124,0.0023,14.5909,-21.5244,0.0024,-217.8773
69541,-106.8373,15.9679,-0.0087,-0.2712,174.9116,-0.6529,3.6203,8.7124,0.0023,14.5909,-21.5244,0.0024,-217.8773
69557,-106.8373,15.9679,-0.0087,-0.2712,174.9116,-0.6529,3.6203,8.7124,0.0023,14.5909,-21.5244,0.0024,-217.8773
69573,-106.5725,16.5302,-0.0091,-0.2111,155.9007,-0.8454,2.5997,6.7523,-0.002,-11.046,-21.2127,-0.0467,-192.4229
69589,-106.5725,16.5302,-0.0091,-0.2111,155.9007,-0.8454,2.5997,6.7523,-0.002,-11.046,-21.2127,-0.0467,-192.4229
69605,-106.5725,16.5302,-0.0091,-0.2111,155.9007,-0.8454,2.5997,6.7523,-0.002,-11.046,-21.2127,-0.0467,-192.4229
69621,-106.5725,16.5302,-0.0091,-0.2111,155.9007,-0.8454,2.5997,6.7523,-0.002,-11.046,-21.2127,-0.0467,-192.4229
69637,-106.5725,16.5302,-0.0091,-0.2111,155.9007,-0.8454,2.5997,6.7523,-0.002,-11.046,-21.2127,-0.0467,-192.4229
69653,-106.5725,16.5302,-0.0091,-0.2111,155.9007,-0.8454,2.5997,6.7523,-0.002,-11.046,-21.2127,-0.0467,-192.4229
69669,-106.5021,16.9937,-0.0099,-0.0677,139.7849,-0.9354,0.5132,5.9962,0.0016,-22.8927,-8.2959,0.04,-156.7542
69685,-106.5021,16.9937,-0.0099,-0.0677,139.7849,-0.9354,0.5132,5.9962,0.0016,-22.8927,-8.2959,0.04,-156.7542
69701,-106.5021,16.9937,-0.0099,-0.0677,139.7849,-0.9354,0.5132,5.9962,0.0016,-22.8927,-8.2959,0.04,-156.7542
69717,-106.5021,16.9937,-0.0099,-0.0677,139.7849,-0.9354,0.5132,5.9962,0.0016,-22.8927,-8.2959,0.04,-156.7542
69733,-106.5021,16.9937,-0.0099,-0.0677,139.7849,-0.9354,0.5132,5.9962,0.0016,-22.8927,-8.2959,0.04,-156.7542
69749,-106.5021,16.9937,-0.0099,-0.0677,139.7849,-0.9354,0.5132,5.9962,0.0016,-22.8927,-8.2959,0.04,-156.7542
69770,-106.6482,17.57,-0.0113,0.1155,127.2181,-0.798,-1.6613,6.827,-0.001,-21.5633,8.2387,-0.0256,-102.4179
69781,-106.6482,17.57,-0.0113,0.1155,127.2181,-0.798,-1.6613,6.827,-0.001,-21.5633,8.2387,-0.0256,-102.4179
69797,-106.6482,17.57,-0.0113,0.1155,127.2181,-0.798,-1.6613,6.827,-0.001,-21.5633,8.2387,-0.0256,-102.4179
69813,-106.6482,17.57,-0.0113,0.1155,127.2181,-0.798,-1.6613,6.827,-0.001,-21.5633,8.2387,-0.0256,-102.4179
69829,-106.6482,17.57,-0.0113,0.1155,127.2181,-0.798,-1.6613,6.827,-0.001,-21.5633,8.2387,-0.0256,-102.4179
69845,-106.6482,17.57,-0.0113,0.1155,127.2181,-0.798,-1.6613,6.827,-0.001,-21.5633,8.2387,-0.0256,-102.4179
69864,-106.8897,18.2604,-0.012,0.1902,118.3205,-0.456,-1.8817,7.8452,-0.0026,-2.2585,10.4348,-0.0169,-88.2453
69877,-106.8897,18.2604,-0.012,0.1902,118.3205,-0.456,-1.8817,7.8452,-0.0026,-2.2585,10.4348,-0.0169,-88.2453
69893,-106.8897,18.2604,-0.012,0.1902,118.3205,-0.456,-1.8817,7.8452,-0.0026,-2.2585,10.4348,-0.0169,-88.2453
69909,-106.8897,18.2604,-0.012,0.1902,118.3205,-0.456,-1.8817,7.8452,-0.0026,-2.2585,10.4348,-0.0169,-88.2453
69925,-106.8897,18.2604,-0.012,0.1902,118.3205,-0.456,-1.8817,7.8452,-0.0026,-2.2585,10.4348,-0.0169,-88.2453
69941,-106.8897,18.2604,-0.012,0.1902,118.3205,-0.456,-1.8817,7.8452,-0.0026,-2.2585,10.4348,-0.0169,-88.2453
69973,-107.0837,19.0157,-0.0122,0.1783,110.139,-0.0962,-1.1275,8.5733,-0.0031,8.004,7.7271,-0.0057,-88.1652
69989,-107.0837,19.0157,-0.0122,0.1783,110.139,-0.0962,-1.1275,8.5733,-0.0031,8.004,7.7271,-0.0057,-88.1652
70005,-107.0837,19.0157,-0.0122,0.1783,110.139,-0.0962,-1.1275,8.5733,-0.0031,8.004,7.7271,-0.0057,-88.1652
70021,-107.0837,19.0157,-0.0122,0.1783,110.139,-0.0962,-1.1275,8.5733,-0.0031,8.004,7.7271,-0.0057,-88.1652
70037,-107.0837,19.0157,-0.0122,0.1783,110.139,-0.0962,-1.1275,8.5733,-0.0031,8.004,7.7271,-0.0057,-88.1652
70056,-107.2462,19.8888,-0.0123,0.1496,103.4039,-0.0193,-1.4713,9.0149,-0.0012,-3.3414,4.2924,0.0193,-42.5485
70069,-107.2462,19.8888,-0.0123,0.1496,103.4039,-0.0193,-1.4713,9.0149,-0.0012,-3.3414,4.2924,0.0193,-42.5485
70085,-107.2462,19.8888,-0.0123,0.1496,103.4039,-0.0193,-1.4713,9.0149,-0.0012,-3.3414,4.2924,0.0193,-42.5485
70101,-107.2462,19.8888,-0.0123,0.1496,103.4039,-0.0193,-1.4713,9.0149,-0.0012,-3.3414,4.2924,0.0193,-42.5485
70117,-107.2462,19.8888,-0.0123,0.1496,103.4039,-0.0193,-1.4713,9.0149,-0.0012,-3.3414,4.2924,0.0193,-42.5485
70133,-107.2462,19.8888,-0.0123,0.1496,103.4039,-0.0193,-1.4713,9.0149,-0.0012,-3.3414,4.2924,0.0193,-42.5485
70153,-107.4172,20.7163,-0.012,0.1109,101.4096,-0.0836,-1.809,9.1602,0.0006,-3.696,1.5895,0.0189,-11.9598
70165,-107.4172,20.7163,-0.012,0.1109,101.4096,-0.0836,-1.809,9.1602,0.0006,-3.696,1.5895,0.0189,-11.9598
70181,-107.4172,20.7163,-0.012,0.1109,101.4096,-0.0836,-1.809,9.1602,0.0006,-3.696,1.5895,0.0189,-11.9598
70197,-107.4172,20.7163,-0.012,0.1109,101.4096,-0.0836,-1.809,9.1602,0.0006,-3.696,1.5895,0.0189,-11.9598
70213,-107.4172,20.7163,-0.012,0.1109,101.4096,-0.0836,-1.809,9.1602,0.0006,-3.696,1.5895,0.0189,-11.9598
70229,-107.4172,20.7163,-0.012,0.1109,101.4096,-0.0836,-1.809,9.1602,0.0006,-3.696,1.5895,0.0189,-11.9598
70255,-107.4172,20.7163,-0.012,0.1109,101.4096,-0.0836,-1.809,9.1602,0.0006,-3.696,1.5895,0.0189,-11.9598
70261,-107.6031,21.637,-0.0117,0.072,100.8373,-0.0551,-1.8148,9.2584,0.0,-0.053,0.9002,-0.005,-3.8744
70277,-107.6031,21.637,-0.0117,0.072,100.8373,-0.0551,-1.8148,9.2584,0.0,-0.053,0.9002,-0.005,-3.8744
70293,-107.6031,21.637,-0.0117,0.072,100.8373,-0.0551,-1.8148,9.2584,0.0,-0.053,0.9002,-0.005,-3.8744
70309,-107.6031,21.637,-0.0117,0.072,100.8373,-0.0551,-1.8148,9.2584,0.0,-0.053,0.9002,-0.005,-3.8744
70325,-107.6031,21.637,-0.0117,0.072,100.8373,-0.0551,-1.8148,9.2584,0.0,-0.053,0.9002,-0.005,-3.8744
70341,-107.6031,21.637,-0.0117,0.072,100.8373,-0.0551,-1.8148,9.2584,0.0,-0.053,0.9002,-0.005,-3.8744
70361,-107.6031,21.637,-0.0117,0.072,100.8373,-0.0551,-1.8148,9.2584,0.0,-0.053,0.9002,-0.005,-3.8744
70373,-107.7841,22.5671,-0.0115,0.0463,100.6814,-0.0245,-1.7912,9.3407,-0.0001,0.2148,0.75,-0.0015,-1.7161
70389,-107.7841,22.5671,-0.0115,0.0463,100.6814,-0.0245,-1.7912,9.3407,-0.0001,0.2148,0.75,-0.0015,-1.7161
70405,-107.7841,22.5671,-0.0115,0.0463,100.6814,-0.0245,-1.7912,9.3407,-0.0001,0.2148,0.75,-0.0015,-1.7161
70421,-107.7841,22.5671,-0.0115,0.0463,100.6814,-0.0245,-1.7912,9.3407,-0.0001,0.2148,0.75,-0.0015,-1.7161
70437,-107.7841,22.5671,-0.0115,0.0463,100.6814,-0.0245,-1.7912,9.3407,-0.0001,0.2148,0.75,-0.0015,-1.7161
70453,-107.7841,22.5671,-0.0115,0.0463,100.6814,-0.0245,-1.7912,9.3407,-0.0001,0.2148,0.75,-0.0015,-1.7161
70469,-107.9628,23.505,-0.0114,0.0309,100.6378,-0.009,-1.782,9.411,-0.0001,0.092,0.7,0.0007,-1.1155
70485,-107.9628,23.505,-0.0114,0.0309,100.6378,-0.009,-1.782,9.411,-0.0001,0.092,0.7,0.0007,-1.1155
70501,-107.9628,23.505,-0.0114,0.0309,100.6378,-0.009,-1.782,9.411,-0.0001,0.092,0.7,0.0007,-1.1155
70517,-107.9628,23.505,-0.0114,0.0309,100.6378,-0.009,-1.782,9.411,-0.0001,0.092,0.7,0.0007,-1.1155
70533,-107.9628,23.505,-0.0114,0.0309,100.6378,-0.009,-1.782,9.411,-0.0001,0.092,0.7,0.0007,-1.1155
70549,-107.9628,23.505,-0.0114,0.0309,100.6378,-0.009,-1.782,9.411,-0.0001,0.092,0.7,0.0007,-1.1155
70570,-108.1411,24.4495,-0.0113,0.022,100.6254,-0.0027,-1.7838,9.4743,-0.0,-0.0183,0.6323,0.0006,-0.9402
70581,-108.1411,24.4495,-0.0113,0.022,100.6254,-0.0027,-1.7838,9.4743,-0.0,-0.0183,0.6323,0.0006,-0.9402
70597,-108.1411,24.4495,-0.0113,0.022,100.6254,-0.0027,-1.7838,9.4743,-0.0,-0.0183,0.6323,0.0006,-0.9402
70613,-108.1411,24.4495,-0.0113,0.022,100.6254,-0.0027,-1.7838,9.4743,-0.0,-0.0183,0.6323,0.0006,-0.9402
70629,-108.1411,24.4495,-0.0113,0.022,100.6254,-0.0027,-1.7838,9.4743,-0.0,-0.0183,0.6323,0.0006,-0.9402
70645,-108.1411,24.4495,-0.0113,0.022,100.6254,-0.0027,-1.7838,9.4743,-0.0,-0.0183,0.6323,0.0006,-0.9402
70661,-108.1411,24.4495,-0.0113,0.022,100.6254,-0.0027,-1.7838,9.4743,-0.0,-0.0183,0.6323,0.0006,-0.9402
70677,-108.3198,25.4002,-0.0113,0.0169,100.6218,-0.0005,-1.7909,9.5338,0.0,-0.0666,0.5584,0.0002,-0.8839
70693,-108.3198,25.4002,-0.0113,0.0169,100.6218,-0.0005,-1.7909,9.5338,0.0,-0.0666,0.5584,0.0002,-0.8839
70709,-108.3198,25.4002,-0.0113,0.0169,100.6218,-0.0005,-1.7909,9.5338,0.0,-0.0666,0.5584,0.0002,-0.8839
70725,-108.3198,25.4002,-0.0113,0.0169,100.6218,-0.0005,-1.7909,9.5338,0.0,-0.0666,0.5584,0.0002,-0.8839
70741,-108.3198,25.4002,-0.0113,0.0169,100.6218,-0.0005,-1.7909,9.5338,0.0,-0.0666,0.5584,0.0002,-0.8839
70757,-108.3198,25.4002,-0.0113,0.0169,100.6218,-0.0005,-1.7909,9.5338,0.0,-0.0666,0.5584,0.0002,-0.8839
70779,-108.4994,26.3568,-0.0113,0.0139,100.6208,0.0001,-1.8,9.5909,0.0,-0.0862,0.5373,0.0001,-0.8611
70789,-108.4994,26.3568,-0.0113,0.0139,100.6208,0.0001,-1.8,9.5909,0.0,-0.0862,0.5373,0.0001,-0.8611
70805,-108.4994,26.3568,-0.0113,0.0139,100.6208,0.0001,-1.8,9.5909,0.0,-0.0862,0.5373,0.0001,-0.8611
70821,-108.4994,26.3568,-0.0113,0.0139,100.6208,0.0001,-1.8,9.5909,0.0,-0.0862,0.5373,0.0001,-0.8611
70837,-108.4994,26.3568,-0.0113,0.0139,100.6208,0.0001,-1.8,9.5909,0.0,-0.0862,0.5373,0.0001,-0.8611
70853,-108.4994,26.3568,-0.0113,0.0139,100.6208,0.0001,-1.8,9.5909,0.0,-0.0862,0.5373,0.0001,-0.8611
70869,-108.4994,26.3568,-0.0113,0.0139,100.6208,0.0001,-1.8,9.5909,0.0,-0.0862,0.5373,0.0001,-0.8611
70885,-108.4994,26.3568,-0.0113,0.0139,100.6208,0.0001,-1.8,9.5909,0.0,-0.0862,0.5373,0.0001,-0.8611
70901,-108.6799,27.3189,-0.0112,0.0122,100.6205,0.0002,-1.8099,9.6462,0.0,-0.0888,0.5008,-0.0002,-0.8489
70917,-108.6799,27.3189,-0.0112,0.0122,100.6205,0.0002,-1.8099,9.6462,0.0,-0.0888,0.5008,-0.0002,-0.8489
70933,-108.6799,27.3189,-0.0112,0.0122,100.6205,0.0002,-1.8099,9.6462,0.0,-0.0888,0.5008,-0.0002,-0.8489
70949,-108.6799,27.3189,-0.0112,0.0122,100.6205,0.0002,-1.8099,9.6462,0.0,-0.0888,0.5008,-0.0002,-0.8489
70965,-108.6799,27.3189,-0.0112,0.0122,100.6205,0.0002,-1.8099,9.6462,0.0,-0.0888,0.5008,-0.0002,-0.8489
70981,-108.6799,27.3189,-0.0112,0.0122,100.6205,0.0002,-1.8099,9.6462,0.0,-0.0888,0.5008,-0.0002,-0.8489
71001,-108.8614,28.2865,-0.0112,0.0111,100.6205,0.0002,-1.8198,9.7002,0.0,-0.0919,0.5,0.0001,-0.8393
71013,-108.8614,28.2865,-0.0112,0.0111,100.6205,0.0002,-1.8198,9.7002,0.0,-0.0919,0.5,0.0001,-0.8393
71029,-108.8614,28.2865,-0.0112,0.0111,100.6205,0.0002,-1.8198,9.7002,0.0,-0.0919,0.5,0.0001,-0.8393
71045,-108.8614,28.2865,-0.0112,0.0111,100.6205,0.0002,-1.8198,9.7002,0.0,-0.0919,0.5,0.0001,-0.8393
71061,-108.8614,28.2865,-0.0112,0.0111,100.6205,0.0002,-1.8198,9.7002,0.0,-0.0919,0.5,0.0001,-0.8393
71077,-108.8614,28.2865,-0.0112,0.0111,100.6205,0.0002,-1.8198,9.7002,0.0,-0.0919,0.5,0.0001,-0.8393
71093,-108.8614,28.2865,-0.0112,0.0111,100.6205,0.0002,-1.8198,9.7002,0.0,-0.0919,0.5,0.0001,-0.8393
71109,-109.0438,29.2594,-0.0112,0.0104,100.6205,0.0001,-1.8296,9.7528,0.0,-0.0961,0.516,-0.0,-0.8312
71125,-109.0438,29.2594,-0.0112,0.0104,100.6205,0.0001,-1.8296,9.7528,0.0,-0.0961,0.516,-0.0,-0.8312
71141,-109.0438,29.2594,-0.0112,0.0104,100.6205,0.0001,-1.8296,9.7528,0.0,-0.0961,0.516,-0.0,-0.8312
