timestamp,x,y,z,pitch,yaw,roll,vx,vy,vz,ax,ay,az,yaw_rate
39174,-106.6867,-4.8475,0.4541,0.0,-89.3578,0.0,0.0,0.0,-1.6439,0.0,0.0,-9.8,0.0
39190,-106.6867,-4.8475,0.4541,0.0,-89.3578,0.0,0.0,0.0,-1.6439,0.0,0.0,-9.8,0.0
39206,-106.6867,-4.8475,0.4541,0.0,-89.3578,0.0,0.0,0.0,-1.6439,0.0,0.0,-9.8,0.0
39222,-106.6867,-4.8475,0.378,0.0,-89.3578,0.0,0.0,0.0,-2.04,0.0,0.0,-9.8,0.0
39238,-106.6867,-4.8475,0.378,0.0,-89.3578,0.0,0.0,0.0,-2.04,0.0,0.0,-9.8,0.0
39254,-106.6867,-4.8475,0.3134,0.0,-89.3578,0.0,0.0,0.0,-2.3242,0.0,0.0,-9.8,0.0
39273,-106.6867,-4.8475,0.2492,0.0,-89.3578,0.0,0.0,0.0,-2.5763,0.0,0.0,-9.8,0.0
39286,-106.6867,-4.8475,0.2492,0.0,-89.3578,0.0,0.0,0.0,-2.5763,0.0,0.0,-9.8,0.0
39305,-106.6867,-4.8475,0.1707,0.0,-89.3578,0.0,0.0,0.0,-2.8548,0.0,0.0,-9.8,0.0
39318,-106.6867,-4.8475,0.1707,0.0,-89.3578,0.0,0.0,0.0,-2.8548,0.0,0.0,-9.8,0.0
39334,-106.6867,-4.8475,0.0921,0.0,-89.3578,0.0,0.0,0.0,-3.1095,0.0,0.0,-9.8,0.0
39353,-106.6867,-4.8465,0.0212,-0.0017,-89.3578,0.0,-0.0015,0.1338,-2.5878,-0.0617,5.5038,21.4536,-0.0
39366,-106.6867,-4.8465,0.0212,-0.0017,-89.3578,0.0,-0.0015,0.1338,-2.5878,-0.0617,5.5038,21.4536,-0.0
39382,-106.6867,-4.8461,-0.0271,-0.0012,-89.3578,0.0,0.0005,-0.0448,-1.6481,0.0802,-7.1578,37.6556,0.0
39402,-106.6868,-4.8448,-0.0565,-0.0025,-89.3578,0.0,-0.0011,0.1018,-0.9908,-0.0665,5.94,26.6388,0.0
39414,-106.6868,-4.8448,-0.0565,-0.0025,-89.3578,0.0,-0.0011,0.1018,-0.9908,-0.0665,5.94,26.6388,0.0
39433,-106.6868,-4.8416,-0.0757,-0.0059,-89.3578,0.0,-0.002,0.1775,-0.4472,-0.028,2.4847,17.8352,0.0004
39446,-106.6868,-4.8416,-0.0757,-0.0059,-89.3578,0.0,-0.002,0.1775,-0.4472,-0.028,2.4847,17.8352,0.0004
39466,-106.6869,-4.8356,-0.0827,-0.0104,-89.3582,0.0,-0.0031,0.276,-0.1024,-0.0337,3.0774,10.7714,-0.013
39478,-106.6869,-4.8356,-0.0827,-0.0104,-89.3582,0.0,-0.0031,0.276,-0.1024,-0.0337,3.0774,10.7714,-0.013
39494,-106.6869,-4.8262,-0.0822,-0.0179,-89.3668,-0.0001,-0.004,0.3903,0.0644,-0.0342,4.432,6.4654,-1.7256
39510,-106.6871,-4.8126,-0.0785,-0.0261,-89.3784,0.0004,-0.0101,0.5612,0.1672,-0.2307,6.3997,3.8513,1.3206
39526,-106.6871,-4.8126,-0.0785,-0.0261,-89.3784,0.0004,-0.0101,0.5612,0.1672,-0.2307,6.3997,3.8513,1.3206
39554,-106.6872,-4.7977,-0.0737,-0.0333,-89.3911,0.0002,-0.0085,0.6909,0.2169,0.0689,5.5622,2.1294,-1.2267
39558,-106.6872,-4.7977,-0.0737,-0.0333,-89.3911,0.0002,-0.0085,0.6909,0.2169,0.0689,5.5622,2.1294,-1.2267
39574,-106.6873,-4.7745,-0.0668,-0.0421,-89.4041,0.0002,-0.0116,0.8408,0.2438,-0.1078,5.1813,0.9306,0.628
39593,-106.6876,-4.7502,-0.0604,-0.0489,-89.4053,0.0001,-0.0111,0.9958,0.246,0.0219,6.0242,0.0865,-0.175
39606,-106.6876,-4.7502,-0.0604,-0.0489,-89.4053,0.0001,-0.0111,0.9958,0.246,0.0219,6.0242,0.0865,-0.175
39625,-106.6879,-4.7172,-0.0526,-0.0552,-89.4185,-0.0002,-0.0107,1.145,0.257,0.0101,4.8397,0.3567,-0.6938
39638,-106.6879,-4.7172,-0.0526,-0.0552,-89.4185,-0.0002,-0.0107,1.145,0.257,0.0101,4.8397,0.3567,-0.6938
39657,-106.6881,-4.6831,-0.0455,-0.0558,-89.4212,-0.0005,-0.0096,1.0962,0.2229,0.0387,-1.6164,-1.1295,-2.4285
39670,-106.6881,-4.6831,-0.0455,-0.0558,-89.4212,-0.0005,-0.0096,1.0962,0.2229,0.0387,-1.6164,-1.1295,-2.4285
39686,-106.6889,-4.6494,-0.0394,-0.0527,-89.3637,-0.0001,-0.0127,1.1763,0.1972,-0.1069,2.7324,-0.8744,3.8536
39702,-106.6889,-4.6494,-0.0394,-0.0527,-89.3637,-0.0001,-0.0127,1.1763,0.1972,-0.1069,2.7324,-0.8744,3.8536
39718,-106.6893,-4.6161,-0.0342,-0.046,-89.3723,0.0002,-0.014,1.0949,0.1645,-0.0442,-2.7444,-1.1024,-2.373
39734,-106.6893,-4.6161,-0.0342,-0.046,-89.3723,0.0002,-0.014,1.0949,0.1645,-0.0442,-2.7444,-1.1024,-2.373
39750,-106.6896,-4.5804,-0.03,-0.042,-89.3719,-0.0004,-0.0045,1.2101,0.1312,0.3139,3.7803,-1.0954,-2.6015
39769,-106.6896,-4.5462,-0.0269,-0.0442,-89.4173,-0.0006,-0.0108,1.4101,0.1139,-0.2498,7.8449,-0.6785,0.0322
39782,-106.6896,-4.5462,-0.0269,-0.0442,-89.4173,-0.0006,-0.0108,1.4101,0.1139,-0.2498,7.8449,-0.6785,0.0322
39798,-106.6899,-4.5129,-0.0244,-0.0429,-89.4159,-0.0007,-0.0113,1.3236,0.0966,-0.0186,-3.5018,-0.6973,0.1074
39814,-106.6899,-4.5129,-0.0244,-0.0429,-89.4159,-0.0007,-0.0113,1.3236,0.0966,-0.0186,-3.5018,-0.6973,0.1074
39830,-106.6904,-4.471,-0.0218,-0.042,-89.3895,-0.0004,-0.0142,1.4941,0.0814,-0.099,5.7513,-0.5146,2.5111
39849,-106.6911,-4.4294,-0.0199,-0.0438,-89.353,-0.0002,-0.0161,1.617,0.0663,-0.0684,4.5127,-0.5543,2.506
39862,-106.6911,-4.4294,-0.0199,-0.0438,-89.353,-0.0002,-0.0161,1.617,0.0663,-0.0684,4.5127,-0.5543,2.506
39881,-106.6911,-4.3817,-0.0182,-0.0467,-89.4134,-0.0005,-0.0162,1.705,0.0547,-0.0023,3.0584,-0.4026,-3.6186
39894,-106.6911,-4.3817,-0.0182,-0.0467,-89.4134,-0.0005,-0.0162,1.705,0.0547,-0.0023,3.0584,-0.4026,-3.6186
39921,-106.6918,-4.3198,-0.0165,-0.049,-89.3899,-0.0,-0.0196,1.7929,0.0421,-0.0975,2.5041,-0.3576,-1.4408
39926,-106.6918,-4.3198,-0.0165,-0.049,-89.3899,-0.0,-0.0196,1.7929,0.0421,-0.0975,2.5041,-0.3576,-1.4408
39942,-106.6918,-4.3198,-0.0165,-0.049,-89.3899,-0.0,-0.0196,1.7929,0.0421,-0.0975,2.5041,-0.3576,-1.4408
39962,-106.6928,-4.2342,-0.0149,-0.0529,-89.363,-0.0003,-0.0163,1.993,0.0309,0.0732,4.5072,-0.2527,-0.9026
39974,-106.6928,-4.2342,-0.0149,-0.0529,-89.363,-0.0003,-0.0163,1.993,0.0309,0.0732,4.5072,-0.2527,-0.9026
40000,-106.6935,-4.1614,-0.014,-0.0586,-89.3559,-0.0003,-0.0204,2.2908,0.0242,-0.1198,8.7774,-0.1986,1.9229
40006,-106.6935,-4.1614,-0.014,-0.0586,-89.3559,-0.0003,-0.0204,2.2908,0.0242,-0.1198,8.7774,-0.1986,1.9229
40022,-106.6935,-4.1614,-0.014,-0.0586,-89.3559,-0.0003,-0.0204,2.2908,0.0242,-0.1198,8.7774,-0.1986,1.9229
40038,-106.6947,-4.0733,-0.0132,-0.067,-89.323,0.0002,-0.0263,2.5349,0.0188,-0.1595,6.6004,-0.1457,2.9903
40054,-106.6947,-4.0733,-0.0132,-0.067,-89.323,0.0002,-0.0263,2.5349,0.0188,-0.1595,6.6004,-0.1457,2.9903
40070,-106.6953,-3.9782,-0.0125,-0.0749,-89.3616,0.0001,-0.0291,2.752,0.0144,-0.0774,6.044,-0.1219,-1.9463
40089,-106.696,-3.8922,-0.0121,-0.0786,-89.3849,-0.0001,-0.0299,2.927,0.0113,-0.0284,5.7378,-0.1009,-1.432
40102,-106.696,-3.8922,-0.0121,-0.0786,-89.3849,-0.0001,-0.0299,2.927,0.0113,-0.0284,5.7378,-0.1009,-1.432
40118,-106.696,-3.8922,-0.0121,-0.0786,-89.3849,-0.0001,-0.0299,2.927,0.0113,-0.0284,5.7378,-0.1009,-1.432
40134,-106.6968,-3.7937,-0.0118,-0.0811,-89.4061,-0.0002,-0.0317,3.1083,0.0091,-0.0521,5.5,-0.0679,-0.5968
40154,-106.6975,-3.7093,-0.0116,-0.079,-89.4231,-0.0003,-0.0302,3.0491,0.0076,0.0536,-2.1621,-0.0562,-0.3658
40166,-106.6975,-3.7093,-0.0116,-0.079,-89.4231,-0.0003,-0.0302,3.0491,0.0076,0.0536,-2.1621,-0.0562,-0.3658
40186,-106.6985,-3.6085,-0.0113,-0.0829,-89.4207,-0.0004,-0.0321,3.4538,0.0059,-0.0633,13.3177,-0.0543,-0.251
40198,-106.6985,-3.6085,-0.0113,-0.0829,-89.4207,-0.0004,-0.0321,3.4538,0.0059,-0.0633,13.3177,-0.0543,-0.251
40218,-106.6992,-3.5164,-0.0112,-0.0882,-89.4498,-0.0005,-0.0341,3.5959,0.005,-0.0773,5.4962,-0.035,-3.0134
40230,-106.6992,-3.5164,-0.0112,-0.0882,-89.4498,-0.0005,-0.0341,3.5959,0.005,-0.0773,5.4962,-0.035,-3.0134
40250,-106.7002,-3.3953,-0.011,-0.0934,-89.4668,-0.0006,-0.0348,3.8136,0.0039,-0.0215,6.7811,-0.0337,-2.3984
40262,-106.7002,-3.3953,-0.011,-0.0934,-89.4668,-0.0006,-0.0348,3.8136,0.0039,-0.0215,6.7811,-0.0337,-2.3984
40278,-106.701,-3.2943,-0.0109,-0.0989,-89.4803,-0.0008,-0.0387,4.0707,0.0033,-0.1551,10.2487,-0.0259,2.0489
40297,-106.7017,-3.1912,-0.0108,-0.1028,-89.5201,-0.0011,-0.0383,4.2785,0.0027,0.0173,8.4646,-0.0231,-3.0522
40310,-106.7017,-3.1912,-0.0108,-0.1028,-89.5201,-0.0011,-0.0383,4.2785,0.0027,0.0173,8.4646,-0.0231,-3.0522
40326,-106.7027,-3.0842,-0.0107,-0.1051,-89.5075,-0.0009,-0.0392,4.4329,0.0023,-0.0386,6.2955,-0.0173,1.6848
40345,-106.7036,-2.9672,-0.0106,-0.1054,-89.5357,-0.0009,-0.0421,4.5478,0.0019,-0.1112,4.4307,-0.0143,-2.7357
40358,-106.7036,-2.9672,-0.0106,-0.1054,-89.5357,-0.0009,-0.0421,4.5478,0.0019,-0.1112,4.4307,-0.0143,-2.7357
40378,-106.705,-2.8217,-0.0106,-0.1042,-89.5185,-0.0008,-0.0417,4.7359,0.0015,0.0128,6.0174,-0.0135,0.114
40390,-106.705,-2.8217,-0.0106,-0.1042,-89.5185,-0.0008,-0.0417,4.7359,0.0015,0.0128,6.0174,-0.0135,0.114
40406,-106.7062,-2.7026,-0.0106,-0.1048,-89.5039,-0.0006,-0.0441,4.9009,0.0013,-0.0984,6.7395,-0.0102,2.6242
40425,-106.7072,-2.5786,-0.0105,-0.1062,-89.5131,-0.0007,-0.0441,5.1082,0.0011,-0.0002,8.4385,-0.0079,-2.1583
40438,-106.7072,-2.5786,-0.0105,-0.1062,-89.5131,-0.0007,-0.0441,5.1082,0.0011,-0.0002,8.4385,-0.0079,-2.1583
40454,-106.7085,-2.4524,-0.0105,-0.1072,-89.4845,-0.0005,-0.0463,5.2803,0.0009,-0.0919,7.1078,-0.0074,2.3632
40470,-106.7085,-2.4524,-0.0105,-0.1072,-89.4845,-0.0005,-0.0463,5.2803,0.0009,-0.0919,7.1078,-0.0074,2.3632
40486,-106.7101,-2.2802,-0.0105,-0.1079,-89.4753,-0.0003,-0.0484,5.4738,0.0007,-0.0656,6.0663,-0.0062,2.5357
40507,-106.7112,-2.1403,-0.0104,-0.107,-89.4922,-0.0003,-0.0502,5.5968,0.0006,-0.0693,4.8855,-0.0042,-2.4268
40518,-106.7112,-2.1403,-0.0104,-0.107,-89.4922,-0.0003,-0.0502,5.5968,0.0006,-0.0693,4.8855,-0.0042,-2.4268
40534,-106.7112,-2.1403,-0.0104,-0.107,-89.4922,-0.0003,-0.0502,5.5968,0.0006,-0.0693,4.8855,-0.0042,-2.4268
40550,-106.7132,-1.9151,-0.0105,-0.1008,-89.4931,-0.0001,-0.0524,5.7155,0.0004,-0.0555,2.9902,-0.0039,-3.5279
40566,-106.7132,-1.9151,-0.0105,-0.1008,-89.4931,-0.0001,-0.0524,5.7155,0.0004,-0.0555,2.9902,-0.0039,-3.5279
40582,-106.7148,-1.7586,-0.0105,-0.0966,-89.467,0.0001,-0.0529,5.8617,0.0004,-0.0212,5.4197,-0.0026,2.5707
40598,-106.7148,-1.7586,-0.0105,-0.0966,-89.467,0.0001,-0.0529,5.8617,0.0004,-0.0212,5.4197,-0.0026,2.5707
40614,-106.7164,-1.5738,-0.0105,-0.0978,-89.4742,0.0,-0.0554,6.1541,0.0003,-0.0802,9.5476,-0.0025,0.9054
40634,-106.7182,-1.3805,-0.0104,-0.102,-89.4771,0.0,-0.0578,6.3973,0.0002,-0.0793,7.9371,-0.0016,1.2347
40646,-106.7182,-1.3805,-0.0104,-0.102,-89.4771,0.0,-0.0578,6.3973,0.0002,-0.0793,7.9371,-0.0016,1.2347
40666,-106.7201,-1.1657,-0.0104,-0.1056,-89.4782,0.0001,-0.0599,6.6287,0.0002,-0.0631,7.0535,-0.0016,1.5544
40678,-106.7201,-1.1657,-0.0104,-0.1056,-89.4782,0.0001,-0.0599,6.6287,0.0002,-0.0631,7.0535,-0.0016,1.5544
40698,-106.7216,-0.975,-0.0104,-0.1066,-89.4998,-0.0001,-0.0605,6.7812,0.0001,-0.0226,5.3884,-0.0009,-2.6587
40710,-106.7216,-0.975,-0.0104,-0.1066,-89.4998,-0.0001,-0.0605,6.7812,0.0001,-0.0226,5.3884,-0.0009,-2.6587
40730,-106.7237,-0.7483,-0.0104,-0.1062,-89.4991,-0.0002,-0.0624,6.9949,0.0001,-0.057,6.5159,-0.0013,-1.7104
40742,-106.7237,-0.7483,-0.0104,-0.1062,-89.4991,-0.0002,-0.0624,6.9949,0.0001,-0.057,6.5159,-0.0013,-1.7104
40758,-106.7237,-0.7483,-0.0104,-0.1062,-89.4991,-0.0002,-0.0624,6.9949,0.0001,-0.057,6.5159,-0.0013,-1.7104
40774,-106.7266,-0.4329,-0.0104,-0.1057,-89.4816,-0.0001,-0.0648,7.2618,0.0001,-0.0544,6.0533,-0.0009,2.042
40790,-106.7266,-0.4329,-0.0104,-0.1057,-89.4816,-0.0001,-0.0648,7.2618,0.0001,-0.0544,6.0533,-0.0009,2.042
40806,-106.7289,-0.1774,-0.0104,-0.1048,-89.482,-0.0001,-0.0666,7.4695,0.0,-0.0509,6.0089,-0.0009,1.8795
40822,-106.7289,-0.1774,-0.0104,-0.1048,-89.482,-0.0001,-0.0666,7.4695,0.0,-0.0509,6.0089,-0.0009,1.8795
40842,-106.7313,0.0901,-0.0104,-0.1038,-89.482,-0.0001,-0.0684,7.68,0.0001,-0.0524,5.9827,0.0007,1.8753
40854,-106.7313,0.0901,-0.0104,-0.1038,-89.482,-0.0001,-0.0684,7.68,0.0001,-0.0524,5.9827,0.0007,1.8753
40876,-106.733,0.2997,-0.0104,-0.103,-89.4991,-0.0002,-0.0697,7.8366,0.0,-0.0468,5.819,-0.0008,-1.9486
40886,-106.733,0.2997,-0.0104,-0.103,-89.4991,-0.0002,-0.0697,7.8366,0.0,-0.0468,5.819,-0.0008,-1.9486
40907,-106.7352,0.5445,-0.0104,-0.103,-89.4958,-0.0001,-0.0716,8.0533,0.0,-0.0628,7.0523,0.0001,-0.8364
40918,-106.7352,0.5445,-0.0104,-0.103,-89.4958,-0.0001,-0.0716,8.0533,0.0,-0.0628,7.0523,0.0001,-0.8364
40934,-106.7373,0.7646,-0.0104,-0.1038,-89.4843,-0.0001,-0.0731,8.2275,0.0,-0.0546,6.4684,-0.0006,1.5228
40950,-106.7373,0.7646,-0.0104,-0.1038,-89.4843,-0.0001,-0.0731,8.2275,0.0,-0.0546,6.4684,-0.0006,1.5228
40966,-106.7398,1.0547,-0.0104,-0.1035,-89.4844,-0.0,-0.0749,8.43,0.0,-0.0524,5.8314,-0.0003,1.3911
40982,-106.7418,1.2842,-0.0104,-0.1028,-89.4974,-0.0001,-0.0762,8.5816,0.0,-0.05,5.6349,-0.0003,-1.5177
40998,-106.7418,1.2842,-0.0104,-0.1028,-89.4974,-0.0001,-0.0762,8.5816,0.0,-0.05,5.6349,-0.0003,-1.5177
41019,-106.744,1.5256,-0.0104,-0.1015,-89.4821,0.0,-0.0776,8.7287,0.0,-0.0503,5.2911,0.0006,1.7084
41030,-106.744,1.5256,-0.0104,-0.1015,-89.4821,0.0,-0.0776,8.7287,0.0,-0.0503,5.2911,0.0006,1.7084
41049,-106.7465,1.8051,-0.0104,-0.1004,-89.4849,-0.0,-0.0794,8.922,0.0,-0.0566,6.1176,-0.0004,0.7123
41062,-106.7465,1.8051,-0.0104,-0.1004,-89.4849,-0.0,-0.0794,8.922,0.0,-0.0566,6.1176,-0.0004,0.7123
41078,-106.7485,2.0365,-0.0104,-0.1001,-89.4914,-0.0,-0.081,9.0787,-0.0,-0.0618,6.1108,-0.0005,-0.8025
41094,-106.7485,2.0365,-0.0104,-0.1001,-89.4914,-0.0,-0.081,9.0787,-0.0,-0.0618,6.1108,-0.0005,-0.8025
41110,-106.751,2.3193,-0.0104,-0.0999,-89.4903,0.0,-0.0827,9.2622,0.0,-0.0536,5.9642,0.0003,-0.4384
41131,-106.7532,2.5614,-0.0104,-0.0995,-89.4858,0.0,-0.0839,9.4101,0.0,-0.0487,5.723,-0.0002,0.5967
41142,-106.7532,2.5614,-0.0104,-0.0995,-89.4858,0.0,-0.0839,9.4101,0.0,-0.0487,5.723,-0.0002,0.5967
41158,-106.7553,2.794,-0.0104,-0.0989,-89.4905,0.0,-0.0852,9.5434,0.0,-0.0528,5.4422,-0.0,-0.5448
41174,-106.7553,2.794,-0.0104,-0.0989,-89.4905,0.0,-0.0852,9.5434,0.0,-0.0528,5.4422,-0.0,-0.5448
41190,-106.758,3.0953,-0.0104,-0.0977,-89.4899,0.0,-0.0867,9.7109,0.0,-0.0476,5.3634,0.0001,-0.3463
41210,-106.7603,3.3526,-0.0104,-0.0965,-89.4861,0.0,-0.0879,9.8462,0.0,-0.044,5.154,-0.0001,0.4969
41222,-106.7603,3.3526,-0.0104,-0.0965,-89.4861,0.0,-0.0879,9.8462,0.0,-0.044,5.154,-0.0001,0.4969
41243,-106.7631,3.6695,-0.0105,-0.0948,-89.4867,0.0,-0.0893,10.0047,0.0,-0.0458,4.9753,0.0003,0.3424
41254,-106.7631,3.6695,-0.0105,-0.0948,-89.4867,0.0,-0.0893,10.0047,0.0,-0.0458,4.9753,0.0003,0.3424
41275,-106.7653,3.9159,-0.0105,-0.0933,-89.4893,0.0,-0.0904,10.124,0.0,-0.0462,4.879,-0.0004,-0.3033
41286,-106.7653,3.9159,-0.0105,-0.0933,-89.4893,0.0,-0.0904,10.124,0.0,-0.0462,4.879,-0.0004,-0.3033
41302,-106.7653,3.9159,-0.0105,-0.0933,-89.4893,0.0,-0.0904,10.124,0.0,-0.0462,4.879,-0.0004,-0.3033
41318,-106.7696,4.397,-0.0105,-0.0901,-89.484,0.0,-0.0923,10.3378,-0.0,-0.0403,4.559,-0.0001,0.764
41334,-106.7696,4.397,-0.0105,-0.0901,-89.484,0.0,-0.0923,10.3378,-0.0,-0.0403,4.559,-0.0001,0.764
41350,-106.7726,4.7331,-0.0105,-0.0877,-89.4853,0.0,-0.0937,10.4811,0.0,-0.0425,4.4422,0.0002,0.3715
41366,-106.7726,4.7331,-0.0105,-0.0877,-89.4853,0.0,-0.0937,10.4811,0.0,-0.0425,4.4422,0.0002,0.3715
41382,-106.7751,5.0161,-0.0105,-0.0858,-89.4891,0.0,-0.0949,10.5991,0.0,-0.0428,4.4046,-0.0,-0.4599
41401,-106.7776,5.2875,-0.0105,-0.0841,-89.4856,0.0,-0.0958,10.7084,0.0,-0.0366,4.2962,0.0002,0.3929
41414,-106.7776,5.2875,-0.0105,-0.0841,-89.4856,0.0,-0.0958,10.7084,0.0,-0.0366,4.2962,0.0002,0.3929
41441,-106.7802,5.5808,-0.0106,-0.0823,-89.4897,0.0,-0.0969,10.8227,0.0,-0.0397,4.2023,-0.0003,-0.4839
41446,-106.7802,5.5808,-0.0106,-0.0823,-89.4897,0.0,-0.0969,10.8227,0.0,-0.0397,4.2023,-0.0003,-0.4839
41462,-106.7831,5.9015,-0.0106,-0.0802,-89.483,0.0,-0.0979,10.9398,0.0,-0.0336,3.9824,0.0,0.7937
41481,-106.7854,6.1657,-0.0106,-0.0786,-89.4868,0.0,-0.0988,11.0361,0.0,-0.0413,4.0083,-0.0001,-0.3354
41494,-106.7854,6.1657,-0.0106,-0.0786,-89.4868,0.0,-0.0988,11.0361,0.0,-0.0413,4.0083,-0.0001,-0.3354
41510,-106.788,6.4483,-0.0106,-0.0772,-89.4844,0.0001,-0.0998,11.1397,0.0,-0.0381,4.074,0.0001,0.2563
41529,-106.7905,6.7246,-0.0106,-0.0759,-89.486,0.0001,-0.1008,11.2384,0.0,-0.0395,4.0036,0.0002,-0.1585
41542,-106.7905,6.7246,-0.0106,-0.0759,-89.486,0.0001,-0.1008,11.2384,0.0,-0.0395,4.0036,0.0002,-0.1585
41558,-106.7905,6.7246,-0.0106,-0.0759,-89.486,0.0001,-0.1008,11.2384,0.0,-0.0395,4.0036,0.0002,-0.1585
41574,-106.794,7.1179,-0.0106,-0.0741,-89.4858,0.0001,-0.1021,11.3745,-0.0,-0.0369,3.9158,-0.0003,-0.1295
41593,-106.7971,7.4638,-0.0106,-0.0727,-89.4855,0.0001,-0.1031,11.4898,0.0,-0.035,3.8163,0.0005,-0.0287
41606,-106.7971,7.4638,-0.0106,-0.0727,-89.4855,0.0001,-0.1031,11.4898,0.0,-0.035,3.8163,0.0005,-0.0287
41625,-106.7998,7.7621,-0.0106,-0.0715,-89.4853,0.0001,-0.104,11.5861,-0.0,-0.034,3.7292,-0.0006,0.022
41638,-106.7998,7.7621,-0.0106,-0.0715,-89.4853,0.0001,-0.104,11.5861,-0.0,-0.034,3.7292,-0.0006,0.022
41654,-106.8027,8.0942,-0.0106,-0.0701,-89.4856,0.0001,-0.105,11.69,-0.0,-0.0334,3.647,0.0002,-0.029
41670,-106.8054,8.3881,-0.0106,-0.0689,-89.4854,0.0,-0.1058,11.7793,0.0,-0.0323,3.5698,0.0003,0.0168
41686,-106.8054,8.3881,-0.0106,-0.0689,-89.4854,0.0,-0.1058,11.7793,0.0,-0.0323,3.5698,0.0003,0.0168
41705,-106.8084,8.7247,-0.0107,-0.0676,-89.4856,0.0,-0.1067,11.8787,-0.0,-0.0317,3.4987,-0.0003,-0.0205
41718,-106.8084,8.7247,-0.0107,-0.0676,-89.4856,0.0,-0.1067,11.8787,-0.0,-0.0317,3.4987,-0.0003,-0.0205
41738,-106.8115,9.0651,-0.0107,-0.0663,-89.4853,0.0,-0.1075,11.9763,-0.0,-0.0307,3.4249,-0.0003,0.0249
41750,-106.8115,9.0651,-0.0107,-0.0663,-89.4853,0.0,-0.1075,11.9763,-0.0,-0.0307,3.4249,-0.0003,0.0249
41770,-106.8152,9.4797,-0.0107,-0.0647,-89.4854,0.0,-0.1086,12.0915,0.0,-0.0302,3.3474,0.0003,0.0136
41782,-106.8152,9.4797,-0.0107,-0.0647,-89.4854,0.0,-0.1086,12.0915,0.0,-0.0302,3.3474,0.0003,0.0136
41798,-106.8179,9.7825,-0.0107,-0.0636,-89.4855,0.0,-0.1093,12.1732,0.0,-0.0296,3.2776,0.0003,-0.0066
41814,-106.8179,9.7825,-0.0107,-0.0636,-89.4855,0.0,-0.1093,12.1732,0.0,-0.0296,3.2776,0.0003,-0.0066
41830,-106.8215,10.1876,-0.0107,-0.0622,-89.4855,0.0,-0.1103,12.2795,-0.0,-0.0289,3.2117,-0.0004,-0.0023
41846,-106.8215,10.1876,-0.0107,-0.0622,-89.4855,0.0,-0.1103,12.2795,-0.0,-0.0289,3.2117,-0.0004,-0.0023
41862,-106.8251,10.5819,-0.0107,-0.0608,-89.4855,0.0,-0.1112,12.3798,0.0,-0.0282,3.1401,0.0001,-0.0006
41881,-106.8279,10.9021,-0.0107,-0.0597,-89.4855,0.0,-0.1119,12.4591,0.0,-0.0277,3.079,0.0001,0.0003
41894,-106.8279,10.9021,-0.0107,-0.0597,-89.4855,0.0,-0.1119,12.4591,0.0,-0.0277,3.079,0.0001,0.0003
41914,-106.8308,11.2201,-0.0107,-0.0587,-89.4855,0.0,-0.1126,12.5361,0.0,-0.0272,3.0257,0.0,-0.0002
41926,-106.8335,11.5243,-0.0107,-0.0577,-89.4855,0.0,-0.1132,12.608,0.0,-0.0268,2.9753,-0.0002,0.0
41942,-106.8335,11.5243,-0.0107,-0.0577,-89.4855,0.0,-0.1132,12.608,0.0,-0.0268,2.9753,-0.0002,0.0
41961,-106.837,11.9132,-0.0107,-0.0565,-89.4855,0.0,-0.114,12.6938,0.0,-0.0251,2.7949,0.0003,-0.0
41974,-106.837,11.9132,-0.0107,-0.0565,-89.4855,0.0,-0.114,12.6938,0.0,-0.0251,2.7949,0.0003,-0.0
41995,-106.84,12.2447,-0.0108,-0.0551,-89.4855,0.0,-0.1146,12.7591,0.0,-0.0225,2.5071,-0.0,-0.0
42006,-106.84,12.2447,-0.0108,-0.0551,-89.4855,0.0,-0.1146,12.7591,0.0,-0.0225,2.5071,-0.0,-0.0
42022,-106.843,12.5754,-0.0108,-0.0535,-89.4855,0.0,-0.1151,12.8176,0.0,-0.0204,2.265,-0.0001,-0.0
42038,-106.8457,12.8851,-0.0108,-0.0518,-89.4854,0.0,-0.1156,12.8669,0.0,-0.0184,2.0461,-0.0001,-0.0
42054,-106.8457,12.8851,-0.0108,-0.0518,-89.4854,0.0,-0.1156,12.8669,0.0,-0.0184,2.0461,-0.0001,-0.0
42074,-106.8493,13.2848,-0.0108,-0.0492,-89.4854,0.0,-0.1161,12.9236,-0.0,-0.0164,1.8301,-0.0004,-0.0
42086,-106.8493,13.2848,-0.0108,-0.0492,-89.4854,0.0,-0.1161,12.9236,-0.0,-0.0164,1.8301,-0.0004,-0.0
42102,-106.853,13.6896,-0.0108,-0.0464,-89.4854,0.0,-0.1165,12.9741,-0.0,-0.0145,1.6174,-0.0,-0.0
42118,-106.853,13.6896,-0.0108,-0.0464,-89.4854,0.0,-0.1165,12.9741,-0.0,-0.0145,1.6174,-0.0,-0.0
42134,-106.856,14.0317,-0.0108,-0.0439,-89.4854,0.0,-0.1169,13.0124,0.0,-0.013,1.4535,0.0008,-0.0
42154,-106.8589,14.3524,-0.0109,-0.0416,-89.4854,0.0,-0.1171,13.0446,0.0,-0.0118,1.3094,0.0001,-0.0
42185,-106.8624,14.7417,-0.0109,-0.0386,-89.4854,0.0,-0.1175,13.0802,0.0,-0.0108,1.1944,-0.0002,-0.0
42198,-106.8624,14.7417,-0.0109,-0.0386,-89.4854,0.0,-0.1175,13.0802,0.0,-0.0108,1.1944,-0.0002,-0.0
42214,-106.8673,15.1124,-0.0109,-0.0357,-89.5566,0.0117,-0.2404,13.099,0.0001,-4.3415,0.6649,0.0021,-4.2208
42233,-106.8751,15.4403,-0.0109,-0.0324,-89.7708,0.0372,-0.4309,13.0926,0.0003,-7.6086,-0.2577,0.0102,-10.9365
42246,-106.8751,15.4403,-0.0109,-0.0324,-89.7708,0.0372,-0.4309,13.0926,0.0003,-7.6086,-0.2577,0.0102,-10.9365
42267,-106.8898,15.8255,-0.0109,-0.0268,-90.2975,0.0834,-0.7156,13.0561,0.0007,-9.6595,-1.2385,0.0138,-21.5294
42278,-106.8898,15.8255,-0.0109,-0.0268,-90.2975,0.0834,-0.7156,13.0561,0.0007,-9.6595,-1.2385,0.0138,-21.5294
42294,-106.9064,16.1425,-0.011,-0.0211,-90.9828,0.1236,-0.9637,13.0078,0.001,-10.1911,-1.9828,0.0114,-31.5618
42310,-106.9064,16.1425,-0.011,-0.0211,-90.9828,0.1236,-0.9637,13.0078,0.001,-10.1911,-1.9828,0.0114,-31.5618
42329,-106.9377,16.5931,-0.011,-0.0106,-92.4334,0.1814,-1.3247,12.9125,0.0012,-10.367,-2.7364,0.007,-47.9158
42342,-106.9656,16.9228,-0.011,-0.0019,-93.8868,0.2175,-1.5717,12.8314,0.0013,-9.6155,-3.1561,0.0007,-60.9683
42358,-106.9656,16.9228,-0.011,-0.0019,-93.8868,0.2175,-1.5717,12.8314,0.0013,-9.6155,-3.1561,0.0007,-60.9683
42379,-107.0036,17.3174,-0.0111,0.0089,-96.1,0.2493,-1.8352,12.7272,0.0011,-8.4964,-3.36,-0.0054,-77.6938
42390,-107.0036,17.3174,-0.0111,0.0089,-96.1,0.2493,-1.8352,12.7272,0.0011,-8.4964,-3.36,-0.0054,-77.6938
42406,-107.0419,17.6777,-0.0111,0.0188,-98.637,0.2676,-2.0404,12.6285,0.0009,-7.1621,-3.4448,-0.0079,-94.0304
42422,-107.0419,17.6777,-0.0111,0.0188,-98.637,0.2676,-2.0404,12.6285,0.0009,-7.1621,-3.4448,-0.0079,-94.0304
42438,-107.0763,17.9878,-0.0111,0.026,-101.2206,0.2718,-2.1721,12.5494,0.0006,-5.284,-3.1777,-0.0112,-108.53
42454,-107.0763,17.9878,-0.0111,0.026,-101.2206,0.2718,-2.1721,12.5494,0.0006,-5.284,-3.1777,-0.0112,-108.53
42470,-107.1218,18.3924,-0.0112,0.0329,-105.1977,0.2619,-2.2812,12.4543,0.0002,-3.3157,-2.886,-0.013,-128.171
42486,-107.1554,18.6987,-0.0112,0.0355,-108.6938,0.2427,-2.3077,12.3929,-0.0002,-1.0466,-2.4319,-0.0132,-143.3735
42502,-107.1554,18.6987,-0.0112,0.0355,-108.6938,0.2427,-2.3077,12.3929,-0.0002,-1.0466,-2.4319,-0.0132,-143.3735
42518,-107.1554,18.6987,-0.0112,0.0355,-108.6938,0.2427,-2.3077,12.3929,-0.0002,-1.0466,-2.4319,-0.0132,-143.3735
42534,-107.1973,19.1121,-0.0112,0.0343,-114.1167,0.2022,-2.2641,12.3233,-0.0006,1.2593,-2.0081,-0.0131,-164.3742
42553,-107.2267,19.4484,-0.0112,0.0279,-119.1544,0.1563,-2.1265,12.2902,-0.001,4.7928,-1.1517,-0.0115,-180.7053
42566,-107.2267,19.4484,-0.0112,0.0279,-119.1544,0.1563,-2.1265,12.2902,-0.001,4.7928,-1.1517,-0.0115,-180.7053
42582,-107.2267,19.4484,-0.0112,0.0279,-119.1544,0.1563,-2.1265,12.2902,-0.001,4.7928,-1.1517,-0.0115,-180.7053
42598,-107.251,19.8499,-0.0111,0.0092,-125.755,0.0809,-1.7197,12.3032,-0.0013,11.703,0.3724,-0.011,-194.692
42614,-107.2579,20.185,-0.0109,-0.0176,-131.6592,-0.0008,-1.2284,12.3095,-0.0018,16.6875,0.2145,-0.0154,-203.1785
42630,-107.2579,20.185,-0.0109,-0.0176,-131.6592,-0.0008,-1.2284,12.3095,-0.0018,16.6875,0.2145,-0.0154,-203.1785
42646,-107.2509,20.5036,-0.0107,-0.0496,-137.5504,-0.0837,-0.6637,12.2814,-0.0004,19.879,-0.9873,0.0486,-209.314
42662,-107.2509,20.5036,-0.0107,-0.0496,-137.5504,-0.0837,-0.6637,12.2814,-0.0004,19.879,-0.9873,0.0486,-209.314
42678,-107.2323,20.7879,-0.0105,-0.0812,-143.0211,-0.1576,-0.0995,12.2117,0.0008,21.8846,-2.7052,0.0462,-213.5536
42694,-107.2323,20.7879,-0.0105,-0.0812,-143.0211,-0.1576,-0.0995,12.2117,0.0008,21.8846,-2.7052,0.0462,-213.5536
42710,-107.1948,21.116,-0.0102,-0.1193,-149.5894,-0.2408,0.6047,12.0626,0.0016,23.162,-4.9039,0.026,-217.4559
42726,-107.1441,21.4113,-0.0099,-0.1555,-155.777,-0.3176,1.275,11.8555,0.002,23.7825,-7.3471,0.0147,-220.5076
42742,-107.1441,21.4113,-0.0099,-0.1555,-155.777,-0.3176,1.275,11.8555,0.002,23.7825,-7.3471,0.0147,-220.5076
42761,-107.0755,21.7092,-0.0095,-0.191,-162.3193,-0.3903,1.9743,11.5635,0.0022,23.7674,-9.9276,0.0058,-223.2872
42793,-106.9833,22.0229,-0.0092,-0.2251,-169.6087,-0.4582,2.7217,11.1508,0.0021,23.0858,-12.7459,-0.0031,-226.3021
42806,-106.9833,22.0229,-0.0092,-0.2251,-169.6087,-0.4582,2.7217,11.1508,0.0021,23.0858,-12.7459,-0.0031,-226.3021
42825,-106.8773,22.3152,-0.0089,-0.2523,-176.8951,-0.5265,3.3234,10.5507,0.0021,18.7703,-18.7214,0.0019,-227.8713
42838,-106.8773,22.3152,-0.0089,-0.2523,-176.8951,-0.5265,3.3234,10.5507,0.0021,18.7703,-18.7214,0.0019,-227.8713
42854,-106.8773,22.3152,-0.0089,-0.2523,-176.8951,-0.5265,3.3234,10.5507,0.0021,18.7703,-18.7214,0.0019,-227.8713
42870,-106.7285,22.6583,-0.0087,-0.2733,173.5991,-0.6288,3.8219,9.5563,0.0022,12.012,-23.9614,0.0022,-229.6102
42886,-106.7285,22.6583,-0.0087,-0.2733,173.5991,-0.6288,3.8219,9.5563,0.0022,12.012,-23.9614,0.0022,-229.6102
42906,-106.6117,22.8941,-0.0086,-0.2805,166.2214,-0.7105,4.0091,8.7001,0.0021,5.8306,-26.6682,-0.002,-229.7535
42918,-106.6117,22.8941,-0.0086,-0.2805,166.2214,-0.7105,4.0091,8.7001,0.0021,5.8306,-26.6682,-0.002,-229.7535
42934,-106.5236,23.0702,-0.0086,-0.2717,160.3335,-0.7698,3.6983,8.1633,0.002,-11.8531,-20.4736,-0.0052,-219.505
42955,-106.461,23.2161,-0.0088,-0.2483,155.5941,-0.7985,3.2448,7.8397,-0.0012,-20.229,-14.431,-0.1424,-207.4615
42966,-106.4085,23.3669,-0.009,-0.2135,150.785,-0.8285,2.7154,7.5048,-0.001,-22.1187,-13.994,0.0074,-198.1703
42982,-106.4085,23.3669,-0.009,-0.2135,150.785,-0.8285,2.7154,7.5048,-0.001,-22.1187,-13.994,0.0074,-198.1703
43001,-106.3664,23.5375,-0.0093,-0.1634,145.3489,-0.8734,2.0593,7.1516,0.0026,-23.3089,-12.5496,0.1291,-191.0712
43014,-106.3664,23.5375,-0.0093,-0.1634,145.3489,-0.8734,2.0593,7.1516,0.0026,-23.3089,-12.5496,0.1291,-191.0712
43033,-106.3457,23.7084,-0.0096,-0.1129,140.0165,-0.9072,1.33,6.9713,0.0018,-25.3512,-6.2645,-0.0287,-181.5813
43046,-106.3447,23.8517,-0.0099,-0.0709,135.8963,-0.9159,0.7183,6.9879,0.0011,-25.8082,0.7006,-0.0283,-169.6866
43062,-106.3447,23.8517,-0.0099,-0.0709,135.8963,-0.9159,0.7183,6.9879,0.0011,-25.8082,0.7006,-0.0283,-169.6866
43081,-106.363,24.0343,-0.0103,-0.0146,131.2914,-0.9045,-0.0043,7.1382,0.0004,-24.9226,5.1812,-0.0244,-153.3033
43094,-106.363,24.0343,-0.0103,-0.0146,131.2914,-0.9045,-0.0043,7.1382,0.0004,-24.9226,5.1812,-0.0244,-153.3033
43113,-106.4011,24.2363,-0.0107,0.0394,126.9927,-0.8769,-0.6844,7.3809,-0.0002,-22.4125,7.9987,-0.0215,-134.4947
43126,-106.4011,24.2363,-0.0107,0.0394,126.9927,-0.8769,-0.6844,7.3809,-0.0002,-22.4125,7.9987,-0.0215,-134.4947
43142,-106.4467,24.42,-0.011,0.0825,123.7612,-0.8374,-1.1471,7.6479,-0.0007,-17.7679,10.2551,-0.0169,-119.2512
43158,-106.4467,24.42,-0.011,0.0825,123.7612,-0.8374,-1.1471,7.6479,-0.0007,-17.7679,10.2551,-0.0169,-119.2512
43174,-106.5072,24.6403,-0.0114,0.1228,120.4884,-0.7655,-1.445,7.9725,-0.0011,-10.0818,10.9879,-0.0158,-107.1305
43195,-106.5634,24.8446,-0.0116,0.1475,117.8034,-0.6818,-1.5211,8.2454,-0.0016,-2.913,10.4348,-0.017,-100.9053
43206,-106.5634,24.8446,-0.0116,0.1475,117.8034,-0.6818,-1.5211,8.2454,-0.0016,-2.913,10.4348,-0.017,-100.9053
43222,-106.5634,24.8446,-0.0116,0.1475,117.8034,-0.6818,-1.5211,8.2454,-0.0016,-2.913,10.4348,-0.017,-100.9053
43238,-106.6376,25.1337,-0.0118,0.1669,114.3244,-0.5403,-1.4128,8.5793,-0.0023,3.061,9.4289,-0.0201,-97.2454
43257,-106.6897,25.3644,-0.0119,0.1733,111.7038,-0.4213,-1.2216,8.8112,-0.0028,7.0269,8.5263,-0.0183,-95.9102
43270,-106.6897,25.3644,-0.0119,0.1733,111.7038,-0.4213,-1.2216,8.8112,-0.0028,7.0269,8.5263,-0.0183,-95.9102
43302,-106.7368,25.6077,-0.012,0.1741,109.0281,-0.2999,-0.9705,9.0068,-0.0032,8.9943,7.0065,-0.0135,-96.006
43323,-106.788,25.9185,-0.0121,0.1723,105.8727,-0.1819,-0.8394,9.2563,-0.0033,3.7867,7.2055,-0.0027,-87.6311
43334,-106.788,25.9185,-0.0121,0.1723,105.8727,-0.1819,-0.8394,9.2563,-0.0033,3.7867,7.2055,-0.0027,-87.6311
43353,-106.8275,26.1756,-0.0122,0.1692,103.6985,-0.1306,-0.9086,9.4186,-0.0029,-2.4836,5.8259,0.0126,-72.6951
43366,-106.8275,26.1756,-0.0122,0.1692,103.6985,-0.1306,-0.9086,9.4186,-0.0029,-2.4836,5.8259,0.0126,-72.6951
43382,-106.8687,26.4378,-0.0122,0.1628,101.9592,-0.1185,-1.1059,9.5103,-0.0022,-7.0628,3.2817,0.0252,-56.6177
43398,-106.8687,26.4378,-0.0122,0.1628,101.9592,-0.1185,-1.1059,9.5103,-0.0022,-7.0628,3.2817,0.0252,-56.6177
43417,-106.9319,26.8135,-0.0122,0.1475,100.3458,-0.1388,-1.3929,9.5766,-0.0008,-7.2506,1.675,0.0343,-33.6713
43430,-106.9319,26.8135,-0.0122,0.1475,100.3458,-0.1388,-1.3929,9.5766,-0.0008,-7.2506,1.675,0.0343,-33.6713
43449,-106.9837,27.1151,-0.0121,0.1336,99.5608,-0.1467,-1.4983,9.6378,-0.0002,-3.3454,1.9442,0.0213,-21.1763
43462,-106.9837,27.1151,-0.0121,0.1336,99.5608,-0.1467,-1.4983,9.6378,-0.0002,-3.3454,1.9442,0.0213,-21.1763
43478,-107.0299,27.3876,-0.012,0.1206,99.1219,-0.1418,-1.5344,9.6861,-0.0,-1.2803,1.7097,0.006,-12.777
43494,-107.0299,27.3876,-0.012,0.1206,99.1219,-0.1418,-1.5344,9.6861,-0.0,-1.2803,1.7097,0.006,-12.777
43510,-107.0804,27.6917,-0.0119,0.1071,98.8009,-0.1272,-1.5398,9.7375,-0.0,-0.1707,1.6394,-0.001,-7.9418
43526,-107.0804,27.6917,-0.0119,0.1071,98.8009,-0.1272,-1.5398,9.7375,-0.0,-0.1707,1.6394,-0.001,-7.9418
43542,-107.1323,28.0176,-0.0112,0.1274,98.5888,-0.0014,-1.5318,9.7736,0.0442,0.24,1.0821,1.3252,-4.5933
43558,-107.1323,28.0176,-0.0112,0.1274,98.5888,-0.0014,-1.5318,9.7736,0.0442,0.24,1.0821,1.3252,-4.5933
43574,-107.1752,28.2892,-0.0107,0.1306,98.4718,0.0407,-1.5221,9.8167,0.0025,0.3467,1.5548,-1.5014,-3.6109
43590,-107.1752,28.2892,-0.0107,0.1306,98.4718,0.0407,-1.5221,9.8167,0.0025,0.3467,1.5548,-1.5014,-3.6109
43606,-107.2223,28.59,-0.011,0.099,98.3934,-0.015,-1.4997,9.8452,-0.014,0.7329,0.9283,-0.5396,-2.3334
43625,-107.2632,28.8582,-0.0112,0.08,98.3524,-0.029,-1.4858,9.8696,-0.0095,0.5107,0.8972,0.1671,-0.9509
43638,-107.2632,28.8582,-0.0112,0.08,98.3524,-0.029,-1.4858,9.8696,-0.0095,0.5107,0.8972,0.1671,-0.9509
43657,-107.3117,29.1809,-0.0113,0.0644,98.3174,-0.0297,-1.4754,9.8966,-0.0057,0.3176,0.8283,0.1145,-0.5011
43670,-107.3117,29.1809,-0.0113,0.0644,98.3174,-0.0297,-1.4754,9.8966,-0.0057,0.3176,0.8283,0.1145,-0.5011
43689,-107.358,29.4921,-0.0113,0.0538,98.296,-0.0253,-1.4688,9.9221,-0.0036,0.2102,0.8097,0.0675,-0.2534
43702,-107.358,29.4921,-0.0113,0.0538,98.296,-0.0253,-1.4688,9.9221,-0.0036,0.2102,0.8097,0.0675,-0.2534
43721,-107.3986,29.7662,-0.0114,0.0464,98.28,-0.0207,-1.4644,9.9386,-0.0025,0.1585,0.5988,0.0413,-0.9261
43734,-107.3986,29.7662,-0.0114,0.0464,98.28,-0.0207,-1.4644,9.9386,-0.0025,0.1585,0.5988,0.0413,-0.9261
43750,-107.4383,30.0363,-0.0114,0.0404,98.2775,-0.0166,-1.4612,9.9506,-0.0016,0.1205,0.4425,0.0301,0.3365
43769,-107.4799,30.3201,-0.0114,0.035,98.2655,-0.013,-1.4587,9.9607,-0.0011,0.0874,0.3557,0.02,-0.8661
43782,-107.4799,30.3201,-0.0114,0.035,98.2655,-0.013,-1.4587,9.9607,-0.0011,0.0874,0.3557,0.02,-0.8661
43798,-107.4799,30.3201,-0.0114,0.035,98.2655,-0.013,-1.4587,9.9607,-0.0011,0.0874,0.3557,0.02,-0.8661
43814,-107.5272,30.6453,-0.0107,-0.0049,98.2612,0.0354,-1.4593,9.9802,0.0214,-0.0182,0.5957,0.6886,-0.4876
43833,-107.5678,30.9258,-0.0096,-0.0592,98.2647,0.0957,-1.4631,9.9988,0.0276,-0.135,0.6637,0.2215,0.7224
43846,-107.5678,30.9258,-0.0096,-0.0592,98.2647,0.0957,-1.4631,9.9988,0.0276,-0.135,0.6637,0.2215,0.7224
43865,-107.6159,31.2526,-0.0102,-0.0261,98.2657,0.0418,-1.4598,10.0207,-0.0088,0.0983,0.671,-1.1174,0.6308
43878,-107.6159,31.2526,-0.0102,-0.0261,98.2657,0.0418,-1.4598,10.0207,-0.0088,0.0983,0.671,-1.1174,0.6308
43900,-107.6595,31.5516,-0.0105,-0.0098,98.2589,0.0219,-1.4579,10.0292,-0.0066,0.0655,0.2843,0.0745,-0.9583
43910,-107.6595,31.5516,-0.0105,-0.0098,98.2589,0.0219,-1.4579,10.0292,-0.0066,0.0655,0.2843,0.0745,-0.9583
43929,-107.7118,31.9111,-0.0108,-0.0002,98.2608,0.0126,-1.4592,10.047,-0.0043,-0.0351,0.496,0.0647,-0.5664
43942,-107.7118,31.9111,-0.0108,-0.0002,98.2608,0.0126,-1.4592,10.047,-0.0043,-0.0351,0.496,0.0647,-0.5664
43958,-107.7118,31.9111,-0.0108,-0.0002,98.2608,0.0126,-1.4592,10.047,-0.0043,-0.0351,0.496,0.0647,-0.5664
43974,-107.7721,32.3267,-0.011,0.0049,98.2645,0.0082,-1.4625,10.0725,-0.0026,-0.08,0.619,0.0412,0.3732
43990,-107.7721,32.3267,-0.011,0.0049,98.2645,0.0082,-1.4625,10.0725,-0.0026,-0.08,0.619,0.0412,0.3732
44006,-107.8142,32.6159,-0.011,0.0067,98.2592,0.0065,-1.4642,10.0844,-0.0019,-0.0594,0.4133,0.0241,-0.6421
44022,-107.8555,32.9006,-0.0111,0.0075,98.2653,0.0054,-1.4654,10.0932,-0.0014,-0.0427,0.3126,0.0199,0.6474
44038,-107.8555,32.9006,-0.0111,0.0075,98.2653,0.0054,-1.4654,10.0932,-0.0014,-0.0427,0.3126,0.0199,0.6474
44054,-107.8555,32.9006,-0.0111,0.0075,98.2653,0.0054,-1.4654,10.0932,-0.0014,-0.0427,0.3126,0.0199,0.6474
44070,-107.9067,33.2535,-0.0111,0.0079,98.2648,0.0044,-1.468,10.1114,-0.0009,-0.077,0.5211,0.0131,0.4871
44086,-107.9486,33.5417,-0.0112,0.0081,98.2591,0.0037,-1.4697,10.1226,-0.0007,-0.0594,0.3914,0.0079,-0.6513
44102,-107.9486,33.5417,-0.0112,0.0081,98.2591,0.0037,-1.4697,10.1226,-0.0007,-0.0594,0.3914,0.0079,-0.6513
44121,-107.9934,33.8501,-0.0112,0.0084,98.26,0.0031,-1.4729,10.1447,-0.0005,-0.1036,0.7287,0.007,-0.2446
44134,-107.9934,33.8501,-0.0112,0.0084,98.26,0.0031,-1.4729,10.1447,-0.0005,-0.1036,0.7287,0.007,-0.2446
44154,-108.0323,34.1179,-0.0112,0.0088,98.263,0.0027,-1.4752,10.1608,-0.0003,-0.0867,0.6108,0.0045,0.3946
44166,-108.0323,34.1179,-0.0112,0.0088,98.263,0.0027,-1.4752,10.1608,-0.0003,-0.0867,0.6108,0.0045,0.3946
44185,-108.0859,34.4873,-0.0112,0.009,98.2634,0.0022,-1.4774,10.1765,-0.0002,-0.0619,0.4319,0.0024,0.5398
44198,-108.0859,34.4873,-0.0112,0.009,98.2634,0.0022,-1.4774,10.1765,-0.0002,-0.0619,0.4319,0.0024,0.5398
44217,-108.136,34.8321,-0.0112,0.009,98.263,0.0018,-1.48,10.194,-0.0002,-0.0755,0.5158,0.0021,0.4078
44230,-108.136,34.8321,-0.0112,0.009,98.263,0.0018,-1.48,10.194,-0.0002,-0.0755,0.5158,0.0021,0.4078
44253,-108.1858,35.1751,-0.0112,0.0091,98.2628,0.0015,-1.4826,10.2121,-0.0001,-0.0789,0.5405,0.0017,0.3775
44262,-108.1858,35.1751,-0.0112,0.0091,98.2628,0.0015,-1.4826,10.2121,-0.0001,-0.0789,0.5405,0.0017,0.3775
44278,-108.1858,35.1751,-0.0112,0.0091,98.2628,0.0015,-1.4826,10.2121,-0.0001,-0.0789,0.5405,0.0017,0.3775
44294,-108.2365,35.5247,-0.0112,0.0092,98.2629,0.0012,-1.4852,10.2295,-0.0001,-0.0737,0.5067,0.0009,0.4016
44313,-108.2752,35.7908,-0.0112,0.0091,98.2593,0.0011,-1.487,10.2417,-0.0001,-0.0701,0.4715,0.0013,-0.4282
44326,-108.2752,35.7908,-0.0112,0.0091,98.2593,0.0011,-1.487,10.2417,-0.0001,-0.0701,0.4715,0.0013,-0.4282
44345,-108.3311,36.1759,-0.0112,0.0089,98.2586,0.0009,-1.4888,10.2539,-0.0,-0.0481,0.3248,0.0003,-0.6084
44358,-108.3311,36.1759,-0.0112,0.0089,98.2586,0.0009,-1.4888,10.2539,-0.0,-0.0481,0.3248,0.0003,-0.6084
44374,-108.3311,36.1759,-0.0112,0.0089,98.2586,0.0009,-1.4888,10.2539,-0.0,-0.0481,0.3248,0.0003,-0.6084
44390,-108.3823,36.5283,-0.0112,0.0087,98.2592,0.0007,-1.4911,10.2701,-0.0,-0.0678,0.4707,0.0003,-0.4279
44413,-108.4263,36.8321,-0.0112,0.0085,98.265,0.0006,-1.4923,10.2786,-0.0,-0.0406,0.2869,-0.0001,0.6964
44422,-108.4263,36.8321,-0.0112,0.0085,98.265,0.0006,-1.4923,10.2786,-0.0,-0.0406,0.2869,-0.0001,0.6964
44441,-108.465,37.0983,-0.0112,0.0082,98.2606,0.0005,-1.4941,10.2904,-0.0,-0.0704,0.4554,0.0005,-0.45
44454,-108.465,37.0983,-0.0112,0.0082,98.2606,0.0005,-1.4941,10.2904,-0.0,-0.0704,0.4554,0.0005,-0.45
44473,-108.5084,37.397,-0.0112,0.0081,98.2662,0.0004,-1.4956,10.3002,-0.0,-0.0503,0.3409,-0.0,0.6548
44486,-108.5084,37.397,-0.0112,0.0081,98.2662,0.0004,-1.4956,10.3002,-0.0,-0.0503,0.3409,-0.0,0.6548
