timestamp,x,y,z,pitch,yaw,roll,vx,vy,vz,ax,ay,az,yaw_rate
136449,-106.6867,-4.8475,-0.0796,0.0,-89.3578,0.0,-0.0,-0.0,0.0615,-0.0,-0.0,6.6451,-0.0
136465,-106.6867,-4.8475,-0.0796,0.0,-89.3578,0.0,-0.0,-0.0,0.0615,-0.0,-0.0,6.6451,-0.0
136481,-106.6867,-4.8475,-0.0796,0.0,-89.3578,0.0,-0.0,-0.0,0.0615,-0.0,-0.0,6.6451,-0.0
136497,-106.6867,-4.8475,-0.0796,0.0,-89.3578,0.0,-0.0,-0.0,0.0615,-0.0,-0.0,6.6451,-0.0
136513,-106.6867,-4.8475,-0.0796,0.0,-89.3578,0.0,-0.0,-0.0,0.0615,-0.0,-0.0,6.6451,-0.0
136529,-106.6867,-4.8475,-0.0796,0.0,-89.3578,0.0,-0.0,-0.0,0.0615,-0.0,-0.0,6.6451,-0.0
136545,-106.6867,-4.8475,-0.0796,0.0,-89.3578,0.0,-0.0,-0.0,0.0615,-0.0,-0.0,6.6451,-0.0
136561,-106.6867,-4.8475,-0.0796,0.0,-89.3578,0.0,-0.0,-0.0,0.0615,-0.0,-0.0,6.6451,-0.0
136577,-106.6867,-4.8475,-0.0796,0.0,-89.3578,0.0,-0.0,-0.0,0.0615,-0.0,-0.0,6.6451,-0.0
136593,-106.6867,-4.8475,-0.0796,0.0,-89.3578,0.0,-0.0,-0.0,0.0615,-0.0,-0.0,6.6451,-0.0
136609,-106.6867,-4.8475,-0.0796,0.0,-89.3578,0.0,-0.0,-0.0,0.0615,-0.0,-0.0,6.6451,-0.0
136625,-106.6867,-4.8475,-0.0796,0.0,-89.3578,0.0,-0.0,-0.0,0.0615,-0.0,-0.0,6.6451,-0.0
136641,-106.6867,-4.8475,-0.0796,0.0,-89.3578,0.0,-0.0,-0.0,0.0615,-0.0,-0.0,6.6451,-0.0
136657,-106.6867,-4.8475,-0.0796,0.0,-89.3578,0.0,-0.0,-0.0,0.0615,-0.0,-0.0,6.6451,-0.0
136673,-106.6867,-4.8475,-0.0796,0.0,-89.3578,0.0,-0.0,-0.0,0.0615,-0.0,-0.0,6.6451,-0.0
136689,-106.6867,-4.8475,-0.0796,0.0,-89.3578,0.0,-0.0,-0.0,0.0615,-0.0,-0.0,6.6451,-0.0
136705,-106.6867,-4.8475,-0.0796,0.0,-89.3578,0.0,-0.0,-0.0,0.0615,-0.0,-0.0,6.6451,-0.0
136721,-106.6867,-4.8475,-0.0796,0.0,-89.3578,0.0,-0.0,-0.0,0.0615,-0.0,-0.0,6.6451,-0.0
136737,-106.6867,-4.8475,-0.0796,0.0,-89.3578,0.0,-0.0,-0.0,0.0615,-0.0,-0.0,6.6451,-0.0
136753,-106.6867,-4.8475,-0.0796,0.0,-89.3578,0.0,-0.0,-0.0,0.0615,-0.0,-0.0,6.6451,-0.0
136769,-106.6867,-4.8475,-0.0796,0.0,-89.3578,0.0,-0.0,-0.0,0.0615,-0.0,-0.0,6.6451,-0.0
136785,-106.6867,-4.8475,-0.0796,0.0,-89.3578,0.0,-0.0,-0.0,0.0615,-0.0,-0.0,6.6451,-0.0
136801,-106.6867,-4.8475,-0.0796,0.0,-89.3578,0.0,-0.0,-0.0,0.0615,-0.0,-0.0,6.6451,-0.0
136817,-106.6867,-4.8475,-0.0796,0.0,-89.3578,0.0,-0.0,-0.0,0.0615,-0.0,-0.0,6.6451,-0.0
136833,-106.6867,-4.8475,-0.0796,0.0,-89.3578,0.0,-0.0,-0.0,0.0615,-0.0,-0.0,6.6451,-0.0
136849,-106.6867,-4.8475,-0.0796,0.0,-89.3578,0.0,-0.0,-0.0,0.0615,-0.0,-0.0,6.6451,-0.0
136865,-106.6867,-4.8475,-0.0796,0.0,-89.3578,0.0,-0.0,-0.0,0.0615,-0.0,-0.0,6.6451,-0.0
136881,-106.6867,-4.8475,-0.0796,0.0,-89.3578,0.0,-0.0,-0.0,0.0615,-0.0,-0.0,6.6451,-0.0
136897,-106.6867,-4.8456,-0.0599,-0.0017,-89.3578,0.0,-0.0005,0.0418,0.2364,-0.0012,0.1044,0.4375,-0.0001
136913,-106.6867,-4.8456,-0.0599,-0.0017,-89.3578,0.0,-0.0005,0.0418,0.2364,-0.0012,0.1044,0.4375,-0.0001
136929,-106.6867,-4.8456,-0.0599,-0.0017,-89.3578,0.0,-0.0005,0.0418,0.2364,-0.0012,0.1044,0.4375,-0.0001
136945,-106.6867,-4.8456,-0.0599,-0.0017,-89.3578,0.0,-0.0005,0.0418,0.2364,-0.0012,0.1044,0.4375,-0.0001
136961,-106.6867,-4.8456,-0.0599,-0.0017,-89.3578,0.0,-0.0005,0.0418,0.2364,-0.0012,0.1044,0.4375,-0.0001
136977,-106.6867,-4.8456,-0.0599,-0.0017,-89.3578,0.0,-0.0005,0.0418,0.2364,-0.0012,0.1044,0.4375,-0.0001
136993,-106.6867,-4.8456,-0.0599,-0.0017,-89.3578,0.0,-0.0005,0.0418,0.2364,-0.0012,0.1044,0.4375,-0.0001
137009,-106.6867,-4.8456,-0.0599,-0.0017,-89.3578,0.0,-0.0005,0.0418,0.2364,-0.0012,0.1044,0.4375,-0.0001
137031,-106.6868,-4.8407,-0.039,-0.005,-89.3577,-0.0,-0.0012,0.1076,0.1769,-0.0057,0.5113,-0.4627,0.0015
137041,-106.6868,-4.8407,-0.039,-0.005,-89.3577,-0.0,-0.0012,0.1076,0.1769,-0.0057,0.5113,-0.4627,0.0015
137057,-106.6868,-4.8407,-0.039,-0.005,-89.3577,-0.0,-0.0012,0.1076,0.1769,-0.0057,0.5113,-0.4627,0.0015
137073,-106.6868,-4.8407,-0.039,-0.005,-89.3577,-0.0,-0.0012,0.1076,0.1769,-0.0057,0.5113,-0.4627,0.0015
137089,-106.6868,-4.8407,-0.039,-0.005,-89.3577,-0.0,-0.0012,0.1076,0.1769,-0.0057,0.5113,-0.4627,0.0015
137105,-106.6868,-4.8407,-0.039,-0.005,-89.3577,-0.0,-0.0012,0.1076,0.1769,-0.0057,0.5113,-0.4627,0.0015
137121,-106.6868,-4.8407,-0.039,-0.005,-89.3577,-0.0,-0.0012,0.1076,0.1769,-0.0057,0.5113,-0.4627,0.0015
137137,-106.6872,-4.8048,-0.0254,-0.028,-89.3525,0.0,-0.0069,0.5863,0.1026,-0.0544,4.6086,-0.7152,0.065
137153,-106.6872,-4.8048,-0.0254,-0.028,-89.3525,0.0,-0.0069,0.5863,0.1026,-0.0544,4.6086,-0.7152,0.065
137169,-106.6872,-4.8048,-0.0254,-0.028,-89.3525,0.0,-0.0069,0.5863,0.1026,-0.0544,4.6086,-0.7152,0.065
137185,-106.6872,-4.8048,-0.0254,-0.028,-89.3525,0.0,-0.0069,0.5863,0.1026,-0.0544,4.6086,-0.7152,0.065
137201,-106.6872,-4.8048,-0.0254,-0.028,-89.3525,0.0,-0.0069,0.5863,0.1026,-0.0544,4.6086,-0.7152,0.065
137217,-106.6872,-4.8048,-0.0254,-0.028,-89.3525,0.0,-0.0069,0.5863,0.1026,-0.0544,4.6086,-0.7152,0.065
137233,-106.6872,-4.8048,-0.0254,-0.028,-89.3525,0.0,-0.0069,0.5863,0.1026,-0.0544,4.6086,-0.7152,0.065
137249,-106.6882,-4.72,-0.0179,-0.0497,-89.3513,0.0,-0.0111,0.9787,0.0533,-0.0387,3.5525,-0.4462,-0.016
137265,-106.6882,-4.72,-0.0179,-0.0497,-89.3513,0.0,-0.0111,0.9787,0.0533,-0.0387,3.5525,-0.4462,-0.016
137281,-106.6882,-4.72,-0.0179,-0.0497,-89.3513,0.0,-0.0111,0.9787,0.0533,-0.0387,3.5525,-0.4462,-0.016
137297,-106.6882,-4.72,-0.0179,-0.0497,-89.3513,0.0,-0.0111,0.9787,0.0533,-0.0387,3.5525,-0.4462,-0.016
137313,-106.6882,-4.72,-0.0179,-0.0497,-89.3513,0.0,-0.0111,0.9787,0.0533,-0.0387,3.5525,-0.4462,-0.016
137329,-106.6882,-4.72,-0.0179,-0.0497,-89.3513,0.0,-0.0111,0.9787,0.0533,-0.0387,3.5525,-0.4462,-0.016
137350,-106.6892,-4.6177,-0.014,-0.0396,-89.3716,0.0,-0.0126,1.0848,0.0317,-0.0141,1.0462,-0.2132,-2.352
137361,-106.6892,-4.6177,-0.014,-0.0396,-89.3716,0.0,-0.0126,1.0848,0.0317,-0.0141,1.0462,-0.2132,-2.352
137377,-106.6892,-4.6177,-0.014,-0.0396,-89.3716,0.0,-0.0126,1.0848,0.0317,-0.0141,1.0462,-0.2132,-2.352
137393,-106.6892,-4.6177,-0.014,-0.0396,-89.3716,0.0,-0.0126,1.0848,0.0317,-0.0141,1.0462,-0.2132,-2.352
137409,-106.6892,-4.6177,-0.014,-0.0396,-89.3716,0.0,-0.0126,1.0848,0.0317,-0.0141,1.0462,-0.2132,-2.352
137425,-106.6892,-4.6177,-0.014,-0.0396,-89.3716,0.0,-0.0126,1.0848,0.0317,-0.0141,1.0462,-0.2132,-2.352
137446,-106.6896,-4.492,-0.0121,-0.0356,-89.3748,-0.0021,0.0015,1.2328,0.0114,0.1396,1.4665,-0.2011,3.3402
137457,-106.6896,-4.492,-0.0121,-0.0356,-89.3748,-0.0021,0.0015,1.2328,0.0114,0.1396,1.4665,-0.2011,3.3402
137473,-106.6896,-4.492,-0.0121,-0.0356,-89.3748,-0.0021,0.0015,1.2328,0.0114,0.1396,1.4665,-0.2011,3.3402
137489,-106.6896,-4.492,-0.0121,-0.0356,-89.3748,-0.0021,0.0015,1.2328,0.0114,0.1396,1.4665,-0.2011,3.3402
137505,-106.6896,-4.492,-0.0121,-0.0356,-89.3748,-0.0021,0.0015,1.2328,0.0114,0.1396,1.4665,-0.2011,3.3402
137521,-106.6896,-4.492,-0.0121,-0.0356,-89.3748,-0.0021,0.0015,1.2328,0.0114,0.1396,1.4665,-0.2011,3.3402
137537,-106.6896,-4.492,-0.0121,-0.0356,-89.3748,-0.0021,0.0015,1.2328,0.0114,0.1396,1.4665,-0.2011,3.3402
137553,-106.6886,-4.369,-0.0115,-0.0201,-89.4685,-0.0026,0.0081,1.2493,0.0045,0.065,0.1622,-0.0676,4.0121
137569,-106.6886,-4.369,-0.0115,-0.0201,-89.4685,-0.0026,0.0081,1.2493,0.0045,0.065,0.1622,-0.0676,4.0121
137585,-106.6886,-4.369,-0.0115,-0.0201,-89.4685,-0.0026,0.0081,1.2493,0.0045,0.065,0.1622,-0.0676,4.0121
137601,-106.6886,-4.369,-0.0115,-0.0201,-89.4685,-0.0026,0.0081,1.2493,0.0045,0.065,0.1622,-0.0676,4.0121
137617,-106.6886,-4.369,-0.0115,-0.0201,-89.4685,-0.0026,0.0081,1.2493,0.0045,0.065,0.1622,-0.0676,4.0121
137633,-106.6886,-4.369,-0.0115,-0.0201,-89.4685,-0.0026,0.0081,1.2493,0.0045,0.065,0.1622,-0.0676,4.0121
137654,-106.6893,-4.206,-0.011,-0.0512,-89.4972,0.0012,-0.0209,2.0398,0.0019,-0.2877,7.8293,-0.0256,1.3522
137665,-106.6893,-4.206,-0.011,-0.0512,-89.4972,0.0012,-0.0209,2.0398,0.0019,-0.2877,7.8293,-0.0256,1.3522
137681,-106.6893,-4.206,-0.011,-0.0512,-89.4972,0.0012,-0.0209,2.0398,0.0019,-0.2877,7.8293,-0.0256,1.3522
137697,-106.6893,-4.206,-0.011,-0.0512,-89.4972,0.0012,-0.0209,2.0398,0.0019,-0.2877,7.8293,-0.0256,1.3522
137713,-106.6893,-4.206,-0.011,-0.0512,-89.4972,0.0012,-0.0209,2.0398,0.0019,-0.2877,7.8293,-0.0256,1.3522
137729,-106.6893,-4.206,-0.011,-0.0512,-89.4972,0.0012,-0.0209,2.0398,0.0019,-0.2877,7.8293,-0.0256,1.3522
137745,-106.6893,-4.206,-0.011,-0.0512,-89.4972,0.0012,-0.0209,2.0398,0.0019,-0.2877,7.8293,-0.0256,1.3522
137765,-106.6915,-3.986,-0.0108,-0.0629,-89.4806,0.0012,-0.0227,2.4395,0.0009,-0.0155,3.4391,-0.0092,-0.0687
137777,-106.6915,-3.986,-0.0108,-0.0629,-89.4806,0.0012,-0.0227,2.4395,0.0009,-0.0155,3.4391,-0.0092,-0.0687
137793,-106.6915,-3.986,-0.0108,-0.0629,-89.4806,0.0012,-0.0227,2.4395,0.0009,-0.0155,3.4391,-0.0092,-0.0687
137809,-106.6915,-3.986,-0.0108,-0.0629,-89.4806,0.0012,-0.0227,2.4395,0.0009,-0.0155,3.4391,-0.0092,-0.0687
137825,-106.6915,-3.986,-0.0108,-0.0629,-89.4806,0.0012,-0.0227,2.4395,0.0009,-0.0155,3.4391,-0.0092,-0.0687
137841,-106.6915,-3.986,-0.0108,-0.0629,-89.4806,0.0012,-0.0227,2.4395,0.0009,-0.0155,3.4391,-0.0092,-0.0687
137862,-106.6941,-3.7327,-0.0107,-0.0647,-89.4483,0.001,-0.0272,2.8458,0.0004,-0.0456,4.1481,-0.0047,2.7992
137873,-106.6941,-3.7327,-0.0107,-0.0647,-89.4483,0.001,-0.0272,2.8458,0.0004,-0.0456,4.1481,-0.0047,2.7992
137889,-106.6941,-3.7327,-0.0107,-0.0647,-89.4483,0.001,-0.0272,2.8458,0.0004,-0.0456,4.1481,-0.0047,2.7992
137905,-106.6941,-3.7327,-0.0107,-0.0647,-89.4483,0.001,-0.0272,2.8458,0.0004,-0.0456,4.1481,-0.0047,2.7992
137921,-106.6941,-3.7327,-0.0107,-0.0647,-89.4483,0.001,-0.0272,2.8458,0.0004,-0.0456,4.1481,-0.0047,2.7992
137937,-106.6941,-3.7327,-0.0107,-0.0647,-89.4483,0.001,-0.0272,2.8458,0.0004,-0.0456,4.1481,-0.0047,2.7992
137953,-106.6941,-3.7327,-0.0107,-0.0647,-89.4483,0.001,-0.0272,2.8458,0.0004,-0.0456,4.1481,-0.0047,2.7992
137969,-106.6971,-3.4228,-0.0106,-0.0786,-89.4434,0.0006,-0.0328,3.4927,0.0002,-0.0557,6.4285,-0.0022,2.3658
137985,-106.6971,-3.4228,-0.0106,-0.0786,-89.4434,0.0006,-0.0328,3.4927,0.0002,-0.0557,6.4285,-0.0022,2.3658
138001,-106.6971,-3.4228,-0.0106,-0.0786,-89.4434,0.0006,-0.0328,3.4927,0.0002,-0.0557,6.4285,-0.0022,2.3658
138017,-106.6971,-3.4228,-0.0106,-0.0786,-89.4434,0.0006,-0.0328,3.4927,0.0002,-0.0557,6.4285,-0.0022,2.3658
138033,-106.6971,-3.4228,-0.0106,-0.0786,-89.4434,0.0006,-0.0328,3.4927,0.0002,-0.0557,6.4285,-0.0022,2.3658
138049,-106.6971,-3.4228,-0.0106,-0.0786,-89.4434,0.0006,-0.0328,3.4927,0.0002,-0.0557,6.4285,-0.0022,2.3658
138065,-106.7,-3.0618,-0.0106,-0.0836,-89.5079,-0.0005,-0.0325,3.9697,0.0001,0.0033,4.8727,-0.0011,0.9501
138081,-106.7,-3.0618,-0.0106,-0.0836,-89.5079,-0.0005,-0.0325,3.9697,0.0001,0.0033,4.8727,-0.0011,0.9501
138097,-106.7,-3.0618,-0.0106,-0.0836,-89.5079,-0.0005,-0.0325,3.9697,0.0001,0.0033,4.8727,-0.0011,0.9501
138113,-106.7,-3.0618,-0.0106,-0.0836,-89.5079,-0.0005,-0.0325,3.9697,0.0001,0.0033,4.8727,-0.0011,0.9501
138129,-106.7,-3.0618,-0.0106,-0.0836,-89.5079,-0.0005,-0.0325,3.9697,0.0001,0.0033,4.8727,-0.0011,0.9501
138145,-106.7,-3.0618,-0.0106,-0.0836,-89.5079,-0.0005,-0.0325,3.9697,0.0001,0.0033,4.8727,-0.0011,0.9501
138161,-106.7,-3.0618,-0.0106,-0.0836,-89.5079,-0.0005,-0.0325,3.9697,0.0001,0.0033,4.8727,-0.0011,0.9501
138177,-106.7,-3.0618,-0.0106,-0.0836,-89.5079,-0.0005,-0.0325,3.9697,0.0001,0.0033,4.8727,-0.0011,0.9501
138193,-106.7029,-2.6419,-0.0105,-0.0848,-89.5667,-0.0011,-0.0355,4.5061,0.0001,-0.0271,4.763,-0.0004,-2.2116
138209,-106.7029,-2.6419,-0.0105,-0.0848,-89.5667,-0.0011,-0.0355,4.5061,0.0001,-0.0271,4.763,-0.0004,-2.2116
138225,-106.7029,-2.6419,-0.0105,-0.0848,-89.5667,-0.0011,-0.0355,4.5061,0.0001,-0.0271,4.763,-0.0004,-2.2116
138241,-106.7029,-2.6419,-0.0105,-0.0848,-89.5667,-0.0011,-0.0355,4.5061,0.0001,-0.0271,4.763,-0.0004,-2.2116
138257,-106.7029,-2.6419,-0.0105,-0.0848,-89.5667,-0.0011,-0.0355,4.5061,0.0001,-0.0271,4.763,-0.0004,-2.2116
138285,-106.7029,-2.6419,-0.0105,-0.0848,-89.5667,-0.0011,-0.0355,4.5061,0.0001,-0.0271,4.763,-0.0004,-2.2116
138289,-106.7065,-2.1593,-0.0105,-0.0945,-89.5623,-0.0009,-0.0379,5.1871,0.0,-0.0223,6.3376,-0.0003,1.8682
138305,-106.7065,-2.1593,-0.0105,-0.0945,-89.5623,-0.0009,-0.0379,5.1871,0.0,-0.0223,6.3376,-0.0003,1.8682
138321,-106.7065,-2.1593,-0.0105,-0.0945,-89.5623,-0.0009,-0.0379,5.1871,0.0,-0.0223,6.3376,-0.0003,1.8682
138337,-106.7065,-2.1593,-0.0105,-0.0945,-89.5623,-0.0009,-0.0379,5.1871,0.0,-0.0223,6.3376,-0.0003,1.8682
138353,-106.7065,-2.1593,-0.0105,-0.0945,-89.5623,-0.0009,-0.0379,5.1871,0.0,-0.0223,6.3376,-0.0003,1.8682
138369,-106.7065,-2.1593,-0.0105,-0.0945,-89.5623,-0.0009,-0.0379,5.1871,0.0,-0.0223,6.3376,-0.0003,1.8682
138394,-106.7104,-1.6079,-0.0104,-0.1028,-89.591,-0.0007,-0.0438,5.8672,0.0,-0.0546,6.3079,-0.0001,-1.9008
138401,-106.7104,-1.6079,-0.0104,-0.1028,-89.591,-0.0007,-0.0438,5.8672,0.0,-0.0546,6.3079,-0.0001,-1.9008
138417,-106.7104,-1.6079,-0.0104,-0.1028,-89.591,-0.0007,-0.0438,5.8672,0.0,-0.0546,6.3079,-0.0001,-1.9008
138433,-106.7104,-1.6079,-0.0104,-0.1028,-89.591,-0.0007,-0.0438,5.8672,0.0,-0.0546,6.3079,-0.0001,-1.9008
138449,-106.7104,-1.6079,-0.0104,-0.1028,-89.591,-0.0007,-0.0438,5.8672,0.0,-0.0546,6.3079,-0.0001,-1.9008
138465,-106.7104,-1.6079,-0.0104,-0.1028,-89.591,-0.0007,-0.0438,5.8672,0.0,-0.0546,6.3079,-0.0001,-1.9008
138481,-106.7104,-1.6079,-0.0104,-0.1028,-89.591,-0.0007,-0.0438,5.8672,0.0,-0.0546,6.3079,-0.0001,-1.9008
138502,-106.715,-0.9849,-0.0103,-0.1103,-89.578,-0.0005,-0.0473,6.6059,0.0,-0.0318,6.7447,-0.0,1.4689
138513,-106.715,-0.9849,-0.0103,-0.1103,-89.578,-0.0005,-0.0473,6.6059,0.0,-0.0318,6.7447,-0.0,1.4689
138529,-106.715,-0.9849,-0.0103,-0.1103,-89.578,-0.0005,-0.0473,6.6059,0.0,-0.0318,6.7447,-0.0,1.4689
138545,-106.715,-0.9849,-0.0103,-0.1103,-89.578,-0.0005,-0.0473,6.6059,0.0,-0.0318,6.7447,-0.0,1.4689
138561,-106.715,-0.9849,-0.0103,-0.1103,-89.578,-0.0005,-0.0473,6.6059,0.0,-0.0318,6.7447,-0.0,1.4689
138577,-106.715,-0.9849,-0.0103,-0.1103,-89.578,-0.0005,-0.0473,6.6059,0.0,-0.0318,6.7447,-0.0,1.4689
138597,-106.72,-0.2851,-0.0103,-0.1176,-89.5885,-0.0003,-0.0539,7.3756,0.0,-0.0652,7.6117,0.0,-1.1168
138609,-106.72,-0.2851,-0.0103,-0.1176,-89.5885,-0.0003,-0.0539,7.3756,0.0,-0.0652,7.6117,0.0,-1.1168
138625,-106.72,-0.2851,-0.0103,-0.1176,-89.5885,-0.0003,-0.0539,7.3756,0.0,-0.0652,7.6117,0.0,-1.1168
138641,-106.72,-0.2851,-0.0103,-0.1176,-89.5885,-0.0003,-0.0539,7.3756,0.0,-0.0652,7.6117,0.0,-1.1168
138657,-106.72,-0.2851,-0.0103,-0.1176,-89.5885,-0.0003,-0.0539,7.3756,0.0,-0.0652,7.6117,0.0,-1.1168
138673,-106.72,-0.2851,-0.0103,-0.1176,-89.5885,-0.0003,-0.0539,7.3756,0.0,-0.0652,7.6117,0.0,-1.1168
138689,-106.72,-0.2851,-0.0103,-0.1176,-89.5885,-0.0003,-0.0539,7.3756,0.0,-0.0652,7.6117,0.0,-1.1168
138709,-106.7257,0.4886,-0.0103,-0.1185,-89.5828,-0.0002,-0.0582,8.075,-0.0,-0.0399,6.4776,-0.0001,0.8606
138721,-106.7257,0.4886,-0.0103,-0.1185,-89.5828,-0.0002,-0.0582,8.075,-0.0,-0.0399,6.4776,-0.0001,0.8606
138737,-106.7257,0.4886,-0.0103,-0.1185,-89.5828,-0.0002,-0.0582,8.075,-0.0,-0.0399,6.4776,-0.0001,0.8606
138753,-106.7257,0.4886,-0.0103,-0.1185,-89.5828,-0.0002,-0.0582,8.075,-0.0,-0.0399,6.4776,-0.0001,0.8606
138769,-106.7257,0.4886,-0.0103,-0.1185,-89.5828,-0.0002,-0.0582,8.075,-0.0,-0.0399,6.4776,-0.0001,0.8606
138785,-106.7257,0.4886,-0.0103,-0.1185,-89.5828,-0.0002,-0.0582,8.075,-0.0,-0.0399,6.4776,-0.0001,0.8606
138801,-106.7257,0.4886,-0.0103,-0.1185,-89.5828,-0.0002,-0.0582,8.075,-0.0,-0.0399,6.4776,-0.0001,0.8606
138817,-106.7317,1.3284,-0.0103,-0.1136,-89.5869,-0.0001,-0.0632,8.7003,-0.0,-0.0498,6.253,-0.0,-0.5975
138833,-106.7317,1.3284,-0.0103,-0.1136,-89.5869,-0.0001,-0.0632,8.7003,-0.0,-0.0498,6.253,-0.0,-0.5975
138849,-106.7317,1.3284,-0.0103,-0.1136,-89.5869,-0.0001,-0.0632,8.7003,-0.0,-0.0498,6.253,-0.0,-0.5975
138865,-106.7317,1.3284,-0.0103,-0.1136,-89.5869,-0.0001,-0.0632,8.7003,-0.0,-0.0498,6.253,-0.0,-0.5975
138881,-106.7317,1.3284,-0.0103,-0.1136,-89.5869,-0.0001,-0.0632,8.7003,-0.0,-0.0498,6.253,-0.0,-0.5975
138897,-106.7317,1.3284,-0.0103,-0.1136,-89.5869,-0.0001,-0.0632,8.7003,-0.0,-0.0498,6.253,-0.0,-0.5975
138917,-106.7383,2.2278,-0.0104,-0.1061,-89.5846,-0.0001,-0.067,9.2631,0.0,-0.0356,5.2458,0.0002,0.2624
138929,-106.7383,2.2278,-0.0104,-0.1061,-89.5846,-0.0001,-0.067,9.2631,0.0,-0.0356,5.2458,0.0002,0.2624
138945,-106.7383,2.2278,-0.0104,-0.1061,-89.5846,-0.0001,-0.067,9.2631,0.0,-0.0356,5.2458,0.0002,0.2624
138961,-106.7383,2.2278,-0.0104,-0.1061,-89.5846,-0.0001,-0.067,9.2631,0.0,-0.0356,5.2458,0.0002,0.2624
138977,-106.7383,2.2278,-0.0104,-0.1061,-89.5846,-0.0001,-0.067,9.2631,0.0,-0.0356,5.2458,0.0002,0.2624
138993,-106.7383,2.2278,-0.0104,-0.1061,-89.5846,-0.0001,-0.067,9.2631,0.0,-0.0356,5.2458,0.0002,0.2624
139009,-106.7383,2.2278,-0.0104,-0.1061,-89.5846,-0.0001,-0.067,9.2631,0.0,-0.0356,5.2458,0.0002,0.2624
139025,-106.7452,3.1809,-0.0104,-0.0981,-89.5853,-0.0,-0.0708,9.7782,0.0,-0.0352,4.7585,0.0,-0.0352
139041,-106.7452,3.1809,-0.0104,-0.0981,-89.5853,-0.0,-0.0708,9.7782,0.0,-0.0352,4.7585,0.0,-0.0352
139057,-106.7452,3.1809,-0.0104,-0.0981,-89.5853,-0.0,-0.0708,9.7782,0.0,-0.0352,4.7585,0.0,-0.0352
139073,-106.7452,3.1809,-0.0104,-0.0981,-89.5853,-0.0,-0.0708,9.7782,0.0,-0.0352,4.7585,0.0,-0.0352
139089,-106.7452,3.1809,-0.0104,-0.0981,-89.5853,-0.0,-0.0708,9.7782,0.0,-0.0352,4.7585,0.0,-0.0352
139105,-106.7452,3.1809,-0.0104,-0.0981,-89.5853,-0.0,-0.0708,9.7782,0.0,-0.0352,4.7585,0.0,-0.0352
139127,-106.7524,4.1848,-0.0105,-0.0917,-89.5853,-0.0,-0.0744,10.276,0.0,-0.0359,4.969,-0.0001,0.0002
139137,-106.7524,4.1848,-0.0105,-0.0917,-89.5853,-0.0,-0.0744,10.276,0.0,-0.0359,4.969,-0.0001,0.0002
139153,-106.7524,4.1848,-0.0105,-0.0917,-89.5853,-0.0,-0.0744,10.276,0.0,-0.0359,4.969,-0.0001,0.0002
139169,-106.7524,4.1848,-0.0105,-0.0917,-89.5853,-0.0,-0.0744,10.276,0.0,-0.0359,4.969,-0.0001,0.0002
139185,-106.7524,4.1848,-0.0105,-0.0917,-89.5853,-0.0,-0.0744,10.276,0.0,-0.0359,4.969,-0.0001,0.0002
139201,-106.7524,4.1848,-0.0105,-0.0917,-89.5853,-0.0,-0.0744,10.276,0.0,-0.0359,4.969,-0.0001,0.0002
139217,-106.7524,4.1848,-0.0105,-0.0917,-89.5853,-0.0,-0.0744,10.276,0.0,-0.0359,4.969,-0.0001,0.0002
139233,-106.76,5.2374,-0.0105,-0.0864,-89.5853,-0.0,-0.0778,10.743,0.0,-0.0331,4.5809,0.0,-0.0
139249,-106.76,5.2374,-0.0105,-0.0864,-89.5853,-0.0,-0.0778,10.743,0.0,-0.0331,4.5809,0.0,-0.0
139265,-106.76,5.2374,-0.0105,-0.0864,-89.5853,-0.0,-0.0778,10.743,0.0,-0.0331,4.5809,0.0,-0.0
139281,-106.76,5.2374,-0.0105,-0.0864,-89.5853,-0.0,-0.0778,10.743,0.0,-0.0331,4.5809,0.0,-0.0
139297,-106.76,5.2374,-0.0105,-0.0864,-89.5853,-0.0,-0.0778,10.743,0.0,-0.0331,4.5809,0.0,-0.0
139313,-106.76,5.2374,-0.0105,-0.0864,-89.5853,-0.0,-0.0778,10.743,0.0,-0.0331,4.5809,0.0,-0.0
139329,-106.76,5.2374,-0.0105,-0.0864,-89.5853,-0.0,-0.0778,10.743,0.0,-0.0331,4.5809,0.0,-0.0
139345,-106.768,6.3343,-0.0106,-0.0804,-89.5853,-0.0,-0.0808,11.1663,-0.0,-0.0276,3.8112,-0.0001,0.0001
139361,-106.768,6.3343,-0.0106,-0.0804,-89.5853,-0.0,-0.0808,11.1663,-0.0,-0.0276,3.8112,-0.0001,0.0001
139377,-106.768,6.3343,-0.0106,-0.0804,-89.5853,-0.0,-0.0808,11.1663,-0.0,-0.0276,3.8112,-0.0001,0.0001
139393,-106.768,6.3343,-0.0106,-0.0804,-89.5853,-0.0,-0.0808,11.1663,-0.0,-0.0276,3.8112,-0.0001,0.0001
139409,-106.768,6.3343,-0.0106,-0.0804,-89.5853,-0.0,-0.0808,11.1663,-0.0,-0.0276,3.8112,-0.0001,0.0001
139425,-106.768,6.3343,-0.0106,-0.0804,-89.5853,-0.0,-0.0808,11.1663,-0.0,-0.0276,3.8112,-0.0001,0.0001
139441,-106.776,7.4378,-0.0106,-0.0754,-89.5853,0.0,-0.0837,11.5592,0.0,-0.0293,4.051,0.0001,0.0
139473,-106.776,7.4378,-0.0106,-0.0754,-89.5853,0.0,-0.0837,11.5592,0.0,-0.0293,4.051,0.0001,0.0
139489,-106.776,7.4378,-0.0106,-0.0754,-89.5853,0.0,-0.0837,11.5592,0.0,-0.0293,4.051,0.0001,0.0
139505,-106.776,7.4378,-0.0106,-0.0754,-89.5853,0.0,-0.0837,11.5592,0.0,-0.0293,4.051,0.0001,0.0
139521,-106.776,7.4378,-0.0106,-0.0754,-89.5853,0.0,-0.0837,11.5592,0.0,-0.0293,4.051,0.0001,0.0
139537,-106.8145,8.6056,-0.0107,-0.0602,-91.0008,0.1254,-0.9262,11.7108,0.001,-8.225,1.4804,0.0096,-31.0024
139556,-106.8145,8.6056,-0.0107,-0.0602,-91.0008,0.1254,-0.9262,11.7108,0.001,-8.225,1.4804,0.0096,-31.0024
139572,-106.8145,8.6056,-0.0107,-0.0602,-91.0008,0.1254,-0.9262,11.7108,0.001,-8.225,1.4804,0.0096,-31.0024
139588,-106.8145,8.6056,-0.0107,-0.0602,-91.0008,0.1254,-0.9262,11.7108,0.001,-8.225,1.4804,0.0096,-31.0024
139604,-106.8145,8.6056,-0.0107,-0.0602,-91.0008,0.1254,-0.9262,11.7108,0.001,-8.225,1.4804,0.0096,-31.0024
139620,-106.8145,8.6056,-0.0107,-0.0602,-91.0008,0.1254,-0.9262,11.7108,0.001,-8.225,1.4804,0.0096,-31.0024
139636,-106.8145,8.6056,-0.0107,-0.0602,-91.0008,0.1254,-0.9262,11.7108,0.001,-8.225,1.4804,0.0096,-31.0024
139656,-106.9206,9.766,-0.0108,-0.0213,-96.7392,0.2636,-1.8945,11.529,0.0011,-8.3011,-1.5585,0.0007,-81.7562
139668,-106.9206,9.766,-0.0108,-0.0213,-96.7392,0.2636,-1.8945,11.529,0.0011,-8.3011,-1.5585,0.0007,-81.7562
139684,-106.9206,9.766,-0.0108,-0.0213,-96.7392,0.2636,-1.8945,11.529,0.0011,-8.3011,-1.5585,0.0007,-81.7562
139700,-106.9206,9.766,-0.0108,-0.0213,-96.7392,0.2636,-1.8945,11.529,0.0011,-8.3011,-1.5585,0.0007,-81.7562
139716,-106.9206,9.766,-0.0108,-0.0213,-96.7392,0.2636,-1.8945,11.529,0.0011,-8.3011,-1.5585,0.0007,-81.7562
139732,-106.9206,9.766,-0.0108,-0.0213,-96.7392,0.2636,-1.8945,11.529,0.0011,-8.3011,-1.5585,0.0007,-81.7562
139752,-107.0602,10.8656,-0.0111,0.0148,-107.8759,0.2714,-2.4141,11.267,-0.0,-5.2937,-2.6699,-0.0108,-140.3372
139764,-107.0602,10.8656,-0.0111,0.0148,-107.8759,0.2714,-2.4141,11.267,-0.0,-5.2937,-2.6699,-0.0108,-140.3372
139780,-107.0602,10.8656,-0.0111,0.0148,-107.8759,0.2714,-2.4141,11.267,-0.0,-5.2937,-2.6699,-0.0108,-140.3372
139796,-107.0602,10.8656,-0.0111,0.0148,-107.8759,0.2714,-2.4141,11.267,-0.0,-5.2937,-2.6699,-0.0108,-140.3372
139812,-107.0602,10.8656,-0.0111,0.0148,-107.8759,0.2714,-2.4141,11.267,-0.0,-5.2937,-2.6699,-0.0108,-140.3372
139828,-107.0602,10.8656,-0.0111,0.0148,-107.8759,0.2714,-2.4141,11.267,-0.0,-5.2937,-2.6699,-0.0108,-140.3372
139844,-107.0602,10.8656,-0.0111,0.0148,-107.8759,0.2714,-2.4141,11.267,-0.0,-5.2937,-2.6699,-0.0108,-140.3372
139861,-107.1727,11.9344,-0.011,-0.0051,-124.6997,0.1095,-1.849,11.2728,-0.0013,5.5653,0.0571,-0.0126,-186.7967
139877,-107.1727,11.9344,-0.011,-0.0051,-124.6997,0.1095,-1.849,11.2728,-0.0013,5.5653,0.0571,-0.0126,-186.7967
139893,-107.1727,11.9344,-0.011,-0.0051,-124.6997,0.1095,-1.849,11.2728,-0.0013,5.5653,0.0571,-0.0126,-186.7967
139909,-107.1727,11.9344,-0.011,-0.0051,-124.6997,0.1095,-1.849,11.2728,-0.0013,5.5653,0.0571,-0.0126,-186.7967
139925,-107.1727,11.9344,-0.011,-0.0051,-124.6997,0.1095,-1.849,11.2728,-0.0013,5.5653,0.0571,-0.0126,-186.7967
139941,-107.1727,11.9344,-0.011,-0.0051,-124.6997,0.1095,-1.849,11.2728,-0.0013,5.5653,0.0571,-0.0126,-186.7967
139957,-107.1727,11.9344,-0.011,-0.0051,-124.6997,0.1095,-1.849,11.2728,-0.0013,5.5653,0.0571,-0.0126,-186.7967
139973,-107.1516,12.9619,-0.0103,-0.1122,-144.4847,-0.1743,0.1105,11.2434,0.001,17.7264,-0.2652,0.0211,-204.951
139989,-107.1516,12.9619,-0.0103,-0.1122,-144.4847,-0.1743,0.1105,11.2434,0.001,17.7264,-0.2652,0.0211,-204.951
140005,-107.1516,12.9619,-0.0103,-0.1122,-144.4847,-0.1743,0.1105,11.2434,0.001,17.7264,-0.2652,0.0211,-204.951
140021,-107.1516,12.9619,-0.0103,-0.1122,-144.4847,-0.1743,0.1105,11.2434,0.001,17.7264,-0.2652,0.0211,-204.951
140037,-107.1516,12.9619,-0.0103,-0.1122,-144.4847,-0.1743,0.1105,11.2434,0.001,17.7264,-0.2652,0.0211,-204.951
140053,-107.1516,12.9619,-0.0103,-0.1122,-144.4847,-0.1743,0.1105,11.2434,0.001,17.7264,-0.2652,0.0211,-204.951
140085,-106.9462,13.9107,-0.0092,-0.2235,-165.4917,-0.417,2.4535,10.4837,0.002,21.5073,-6.9743,0.009,-213.6912
140101,-106.9462,13.9107,-0.0092,-0.2235,-165.4917,-0.417,2.4535,10.4837,0.002,21.5073,-6.9743,0.009,-213.6912
140117,-106.9462,13.9107,-0.0092,-0.2235,-165.4917,-0.417,2.4535,10.4837,0.002,21.5073,-6.9743,0.009,-213.6912
140133,-106.9462,13.9107,-0.0092,-0.2235,-165.4917,-0.417,2.4535,10.4837,0.002,21.5073,-6.9743,0.009,-213.6912
140149,-106.9462,13.9107,-0.0092,-0.2235,-165.4917,-0.417,2.4535,10.4837,0.002,21.5073,-6.9743,0.009,-213.6912
140170,-106.6047,14.6857,-0.0087,-0.2726,173.2411,-0.6677,3.8151,8.3205,0.0022,13.7244,-21.8038,0.0019,-213.0412
140181,-106.6047,14.6857,-0.0087,-0.2726,173.2411,-0.6677,3.8151,8.3205,0.0022,13.7244,-21.8038,0.0019,-213.0412
140197,-106.6047,14.6857,-0.0087,-0.2726,173.2411,-0.6677,3.8151,8.3205,0.0022,13.7244,-21.8038,0.0019,-213.0412
140213,-106.6047,14.6857,-0.0087,-0.2726,173.2411,-0.6677,3.8151,8.3205,0.0022,13.7244,-21.8038,0.0019,-213.0412
140229,-106.6047,14.6857,-0.0087,-0.2726,173.2411,-0.6677,3.8151,8.3205,0.0022,13.7244,-21.8038,0.0019,-213.0412
140245,-106.6047,14.6857,-0.0087,-0.2726,173.2411,-0.6677,3.8151,8.3205,0.0022,13.7244,-21.8038,0.0019,-213.0412
140261,-106.6047,14.6857,-0.0087,-0.2726,173.2411,-0.6677,3.8151,8.3205,0.0022,13.7244,-21.8038,0.0019,-213.0412
140277,-106.3105,15.2555,-0.0092,-0.1989,153.3051,-0.8631,2.5989,6.291,-0.0026,-11.8568,-19.785,-0.047,-185.4709
140293,-106.3105,15.2555,-0.0092,-0.1989,153.3051,-0.8631,2.5989,6.291,-0.0026,-11.8568,-19.785,-0.047,-185.4709
140309,-106.3105,15.2555,-0.0092,-0.1989,153.3051,-0.8631,2.5989,6.291,-0.0026,-11.8568,-19.785,-0.047,-185.4709
140325,-106.3105,15.2555,-0.0092,-0.1989,153.3051,-0.8631,2.5989,6.291,-0.0026,-11.8568,-19.785,-0.047,-185.4709
140341,-106.3105,15.2555,-0.0092,-0.1989,153.3051,-0.8631,2.5989,6.291,-0.0026,-11.8568,-19.785,-0.047,-185.4709
140357,-106.3105,15.2555,-0.0092,-0.1989,153.3051,-0.8631,2.5989,6.291,-0.0026,-11.8568,-19.785,-0.047,-185.4709
140373,-106.2468,15.7243,-0.0101,-0.0379,137.1343,-0.9241,0.3229,5.764,0.0015,-23.4374,-5.4272,0.0419,-144.0006
140389,-106.2468,15.7243,-0.0101,-0.0379,137.1343,-0.9241,0.3229,5.764,0.0015,-23.4374,-5.4272,0.0419,-144.0006
140405,-106.2468,15.7243,-0.0101,-0.0379,137.1343,-0.9241,0.3229,5.764,0.0015,-23.4374,-5.4272,0.0419,-144.0006
140421,-106.2468,15.7243,-0.0101,-0.0379,137.1343,-0.9241,0.3229,5.764,0.0015,-23.4374,-5.4272,0.0419,-144.0006
140437,-106.2468,15.7243,-0.0101,-0.0379,137.1343,-0.9241,0.3229,5.764,0.0015,-23.4374,-5.4272,0.0419,-144.0006
140453,-106.2468,15.7243,-0.0101,-0.0379,137.1343,-0.9241,0.3229,5.764,0.0015,-23.4374,-5.4272,0.0419,-144.0006
140473,-106.3959,16.2816,-0.0115,0.1357,125.8549,-0.7635,-1.6548,6.7333,-0.001,-20.2473,9.9233,-0.0255,-95.3073
140485,-106.3959,16.2816,-0.0115,0.1357,125.8549,-0.7635,-1.6548,6.7333,-0.001,-20.2473,9.9233,-0.0255,-95.3073
140501,-106.3959,16.2816,-0.0115,0.1357,125.8549,-0.7635,-1.6548,6.7333,-0.001,-20.2473,9.9233,-0.0255,-95.3073
140517,-106.3959,16.2816,-0.0115,0.1357,125.8549,-0.7635,-1.6548,6.7333,-0.001,-20.2473,9.9233,-0.0255,-95.3073
140533,-106.3959,16.2816,-0.0115,0.1357,125.8549,-0.7635,-1.6548,6.7333,-0.001,-20.2473,9.9233,-0.0255,-95.3073
140549,-106.3959,16.2816,-0.0115,0.1357,125.8549,-0.7635,-1.6548,6.7333,-0.001,-20.2473,9.9233,-0.0255,-95.3073
140565,-106.6243,16.9613,-0.0121,0.1959,117.4009,-0.415,-1.7349,7.7148,-0.0027,-0.8242,10.0994,-0.0171,-85.246
140597,-106.6243,16.9613,-0.0121,0.1959,117.4009,-0.415,-1.7349,7.7148,-0.0027,-0.8242,10.0994,-0.0171,-85.246
140613,-106.6243,16.9613,-0.0121,0.1959,117.4009,-0.415,-1.7349,7.7148,-0.0027,-0.8242,10.0994,-0.0171,-85.246
140629,-106.6243,16.9613,-0.0121,0.1959,117.4009,-0.415,-1.7349,7.7148,-0.0027,-0.8242,10.0994,-0.0171,-85.246
140645,-106.6243,16.9613,-0.0121,0.1959,117.4009,-0.415,-1.7349,7.7148,-0.0027,-0.8242,10.0994,-0.0171,-85.246
140666,-106.8519,17.7196,-0.0123,0.1814,111.1584,-0.2533,-2.3108,8.1391,-0.0019,-5.9518,4.3855,0.0085,-41.5131
140677,-106.8519,17.7196,-0.0123,0.1814,111.1584,-0.2533,-2.3108,8.1391,-0.0019,-5.9518,4.3855,0.0085,-41.5131
140693,-106.8519,17.7196,-0.0123,0.1814,111.1584,-0.2533,-2.3108,8.1391,-0.0019,-5.9518,4.3855,0.0085,-41.5131
140709,-106.8519,17.7196,-0.0123,0.1814,111.1584,-0.2533,-2.3108,8.1391,-0.0019,-5.9518,4.3855,0.0085,-41.5131
140725,-106.8519,17.7196,-0.0123,0.1814,111.1584,-0.2533,-2.3108,8.1391,-0.0019,-5.9518,4.3855,0.0085,-41.5131
140741,-106.8519,17.7196,-0.0123,0.1814,111.1584,-0.2533,-2.3108,8.1391,-0.0019,-5.9518,4.3855,0.0085,-41.5131
140765,-107.1195,18.5021,-0.012,0.1322,109.1534,-0.2431,-2.7774,8.218,-0.0003,-4.8407,0.8185,0.0164,-11.3404
140773,-107.1195,18.5021,-0.012,0.1322,109.1534,-0.2431,-2.7774,8.218,-0.0003,-4.8407,0.8185,0.0164,-11.3404
140789,-107.1195,18.5021,-0.012,0.1322,109.1534,-0.2431,-2.7774,8.218,-0.0003,-4.8407,0.8185,0.0164,-11.3404
140805,-107.1195,18.5021,-0.012,0.1322,109.1534,-0.2431,-2.7774,8.218,-0.0003,-4.8407,0.8185,0.0164,-11.3404
140821,-107.1195,18.5021,-0.012,0.1322,109.1534,-0.2431,-2.7774,8.218,-0.0003,-4.8407,0.8185,0.0164,-11.3404
140837,-107.1195,18.5021,-0.012,0.1322,109.1534,-0.2431,-2.7774,8.218,-0.0003,-4.8407,0.8185,0.0164,-11.3404
140853,-107.1195,18.5021,-0.012,0.1322,109.1534,-0.2431,-2.7774,8.218,-0.0003,-4.8407,0.8185,0.0164,-11.3404
140869,-107.4045,19.3288,-0.0117,0.0861,108.6237,-0.1546,-2.8367,8.3308,-0.0006,-0.5475,1.0415,-0.0028,-3.6952
140885,-107.4045,19.3288,-0.0117,0.0861,108.6237,-0.1546,-2.8367,8.3308,-0.0006,-0.5475,1.0415,-0.0028,-3.6952
140901,-107.4045,19.3288,-0.0117,0.0861,108.6237,-0.1546,-2.8367,8.3308,-0.0006,-0.5475,1.0415,-0.0028,-3.6952
140917,-107.4045,19.3288,-0.0117,0.0861,108.6237,-0.1546,-2.8367,8.3308,-0.0006,-0.5475,1.0415,-0.0028,-3.6952
140933,-107.4045,19.3288,-0.0117,0.0861,108.6237,-0.1546,-2.8367,8.3308,-0.0006,-0.5475,1.0415,-0.0028,-3.6952
140949,-107.4045,19.3288,-0.0117,0.0861,108.6237,-0.1546,-2.8367,8.3308,-0.0006,-0.5475,1.0415,-0.0028,-3.6952
140970,-107.6891,20.1672,-0.0115,0.0558,108.484,-0.0849,-2.8437,8.4314,-0.0005,-0.0696,0.9994,0.0009,-1.7072
140981,-107.6891,20.1672,-0.0115,0.0558,108.484,-0.0849,-2.8437,8.4314,-0.0005,-0.0696,0.9994,0.0009,-1.7072
140997,-107.6891,20.1672,-0.0115,0.0558,108.484,-0.0849,-2.8437,8.4314,-0.0005,-0.0696,0.9994,0.0009,-1.7072
141013,-107.6891,20.1672,-0.0115,0.0558,108.484,-0.0849,-2.8437,8.4314,-0.0005,-0.0696,0.9994,0.0009,-1.7072
141029,-107.6891,20.1672,-0.0115,0.0558,108.484,-0.0849,-2.8437,8.4314,-0.0005,-0.0696,0.9994,0.0009,-1.7072
141045,-107.6891,20.1672,-0.0115,0.0558,108.484,-0.0849,-2.8437,8.4314,-0.0005,-0.0696,0.9994,0.0009,-1.7072
141061,-107.6891,20.1672,-0.0115,0.0558,108.484,-0.0849,-2.8437,8.4314,-0.0005,-0.0696,0.9994,0.0009,-1.7072
141077,-107.9739,21.015,-0.0114,0.0376,108.446,-0.045,-2.8542,8.5167,-0.0003,-0.1023,0.8288,0.0024,-1.1692
141093,-107.9739,21.015,-0.0114,0.0376,108.446,-0.045,-2.8542,8.5167,-0.0003,-0.1023,0.8288,0.0024,-1.1692
141109,-107.9739,21.015,-0.0114,0.0376,108.446,-0.045,-2.8542,8.5167,-0.0003,-0.1023,0.8288,0.0024,-1.1692
141125,-107.9739,21.015,-0.0114,0.0376,108.446,-0.045,-2.8542,8.5167,-0.0003,-0.1023,0.8288,0.0024,-1.1692
141141,-107.9739,21.015,-0.0114,0.0376,108.446,-0.045,-2.8542,8.5167,-0.0003,-0.1023,0.8288,0.0024,-1.1692
141157,-107.9739,21.015,-0.0114,0.0376,108.446,-0.045,-2.8542,8.5167,-0.0003,-0.1023,0.8288,0.0024,-1.1692
141179,-108.2602,21.8709,-0.0113,0.0268,108.4354,-0.0238,-2.8709,8.5926,-0.0001,-0.1632,0.7421,0.0014,-1.0136
141189,-108.2602,21.8709,-0.0113,0.0268,108.4354,-0.0238,-2.8709,8.5926,-0.0001,-0.1632,0.7421,0.0014,-1.0136
141205,-108.2602,21.8709,-0.0113,0.0268,108.4354,-0.0238,-2.8709,8.5926,-0.0001,-0.1632,0.7421,0.0014,-1.0136
141221,-108.2602,21.8709,-0.0113,0.0268,108.4354,-0.0238,-2.8709,8.5926,-0.0001,-0.1632,0.7421,0.0014,-1.0136
141237,-108.2602,21.8709,-0.0113,0.0268,108.4354,-0.0238,-2.8709,8.5926,-0.0001,-0.1632,0.7421,0.0014,-1.0136
141253,-108.2602,21.8709,-0.0113,0.0268,108.4354,-0.0238,-2.8709,8.5926,-0.0001,-0.1632,0.7421,0.0014,-1.0136
141269,-108.2602,21.8709,-0.0113,0.0268,108.4354,-0.0238,-2.8709,8.5926,-0.0001,-0.1632,0.7421,0.0014,-1.0136
141285,-108.2602,21.8709,-0.0113,0.0268,108.4354,-0.0238,-2.8709,8.5926,-0.0001,-0.1632,0.7421,0.0014,-1.0136
141301,-108.5483,22.734,-0.0113,0.0206,108.4323,-0.0128,-2.8907,8.6633,-0.0,-0.1722,0.6143,0.0008,-0.9621
141317,-108.5483,22.734,-0.0113,0.0206,108.4323,-0.0128,-2.8907,8.6633,-0.0,-0.1722,0.6143,0.0008,-0.9621
141333,-108.5483,22.734,-0.0113,0.0206,108.4323,-0.0128,-2.8907,8.6633,-0.0,-0.1722,0.6143,0.0008,-0.9621
141349,-108.5483,22.734,-0.0113,0.0206,108.4323,-0.0128,-2.8907,8.6633,-0.0,-0.1722,0.6143,0.0008,-0.9621
141365,-108.5483,22.734,-0.0113,0.0206,108.4323,-0.0128,-2.8907,8.6633,-0.0,-0.1722,0.6143,0.0008,-0.9621
141381,-108.5483,22.734,-0.0113,0.0206,108.4323,-0.0128,-2.8907,8.6633,-0.0,-0.1722,0.6143,0.0008,-0.9621
141397,-108.5483,22.734,-0.0113,0.0206,108.4323,-0.0128,-2.8907,8.6633,-0.0,-0.1722,0.6143,0.0008,-0.9621
141413,-108.8384,23.6041,-0.0113,0.0169,108.4314,-0.007,-2.9116,8.7307,0.0,-0.1757,0.5668,0.0003,-0.9399
141429,-108.8384,23.6041,-0.0113,0.0169,108.4314,-0.007,-2.9116,8.7307,0.0,-0.1757,0.5668,0.0003,-0.9399
141445,-108.8384,23.6041,-0.0113,0.0169,108.4314,-0.007,-2.9116,8.7307,0.0,-0.1757,0.5668,0.0003,-0.9399
141461,-108.8384,23.6041,-0.0113,0.0169,108.4314,-0.007,-2.9116,8.7307,0.0,-0.1757,0.5668,0.0003,-0.9399
141477,-108.8384,23.6041,-0.0113,0.0169,108.4314,-0.007,-2.9116,8.7307,0.0,-0.1757,0.5668,0.0003,-0.9399
141493,-108.8384,23.6041,-0.0113,0.0169,108.4314,-0.007,-2.9116,8.7307,0.0,-0.1757,0.5668,0.0003,-0.9399
141509,-108.8384,23.6041,-0.0113,0.0169,108.4314,-0.007,-2.9116,8.7307,0.0,-0.1757,0.5668,0.0003,-0.9399
141525,-108.8384,23.6041,-0.0113,0.0169,108.4314,-0.007,-2.9116,8.7307,0.0,-0.1757,0.5668,0.0003,-0.9399
141548,-109.1307,24.4807,-0.0113,0.0147,108.4312,-0.0038,-2.9327,8.7959,0.0,-0.1568,0.4852,0.0001,-0.9266
141558,-109.1307,24.4807,-0.0113,0.0147,108.4312,-0.0038,-2.9327,8.7959,0.0,-0.1568,0.4852,0.0001,-0.9266
141574,-109.1307,24.4807,-0.0113,0.0147,108.4312,-0.0038,-2.9327,8.7959,0.0,-0.1568,0.4852,0.0001,-0.9266
141590,-109.1307,24.4807,-0.0113,0.0147,108.4312,-0.0038,-2.9327,8.7959,0.0,-0.1568,0.4852,0.0001,-0.9266
141606,-109.1307,24.4807,-0.0113,0.0147,108.4312,-0.0038,-2.9327,8.7959,0.0,-0.1568,0.4852,0.0001,-0.9266
141622,-109.1307,24.4807,-0.0113,0.0147,108.4312,-0.0038,-2.9327,8.7959,0.0,-0.1568,0.4852,0.0001,-0.9266
141638,-109.1307,24.4807,-0.0113,0.0147,108.4312,-0.0038,-2.9327,8.7959,0.0,-0.1568,0.4852,0.0001,-0.9266
141663,-109.4251,25.3638,-0.0113,0.0134,108.4312,-0.0021,-2.9536,8.8594,0.0,-0.1787,0.5433,-0.0001,-0.9158
141670,-109.4251,25.3638,-0.0113,0.0134,108.4312,-0.0021,-2.9536,8.8594,0.0,-0.1787,0.5433,-0.0001,-0.9158
141686,-109.4251,25.3638,-0.0113,0.0134,108.4312,-0.0021,-2.9536,8.8594,0.0,-0.1787,0.5433,-0.0001,-0.9158
141702,-109.4251,25.3638,-0.0113,0.0134,108.4312,-0.0021,-2.9536,8.8594,0.0,-0.1787,0.5433,-0.0001,-0.9158
141718,-109.4251,25.3638,-0.0113,0.0134,108.4312,-0.0021,-2.9536,8.8594,0.0,-0.1787,0.5433,-0.0001,-0.9158
141734,-109.4251,25.3638,-0.0113,0.0134,108.4312,-0.0021,-2.9536,8.8594,0.0,-0.1787,0.5433,-0.0001,-0.9158
141750,-109.4251,25.3638,-0.0113,0.0134,108.4312,-0.0021,-2.9536,8.8594,0.0,-0.1787,0.5433,-0.0001,-0.9158
141766,-109.4251,25.3638,-0.0113,0.0134,108.4312,-0.0021,-2.9536,8.8594,0.0,-0.1787,0.5433,-0.0001,-0.9158
