timestamp,x,y,z,pitch,yaw,roll,vx,vy,vz,ax,ay,az,yaw_rate
13054,-106.6867,-4.8475,0.5164,0.0,-89.3578,0.0,0.0,0.0,-1.2197,0.0,0.0,-9.8,0.0
13070,-106.6867,-4.8475,0.5039,0.0,-89.3578,0.0,0.0,0.0,-1.3126,0.0,0.0,-9.8,0.0
13086,-106.6867,-4.8475,0.5039,0.0,-89.3578,0.0,0.0,0.0,-1.3126,0.0,0.0,-9.8,0.0
13104,-106.6867,-4.8475,0.4503,0.0,-89.3578,0.0,0.0,0.0,-1.6565,0.0,0.0,-9.8,0.0
13119,-106.6867,-4.8475,0.4185,0.0,-89.3578,0.0,0.0,0.0,-1.8308,0.0,0.0,-9.8,0.0
13135,-106.6867,-4.8475,0.383,0.0,-89.3578,0.0,0.0,0.0,-2.008,0.0,0.0,-9.8,0.0
13152,-106.6867,-4.8475,0.3446,0.0,-89.3578,0.0,0.0,0.0,-2.1839,0.0,0.0,-9.8,0.0
13167,-106.6867,-4.8475,0.3446,0.0,-89.3578,0.0,0.0,0.0,-2.1839,0.0,0.0,-9.8,0.0
13182,-106.6867,-4.8475,0.3015,0.0,-89.3578,0.0,0.0,0.0,-2.3658,0.0,0.0,-9.8,0.0
13199,-106.6867,-4.8475,0.2578,0.0,-89.3578,0.0,0.0,0.0,-2.5377,0.0,0.0,-9.8,0.0
13214,-106.6867,-4.8475,0.2103,0.0,-89.3578,0.0,0.0,0.0,-2.7122,0.0,0.0,-9.8,0.0
13231,-106.6867,-4.8475,0.1604,0.0,-89.3578,0.0,0.0,0.0,-2.8841,0.0,0.0,-9.8,0.0
13247,-106.6867,-4.8475,0.1079,0.0,-89.3578,0.0,0.0,0.0,-3.0548,0.0,0.0,-9.8,0.0
13264,-106.6867,-4.8465,0.0526,-0.0017,-89.3578,0.0,-0.0011,0.1025,-3.1853,-0.0657,5.863,-7.4621,-0.0001
13280,-106.6868,-4.8452,0.0079,-0.0031,-89.3578,0.0,-0.001,0.088,-2.3366,0.0092,-0.8182,47.9296,-0.0
13294,-106.6868,-4.844,-0.0259,-0.0038,-89.3578,0.0,-0.0009,0.0833,-1.6712,0.0029,-0.2553,35.9761,0.0
13310,-106.6868,-4.8428,-0.0475,-0.0042,-89.3578,0.0,-0.0009,0.0813,-1.195,0.0013,-0.1194,28.7834,0.0
13326,-106.6868,-4.8428,-0.0475,-0.0042,-89.3578,0.0,-0.0009,0.0813,-1.195,0.0013,-0.1194,28.7834,0.0
13342,-106.6868,-4.8417,-0.0628,-0.0043,-89.3578,0.0,-0.0009,0.0844,-0.8236,-0.0021,0.1828,22.2012,-0.0
13358,-106.6868,-4.8405,-0.0732,-0.0043,-89.3578,0.0,-0.001,0.086,-0.5226,-0.001,0.092,17.075,-0.0
13376,-106.6869,-4.8392,-0.0794,-0.0043,-89.3578,0.0,-0.001,0.0898,-0.2893,-0.0024,0.2108,12.9905,0.0
13390,-106.6869,-4.836,-0.0821,-0.007,-89.3578,0.0,-0.0022,0.1932,-0.1185,-0.066,5.9008,9.757,-0.0006
13408,-106.687,-4.8299,-0.0824,-0.0129,-89.3578,0.0,-0.0043,0.385,0.0116,-0.1172,10.4725,7.098,-0.0001
13424,-106.687,-4.8216,-0.081,-0.0199,-89.3578,0.0,-0.0058,0.5206,0.1008,-0.0873,7.7578,5.1029,-0.0001
13438,-106.6872,-4.8109,-0.0783,-0.0273,-89.3578,0.0,-0.0066,0.59,0.1635,-0.0437,3.9091,3.532,0.0007
13455,-106.6873,-4.799,-0.075,-0.0343,-89.3578,0.0,-0.0084,0.753,0.2025,-0.1106,9.8556,2.3582,0.0002
13470,-106.6874,-4.7852,-0.0713,-0.041,-89.3577,0.0,-0.0094,0.8407,0.227,-0.0599,5.3097,1.485,0.0091
13488,-106.6876,-4.7694,-0.0672,-0.047,-89.3576,0.0,-0.0104,0.9246,0.2407,-0.0579,4.9452,0.806,0.0147
13502,-106.6878,-4.7518,-0.0627,-0.0528,-89.3559,0.0,-0.0117,1.0469,0.2777,-0.0751,7.1134,2.1565,0.2134
13518,-106.6881,-4.7326,-0.0579,-0.0569,-89.3532,0.0,-0.0119,1.0434,0.2672,-0.0122,-0.1961,-0.5991,0.1433
13534,-106.6881,-4.7326,-0.0579,-0.0569,-89.3532,0.0,-0.0119,1.0434,0.2672,-0.0122,-0.1961,-0.5991,0.1433
13550,-106.6883,-4.7137,-0.0535,-0.0574,-89.3512,0.0001,-0.012,1.0398,0.2519,-0.0057,-0.2061,-0.878,0.0983
13566,-106.6886,-4.6951,-0.0493,-0.0559,-89.3507,0.0001,-0.0121,1.0392,0.2353,-0.0044,-0.0342,-0.9676,-0.0222
13582,-106.6888,-4.6756,-0.0453,-0.0531,-89.3511,0.0001,-0.0119,1.0372,0.2188,0.008,-0.1108,-0.9122,-0.0184
13598,-106.689,-4.6568,-0.0418,-0.0497,-89.352,0.0,-0.0118,1.0354,0.1998,0.0067,-0.1027,-1.0859,-0.0915
13614,-106.6892,-4.6371,-0.0384,-0.0457,-89.3534,0.0,-0.0116,1.033,0.1829,0.0108,-0.1351,-0.9221,-0.0685
13633,-106.6894,-4.6175,-0.0353,-0.0417,-89.3544,-0.0,-0.0115,1.0293,0.165,0.0079,-0.2001,-0.9801,-0.0512
13648,-106.6896,-4.5987,-0.0327,-0.0383,-89.3552,-0.0,-0.0117,1.0574,0.1481,-0.0119,1.6089,-0.9734,-0.0449
13662,-106.6898,-4.5783,-0.0302,-0.0352,-89.3557,-0.0,-0.0117,1.0538,0.134,-0.0016,-0.1942,-0.7593,-0.0255
13678,-106.6898,-4.5783,-0.0302,-0.0352,-89.3557,-0.0,-0.0117,1.0538,0.134,-0.0016,-0.1942,-0.7593,-0.0255
13694,-106.6901,-4.557,-0.028,-0.0361,-89.3559,-0.0001,-0.0133,1.1857,0.119,-0.0891,7.6315,-0.8664,-0.0138
13710,-106.6903,-4.5364,-0.0262,-0.0355,-89.3561,-0.0001,-0.0132,1.1808,0.1068,0.0027,-0.2954,-0.7238,-0.0088
13726,-106.6906,-4.5111,-0.0243,-0.0378,-89.3561,-0.0,-0.0147,1.309,0.0965,-0.0793,6.8773,-0.5531,-0.0009
13744,-106.6908,-4.4886,-0.0229,-0.0377,-89.3562,-0.0,-0.0146,1.3029,0.0849,0.004,-0.3665,-0.6943,-0.0021
13758,-106.6911,-4.4626,-0.0215,-0.0402,-89.3563,0.0,-0.0161,1.4286,0.0764,-0.0807,7.1313,-0.4832,-0.0081
13775,-106.6914,-4.4369,-0.0202,-0.0402,-89.3563,0.0,-0.016,1.4227,0.0679,0.004,-0.3404,-0.4861,-0.0056
13792,-106.6917,-4.4095,-0.0192,-0.0426,-89.3561,0.0,-0.0174,1.5466,0.0603,-0.0811,7.1965,-0.44,0.0163
13808,-106.692,-4.3823,-0.0182,-0.0425,-89.3559,0.0,-0.0173,1.5407,0.0536,0.0034,-0.3453,-0.3872,0.0124
13823,-106.6923,-4.353,-0.0173,-0.0446,-89.3569,0.0,-0.0186,1.6602,0.0477,-0.0753,6.9583,-0.3451,-0.0529
13840,-106.6927,-4.3234,-0.0166,-0.0451,-89.3517,0.0,-0.019,1.6773,0.0424,-0.0209,0.9916,-0.3092,0.2804
13854,-106.6929,-4.2892,-0.0158,-0.0467,-89.3744,0.0,-0.0208,1.7681,0.0377,-0.0994,4.8303,-0.2487,-0.9964
13870,-106.6929,-4.2892,-0.0158,-0.0467,-89.3744,0.0,-0.0208,1.7681,0.0377,-0.0994,4.8303,-0.2487,-0.9964
13886,-106.6935,-4.252,-0.0152,-0.0522,-89.3514,0.0003,-0.0271,2.0633,0.0329,-0.3389,15.9154,-0.2579,0.9844
13902,-106.6941,-4.2122,-0.0146,-0.0598,-89.3452,0.0004,-0.0269,2.1683,0.0288,0.0104,5.8511,-0.23,0.3306
13920,-106.6946,-4.1733,-0.0141,-0.0625,-89.3384,0.0005,-0.0263,2.144,0.0253,0.0344,-1.3855,-0.198,-0.7479
13935,-106.6951,-4.1278,-0.0136,-0.0656,-89.3494,0.0003,-0.0265,2.2828,0.0224,-0.0058,7.1296,-0.1485,-0.5256
13952,-106.6954,-4.089,-0.0133,-0.0665,-89.361,0.0001,-0.0258,2.3729,0.0193,0.0397,5.5139,-0.1896,-0.6707
13968,-106.696,-4.0465,-0.013,-0.0687,-89.3484,-0.0,-0.0274,2.4575,0.0173,-0.0931,4.9822,-0.1211,0.6486
13983,-106.6963,-4.0008,-0.0127,-0.072,-89.3673,-0.0003,-0.0265,2.6476,0.0153,0.0525,10.9561,-0.1124,-0.5644
14000,-106.6969,-3.9534,-0.0124,-0.075,-89.3529,-0.0005,-0.0277,2.6997,0.0136,-0.0685,3.017,-0.1031,0.4113
14014,-106.6972,-3.903,-0.0122,-0.0781,-89.3898,-0.0008,-0.0271,2.8661,0.012,0.0323,9.4652,-0.0893,-2.3063
14030,-106.6977,-3.8514,-0.012,-0.0808,-89.3856,-0.0008,-0.0301,2.94,0.0106,-0.1726,4.2679,-0.0829,0.4913
14046,-106.6977,-3.8514,-0.012,-0.0808,-89.3856,-0.0008,-0.0301,2.94,0.0106,-0.1726,4.2679,-0.0829,0.4913
14063,-106.698,-3.7966,-0.0118,-0.0842,-89.4187,-0.001,-0.0293,3.135,0.0093,0.042,11.0877,-0.0697,-1.9522
14078,-106.6986,-3.7375,-0.0116,-0.0869,-89.4109,-0.0011,-0.0305,3.1789,0.0082,-0.0634,2.4016,-0.0614,0.2238
14095,-106.699,-3.6732,-0.0114,-0.0891,-89.4453,-0.0014,-0.0293,3.3446,0.0072,0.0649,8.6227,-0.0534,-1.3543
14112,-106.6995,-3.6158,-0.0113,-0.0902,-89.4493,-0.0015,-0.0309,3.3981,0.0062,-0.1015,3.2115,-0.058,-1.1096
14127,-106.6997,-3.5512,-0.0112,-0.09,-89.4969,-0.0017,-0.0304,3.4706,0.0055,0.027,3.9353,-0.0371,-2.1671
14144,-106.7002,-3.4887,-0.0111,-0.0889,-89.5021,-0.0018,-0.0298,3.5344,0.0048,0.0381,3.658,-0.0414,-0.9027
14160,-106.7004,-3.4205,-0.0111,-0.088,-89.5443,-0.0021,-0.0289,3.6383,0.0043,0.0449,5.5863,-0.0292,-2.0022
14174,-106.7008,-3.3565,-0.011,-0.0868,-89.5543,-0.0023,-0.0289,3.7026,0.0037,0.0056,3.7634,-0.0327,-1.5785
14190,-106.7008,-3.3565,-0.011,-0.0868,-89.5543,-0.0023,-0.0289,3.7026,0.0037,0.0056,3.7634,-0.0327,-1.5785
14206,-106.7012,-3.2822,-0.0109,-0.0882,-89.576,-0.0025,-0.0279,3.9041,0.0033,0.0482,10.6092,-0.0221,-0.9653
14222,-106.7016,-3.2118,-0.0109,-0.0883,-89.6004,-0.0026,-0.0279,3.9629,0.0028,0.0049,3.3351,-0.0253,-1.4092
14239,-106.7021,-3.1385,-0.0108,-0.0903,-89.6014,-0.0025,-0.0293,4.1397,0.0025,-0.0841,9.9945,-0.0194,0.1177
14256,-106.7024,-3.0604,-0.0108,-0.0914,-89.6332,-0.0026,-0.0289,4.2104,0.0022,0.0235,3.8473,-0.0161,-1.4767
14271,-106.703,-2.9812,-0.0107,-0.0915,-89.6145,-0.0025,-0.029,4.3021,0.0019,-0.0027,5.0137,-0.0156,0.9336
14288,-106.7034,-2.9023,-0.0107,-0.0913,-89.6386,-0.0024,-0.0291,4.3998,0.0017,-0.0071,5.474,-0.0138,-1.1774
14302,-106.7041,-2.8167,-0.0107,-0.0907,-89.6137,-0.0022,-0.0295,4.485,0.0015,-0.023,4.5009,-0.0106,1.1476
14318,-106.7041,-2.8167,-0.0107,-0.0907,-89.6137,-0.0022,-0.0295,4.485,0.0015,-0.023,4.5009,-0.0106,1.1476
14334,-106.7045,-2.732,-0.0107,-0.0902,-89.637,-0.0022,-0.03,4.5886,0.0013,-0.0249,5.6387,-0.0109,-1.1275
14351,-106.7053,-2.6423,-0.0106,-0.0896,-89.6113,-0.0019,-0.0307,4.6807,0.0011,-0.0381,4.8348,-0.0081,1.166
14367,-106.7057,-2.5543,-0.0106,-0.0892,-89.6349,-0.0018,-0.0312,4.7933,0.001,-0.0256,6.1551,-0.0083,-1.2053
14383,-106.7065,-2.4658,-0.0106,-0.0894,-89.6123,-0.0016,-0.0323,4.9063,0.0008,-0.0618,6.2809,-0.0071,1.1987
14400,-106.7069,-2.3802,-0.0106,-0.0902,-89.6332,-0.0016,-0.0327,5.0353,0.0007,-0.0252,7.5916,-0.0066,-1.2786
14416,-106.7076,-2.2919,-0.0106,-0.0917,-89.6139,-0.0014,-0.0341,5.1659,0.0006,-0.0796,7.6422,-0.0047,1.1949
14430,-106.708,-2.2024,-0.0105,-0.0938,-89.6329,-0.0013,-0.0344,5.3005,0.0006,-0.0218,7.9643,-0.0038,-1.1847
14448,-106.7088,-2.1102,-0.0105,-0.0963,-89.6154,-0.0011,-0.0359,5.4409,0.0005,-0.0875,8.2864,-0.0041,1.0765
14462,-106.7093,-2.0147,-0.0105,-0.0991,-89.6318,-0.0011,-0.0363,5.5836,0.0004,-0.0197,8.3399,-0.0043,-0.9432
14478,-106.71,-1.9156,-0.0105,-0.102,-89.6161,-0.0009,-0.0379,5.7256,0.0004,-0.0925,8.1939,-0.002,0.8234
14494,-106.7106,-1.8125,-0.0105,-0.1062,-89.6317,-0.0055,-0.038,5.8643,-0.0037,-0.0064,7.896,-0.2337,-0.741
14510,-106.7106,-1.8125,-0.0105,-0.1062,-89.6317,-0.0055,-0.038,5.8643,-0.0037,-0.0064,7.896,-0.2337,-0.741
14526,-106.7113,-1.7122,-0.0104,-0.1081,-89.6172,-0.0031,-0.0397,6.002,0.001,-0.1007,8.2283,0.2795,0.8314
14542,-106.712,-1.6041,-0.0104,-0.1102,-89.6306,-0.0018,-0.0398,6.1475,0.0007,-0.0091,8.2744,-0.0138,-0.6104
14560,-106.7128,-1.4946,-0.0104,-0.1122,-89.6184,-0.0009,-0.0413,6.2901,0.0006,-0.0863,8.1799,-0.0086,0.5204
14576,-106.7135,-1.3669,-0.0103,-0.1138,-89.6343,-0.0005,-0.0414,6.4167,0.0004,-0.005,6.3715,-0.0071,-0.5456
14592,-106.7144,-1.2463,-0.0103,-0.114,-89.6178,-0.0001,-0.0428,6.5245,0.0003,-0.074,5.84,-0.0055,0.5461
14607,-106.715,-1.1292,-0.0103,-0.1139,-89.6325,-0.0001,-0.043,6.6504,0.0003,-0.0129,7.1504,-0.005,-0.4446
14622,-106.716,-1.0007,-0.0103,-0.1143,-89.6207,0.0001,-0.0446,6.7992,0.0002,-0.0829,7.8639,-0.0023,0.3326
14638,-106.716,-1.0007,-0.0103,-0.1143,-89.6207,0.0001,-0.0446,6.7992,0.0002,-0.0829,7.8639,-0.0023,0.3326
14654,-106.7167,-0.8717,-0.0103,-0.1145,-89.6327,0.0,-0.0449,6.9273,0.0002,-0.0151,6.8788,-0.0028,-0.4334
14670,-106.7176,-0.7516,-0.0103,-0.1147,-89.6226,0.0001,-0.0462,7.0538,0.0001,-0.0766,7.4164,-0.0019,0.357
14688,-106.7184,-0.6086,-0.0103,-0.115,-89.6345,0.0,-0.0465,7.1933,0.0001,-0.0166,7.0203,-0.0015,-0.3378
14703,-106.7193,-0.4784,-0.0103,-0.1147,-89.6251,0.0001,-0.0476,7.3086,0.0001,-0.0632,6.4679,-0.0011,0.3506
14720,-106.7201,-0.3524,-0.0103,-0.1147,-89.6338,-0.0,-0.048,7.4391,0.0,-0.023,7.687,-0.0017,-0.2954
14736,-106.7211,-0.1936,-0.0103,-0.116,-89.6313,0.0,-0.0495,7.6556,0.0,-0.0698,10.3481,-0.0001,-0.0129
14752,-106.722,-0.0531,-0.0103,-0.1179,-89.6314,0.0,-0.0505,7.8196,0.0,-0.0547,9.0702,-0.0004,0.0059
14766,-106.722,-0.0531,-0.0103,-0.1179,-89.6314,0.0,-0.0505,7.8196,0.0,-0.0547,9.0702,-0.0004,0.0059
14782,-106.7229,0.0807,-0.0103,-0.1197,-89.6315,0.0,-0.0513,7.9635,0.0,-0.0522,8.5274,-0.001,0.0176
14798,-106.7238,0.2206,-0.0103,-0.1214,-89.6315,-0.0,-0.0522,8.1039,0.0,-0.0499,8.0974,0.0,0.0359
14816,-106.7247,0.3653,-0.0103,-0.1226,-89.6315,-0.0,-0.0531,8.2396,0.0,-0.0477,7.6953,-0.0005,0.0688
14830,-106.7257,0.511,-0.0103,-0.1233,-89.6314,-0.0,-0.0538,8.3675,0.0,-0.0454,7.3145,0.0004,0.1218
14846,-106.7267,0.6758,-0.0102,-0.1234,-89.6308,-0.0,-0.0547,8.5032,0.0,-0.0431,6.9682,-0.0005,0.288
14863,-106.7278,0.8368,-0.0103,-0.1229,-89.6305,-0.0,-0.0555,8.6216,0.0,-0.0409,6.3175,-0.0002,0.541
14879,-106.7287,0.9858,-0.0103,-0.1218,-89.6309,-0.0,-0.0561,8.7206,0.0,-0.0386,5.7752,-0.0003,0.6807
14894,-106.7297,1.1417,-0.0103,-0.1202,-89.6301,-0.0,-0.0567,8.821,-0.0,-0.0351,5.661,-0.0005,0.94
14910,-106.7307,1.2924,-0.0103,-0.1184,-89.6297,-0.0,-0.0573,8.9121,0.0,-0.0332,5.3762,0.0006,1.0418
14926,-106.7307,1.2924,-0.0103,-0.1184,-89.6297,-0.0,-0.0573,8.9121,0.0,-0.0332,5.3762,0.0006,1.0418
14942,-106.7317,1.4451,-0.0103,-0.1164,-89.6294,-0.0,-0.0578,9.0031,0.0,-0.0306,5.3497,-0.0,1.0752
14958,-106.7327,1.604,-0.0103,-0.1141,-89.6287,-0.0,-0.0583,9.0943,-0.0,-0.0299,5.2084,-0.0009,1.1749
14974,-106.7337,1.7607,-0.0103,-0.1118,-89.6287,-0.0001,-0.0589,9.1818,-0.0,-0.0301,5.1157,0.0004,1.1012
14991,-106.7348,1.9284,-0.0104,-0.1094,-89.6278,-0.0,-0.0594,9.2732,0.0,-0.0306,5.0389,0.0009,1.2755
15009,-106.7359,2.0942,-0.0104,-0.107,-89.628,-0.0,-0.0599,9.3593,0.0,-0.0295,4.8483,-0.0004,1.236
15023,-106.7369,2.2593,-0.0104,-0.1047,-89.6282,-0.0001,-0.0605,9.4459,0.0,-0.0307,4.9434,0.0001,1.1464
15040,-106.738,2.4251,-0.0104,-0.1026,-89.6285,-0.0,-0.061,9.5331,0.0,-0.0316,5.0027,-0.0003,1.0651
15056,-106.739,2.5919,-0.0104,-0.1007,-89.6287,-0.0,-0.0616,9.6204,-0.0,-0.0321,5.0207,-0.0003,0.9933
15072,-106.7401,2.7627,-0.0104,-0.0989,-89.6287,-0.0,-0.0621,9.7083,-0.0,-0.0319,4.9867,-0.0001,0.9808
15086,-106.7413,2.9454,-0.0104,-0.0971,-89.6279,-0.0,-0.0627,9.7982,0.0,-0.0303,4.8073,0.0002,1.1686
15102,-106.7413,2.9454,-0.0104,-0.0971,-89.6279,-0.0,-0.0627,9.7982,0.0,-0.0303,4.8073,0.0002,1.1686
15118,-106.7425,3.1351,-0.0105,-0.0952,-89.6271,0.0,-0.0633,9.8843,-0.0,-0.0282,4.4758,-0.001,1.3877
15136,-106.7438,3.3271,-0.0105,-0.0931,-89.6268,-0.0,-0.0638,9.9665,0.0,-0.0264,4.2586,0.0011,1.4838
15150,-106.7449,3.5042,-0.0105,-0.0913,-89.6282,-0.0,-0.0642,10.0454,0.0,-0.027,4.4645,0.0001,1.102
15168,-106.746,3.6783,-0.0105,-0.0899,-89.6291,0.0,-0.0648,10.1284,-0.0,-0.032,4.8199,-0.0015,0.8553
15184,-106.7471,3.8545,-0.0105,-0.0887,-89.6297,0.0,-0.0654,10.2131,0.0,-0.0328,4.8991,0.0014,0.7017
15200,-106.7483,4.0322,-0.0105,-0.0877,-89.6301,0.0,-0.0659,10.2972,-0.0,-0.0323,4.8624,-0.0008,0.6176
15216,-106.7494,4.2138,-0.0105,-0.0869,-89.6302,0.0,-0.0665,10.3809,0.0,-0.0313,4.78,0.0009,0.5937
15230,-106.7506,4.3942,-0.0105,-0.0861,-89.6304,0.0,-0.067,10.4621,-0.0,-0.0308,4.6961,-0.0006,0.5395
15246,-106.7517,4.5758,-0.0105,-0.0853,-89.6306,0.0,-0.0675,10.542,-0.0,-0.0302,4.6294,0.0002,0.4959
15262,-106.7517,4.5758,-0.0105,-0.0853,-89.6306,0.0,-0.0675,10.542,-0.0,-0.0302,4.6294,0.0002,0.4959
15278,-106.7529,4.7614,-0.0105,-0.0845,-89.6306,0.0,-0.068,10.6216,0.0,-0.0294,4.5474,0.0002,0.4857
15294,-106.7541,4.9489,-0.0105,-0.0837,-89.6307,0.0,-0.0685,10.6999,-0.0,-0.0287,4.4581,-0.0002,0.4779
15311,-106.7554,5.1519,-0.0105,-0.0828,-89.6301,0.0,-0.069,10.7815,0.0,-0.027,4.3309,0.0001,0.6066
15326,-106.7568,5.3646,-0.0106,-0.0817,-89.6291,0.0,-0.0695,10.8626,-0.0,-0.0253,4.1304,-0.0009,0.8113
15344,-106.7579,5.5478,-0.0106,-0.0807,-89.6301,-0.0,-0.07,10.9315,0.0,-0.0281,4.1072,0.0016,0.5238
15358,-106.7593,5.754,-0.0106,-0.0797,-89.6298,0.0,-0.0705,11.0091,-0.0,-0.0268,4.1329,-0.0011,0.6051
15374,-106.7605,5.9437,-0.0106,-0.0787,-89.6303,0.0,-0.071,11.0789,0.0,-0.0276,4.071,0.0011,0.4657
15390,-106.7618,6.1427,-0.0106,-0.0777,-89.6304,0.0,-0.0715,11.1515,0.0,-0.0269,4.0606,-0.0002,0.4476
15407,-106.7629,6.3251,-0.0106,-0.0769,-89.631,0.0,-0.0719,11.2173,0.0,-0.0277,4.0426,0.0002,0.2907
15422,-106.7629,6.3251,-0.0106,-0.0769,-89.631,0.0,-0.0719,11.2173,0.0,-0.0277,4.0426,0.0002,0.2907
15438,-106.7643,6.5312,-0.0106,-0.076,-89.6309,0.0,-0.0724,11.2905,0.0,-0.0261,4.0047,-0.0002,0.3164
15454,-106.7655,6.7306,-0.0106,-0.0751,-89.631,0.0,-0.0729,11.3596,0.0,-0.0259,3.9264,0.0,0.2899
15472,-106.7669,6.9411,-0.0106,-0.0742,-89.6308,0.0,-0.0733,11.4308,-0.0,-0.0249,3.8602,-0.0004,0.3192
15488,-106.7682,7.152,-0.0106,-0.0733,-89.6307,0.0,-0.0738,11.5002,-0.0,-0.0245,3.7819,0.0001,0.3382
15504,-106.7696,7.3594,-0.0106,-0.0724,-89.6308,0.0,-0.0742,11.5671,0.0,-0.0243,3.723,0.0005,0.3215
15520,-106.7708,7.5533,-0.0106,-0.0716,-89.6312,0.0,-0.0746,11.6288,-0.0,-0.0249,3.6993,-0.0008,0.2219
15536,-106.7721,7.75,-0.0106,-0.0707,-89.6314,0.0,-0.075,11.6908,0.0,-0.0243,3.677,0.0007,0.1598
15550,-106.7735,7.9665,-0.0106,-0.0699,-89.6314,0.0,-0.0755,11.7576,-0.0,-0.0235,3.6255,-0.001,0.166
15567,-106.7748,8.1748,-0.0106,-0.069,-89.6315,0.0,-0.0759,11.8206,-0.0,-0.0232,3.5688,0.0005,0.1426
15583,-106.7761,8.3741,-0.0107,-0.0682,-89.6317,0.0,-0.0763,11.8798,0.0,-0.0233,3.5248,0.0007,0.0978
15598,-106.7761,8.3741,-0.0107,-0.0682,-89.6317,0.0,-0.0763,11.8798,0.0,-0.0233,3.5248,0.0007,0.0978
15614,-106.7775,8.5885,-0.0107,-0.0674,-89.6317,0.0,-0.0767,11.9424,0.0,-0.0226,3.4784,-0.0003,0.0885
15632,-106.7788,8.7998,-0.0107,-0.0666,-89.6318,0.0,-0.0771,12.0028,-0.0,-0.0223,3.4285,-0.0001,0.073
15646,-106.7802,9.0085,-0.0107,-0.0658,-89.6319,0.0,-0.0774,12.0614,-0.0,-0.022,3.3822,-0.0005,0.0551
15664,-106.7816,9.2296,-0.0107,-0.0649,-89.6319,0.0,-0.0778,12.1223,-0.0,-0.0215,3.3362,0.0003,0.0513
15680,-106.783,9.4462,-0.0107,-0.0642,-89.6319,0.0,-0.0782,12.1809,-0.0,-0.0212,3.2899,0.0,0.0425
15696,-106.7845,9.6837,-0.0107,-0.0633,-89.6319,0.0,-0.0786,12.2439,-0.0,-0.0209,3.2441,0.0001,0.0491
15710,-106.7859,9.9018,-0.0107,-0.0625,-89.632,0.0,-0.079,12.3007,0.0,-0.0205,3.1985,0.0001,0.0391
15726,-106.7859,9.9018,-0.0107,-0.0625,-89.632,0.0,-0.079,12.3007,0.0,-0.0205,3.1985,0.0001,0.0391
15742,-106.7873,10.119,-0.0107,-0.0617,-89.632,0.0,-0.0793,12.3563,0.0,-0.0204,3.1583,0.0004,0.0296
15758,-106.7887,10.3409,-0.0107,-0.0609,-89.632,0.0,-0.0797,12.4121,0.0,-0.0201,3.118,0.0003,0.0237
15776,-106.7901,10.5587,-0.0107,-0.0602,-89.632,0.0,-0.08,12.4659,0.0,-0.0199,3.0786,-0.0005,0.017
15790,-106.7916,10.7828,-0.0107,-0.0594,-89.632,0.0,-0.0804,12.5204,0.0,-0.0196,3.0404,0.0001,0.0134
15808,-106.7931,11.0166,-0.0107,-0.0586,-89.632,0.0,-0.0808,12.5763,0.0,-0.0193,3.0017,0.0001,0.0122
15824,-106.7944,11.2277,-0.0107,-0.0579,-89.632,0.0,-0.0811,12.6259,-0.0,-0.0191,2.9642,-0.0008,0.0069
15838,-106.7959,11.457,-0.0107,-0.0572,-89.6321,-0.0,-0.0814,12.6767,-0.0,-0.0181,2.8079,-0.0007,0.0056
15854,-106.7973,11.6799,-0.0107,-0.0563,-89.6321,0.0,-0.0817,12.7226,0.0,-0.0168,2.6177,0.0011,0.004
15872,-106.7987,11.9028,-0.0107,-0.0553,-89.6321,0.0,-0.082,12.7653,-0.0,-0.0157,2.4432,-0.001,0.0029
15886,-106.8002,12.1259,-0.0108,-0.0542,-89.6321,0.0,-0.0822,12.8051,0.0,-0.0147,2.2807,0.0016,0.002
15902,-106.8002,12.1259,-0.0108,-0.0542,-89.6321,0.0,-0.0822,12.8051,0.0,-0.0147,2.2807,0.0016,0.002
15918,-106.8016,12.3475,-0.0108,-0.053,-89.6321,0.0,-0.0825,12.8419,0.0,-0.0137,2.1292,-0.0001,0.0014
15934,-106.803,12.5708,-0.0108,-0.0517,-89.6321,0.0,-0.0827,12.8764,0.0,-0.0128,1.9886,-0.0003,0.001
15952,-106.8045,12.805,-0.0108,-0.0502,-89.6321,0.0,-0.0829,12.9101,0.0,-0.012,1.858,-0.0001,0.0009
15967,-106.806,13.0297,-0.0108,-0.0487,-89.6321,0.0,-0.0831,12.9401,0.0,-0.0111,1.7293,0.0003,0.0006
15985,-106.8075,13.2636,-0.0108,-0.047,-89.6321,0.0,-0.0833,12.9693,-0.0,-0.0104,1.6141,-0.0004,0.0006
15999,-106.809,13.4971,-0.0108,-0.0453,-89.6321,-0.0,-0.0835,12.9963,-0.0,-0.0096,1.5037,-0.0004,0.0005
16016,-106.8104,13.7156,-0.0108,-0.0437,-89.6321,0.0,-0.0836,13.0197,-0.0,-0.009,1.3967,0.0005,0.0003
16032,-106.8118,13.9405,-0.0108,-0.0421,-89.6321,-0.0,-0.0838,13.0423,-0.0,-0.0083,1.3048,-0.0009,0.0002
16047,-106.8133,14.1711,-0.0109,-0.0403,-89.6321,0.0,-0.0839,13.0638,0.0,-0.0078,1.2203,0.001,0.0002
16078,-106.8148,14.3981,-0.0109,-0.0382,-89.6321,-0.0006,-0.084,13.0835,-0.0006,-0.0091,1.137,-0.0332,0.0025
16094,-106.8163,14.6422,-0.0109,-0.0366,-89.632,-0.0003,-0.0842,13.1034,0.0001,-0.0082,1.0655,0.0348,0.0022
16110,-106.8185,14.883,-0.0109,-0.0349,-89.6587,0.0046,-0.1448,13.1177,0.0001,-3.2978,0.7773,-0.0008,-2.0699
16128,-106.8223,15.1457,-0.0109,-0.0328,-89.7541,0.0179,-0.2664,13.1206,0.0002,-6.0778,0.1445,0.0058,-6.2907
16144,-106.8278,15.3768,-0.0109,-0.0303,-89.9322,0.0388,-0.4115,13.1115,0.0004,-8.2284,-0.516,0.0105,-11.4313
16160,-106.8349,15.5977,-0.0109,-0.0274,-90.1975,0.0633,-0.5686,13.093,0.0006,-9.32,-1.094,0.0127,-17.2047
16176,-106.8441,15.818,-0.011,-0.0239,-90.5691,0.091,-0.7373,13.0656,0.0008,-10.009,-1.6245,0.0133,-23.6816
16190,-106.8555,16.0406,-0.011,-0.0198,-91.0652,0.1204,-0.9144,13.0297,0.001,-10.3683,-2.106,0.0118,-30.8569
16206,-106.8689,16.2615,-0.011,-0.0151,-91.6875,0.1495,-1.0917,12.9869,0.0011,-10.4266,-2.5166,0.008,-38.5216
16222,-106.8845,16.4826,-0.011,-0.0098,-92.4504,0.1774,-1.2671,12.938,0.0012,-10.2627,-2.8573,0.006,-46.6881
16238,-106.8845,16.4826,-0.011,-0.0098,-92.4504,0.1774,-1.2671,12.938,0.0012,-10.2627,-2.8573,0.006,-46.6881
16255,-106.9022,16.7068,-0.011,-0.004,-93.3773,0.2034,-1.4396,12.8836,0.0013,-9.9043,-3.1282,0.0023,-55.4345
16270,-106.923,16.9445,-0.011,0.0025,-94.5422,0.2278,-1.6139,12.8215,0.0013,-9.3915,-3.347,-0.0009,-65.2045
16286,-106.9454,17.1802,-0.0111,0.0091,-95.8906,0.2473,-1.7733,12.7576,0.0012,-8.6045,-3.4499,-0.0053,-75.3198
16306,-106.9671,17.3956,-0.0111,0.0149,-97.295,0.2603,-1.9029,12.6993,0.001,-7.6137,-3.4234,-0.0075,-84.8501
16318,-106.9941,17.6513,-0.0111,0.0211,-99.1804,0.2693,-2.0327,12.6323,0.0008,-6.3735,-3.2886,-0.0115,-96.4468
16336,-107.0241,17.9276,-0.0112,0.0273,-101.5127,0.2718,-2.1468,12.5616,0.0005,-5.1398,-3.183,-0.0119,-109.4223
16350,-107.0241,17.9276,-0.0112,0.0273,-101.5127,0.2718,-2.1468,12.5616,0.0005,-5.1398,-3.183,-0.0119,-109.4223
16366,-107.0472,18.1377,-0.0112,0.0312,-103.5059,0.2684,-2.213,12.5103,0.0003,-3.8888,-3.0142,-0.0115,-119.5714
16382,-107.071,18.3549,-0.0112,0.0343,-105.7708,0.26,-2.2599,12.4606,0.0001,-2.6384,-2.7999,-0.0133,-130.2743
16400,-107.0942,18.5708,-0.0112,0.0363,-108.2331,0.2468,-2.282,12.4157,-0.0001,-1.2452,-2.525,-0.0127,-141.0664
16414,-107.1149,18.7708,-0.0112,0.0367,-110.7043,0.2306,-2.2778,12.3791,-0.0003,0.2502,-2.1988,-0.0135,-151.1213
16430,-107.1362,18.9877,-0.0112,0.0357,-113.6085,0.2081,-2.2504,12.3428,-0.0006,1.5098,-1.9921,-0.0122,-162.2159
16448,-107.1555,19.2013,-0.0112,0.033,-116.6972,0.1822,-2.1949,12.3121,-0.0008,3.0592,-1.6954,-0.0118,-173.1889
16464,-107.1715,19.4009,-0.0112,0.0281,-119.774,0.1534,-2.0793,12.3022,-0.0009,6.7667,-0.5776,-0.0095,-182.1404
16478,-107.1854,19.6166,-0.0111,0.019,-123.2791,0.1137,-1.8801,12.3074,-0.0012,10.6921,0.2783,-0.0121,-190.0832
16494,-107.1942,19.8125,-0.0111,0.0074,-126.5967,0.0726,-1.6414,12.3162,-0.0014,14.0034,0.5138,-0.0145,-196.0103
16510,-107.1942,19.8125,-0.0111,0.0074,-126.5967,0.0726,-1.6414,12.3162,-0.0014,14.0034,0.5138,-0.0145,-196.0103
16526,-107.1987,20.0154,-0.011,-0.0083,-130.1547,0.0244,-1.3476,12.3205,-0.0017,16.5112,0.2437,-0.0144,-201.2171
16542,-107.1981,20.217,-0.0109,-0.0268,-133.8024,-0.0268,-1.0158,12.3139,-0.0016,18.605,-0.3742,0.0026,-205.5708
16563,-107.1923,20.4118,-0.0108,-0.0468,-137.4267,-0.0778,-0.6622,12.2914,-0.0005,20.3262,-1.2917,0.0657,-209.1686
16574,-107.1788,20.6385,-0.0106,-0.0712,-141.7584,-0.1352,-0.2176,12.2393,0.0005,21.7065,-2.5422,0.0497,-212.6068
16592,-107.1594,20.8409,-0.0104,-0.0957,-145.7457,-0.1911,0.2038,12.1668,0.0011,22.688,-3.904,0.0306,-215.3582
16606,-107.1355,21.0275,-0.0102,-0.1183,-149.5154,-0.24,0.609,12.0736,0.0016,23.3203,-5.365,0.0271,-217.4723
16622,-107.1066,21.2076,-0.01,-0.1401,-153.2491,-0.2857,1.0133,11.9566,0.0019,23.6998,-6.8558,0.0169,-219.3343
16638,-107.0731,21.3813,-0.0098,-0.1609,-156.9455,-0.3285,1.4127,11.8163,0.002,23.8389,-8.3741,0.0098,-221.0096
16654,-107.0348,21.5499,-0.0096,-0.1807,-160.6354,-0.3688,1.8075,11.652,0.0021,23.773,-9.8945,0.0048,-222.5789
16686,-106.9934,21.7087,-0.0095,-0.1987,-164.2097,-0.4053,2.1833,11.4701,0.0021,23.5153,-11.3819,0.0009,-224.0483
16702,-106.9446,21.8729,-0.0093,-0.217,-168.0309,-0.4424,2.575,11.253,0.0021,23.0895,-12.799,-0.0016,-225.6588
16718,-106.8934,22.0267,-0.0091,-0.233,-171.732,-0.4771,2.9203,10.9886,0.0021,21.1182,-16.1687,0.0001,-226.4164
16735,-106.8351,22.1853,-0.009,-0.2472,-175.7128,-0.5183,3.2206,10.6322,0.0022,17.1286,-20.3339,0.0056,-227.3747
16750,-106.7766,22.3315,-0.0089,-0.258,-179.5658,-0.5599,3.4636,10.2516,0.0022,14.3808,-22.5227,0.0017,-228.2645
16767,-106.7154,22.473,-0.0088,-0.2664,176.5041,-0.6038,3.666,9.8351,0.0023,11.7836,-24.2435,0.0018,-228.8863
16782,-106.648,22.6182,-0.0087,-0.273,172.2271,-0.6531,3.8301,9.355,0.0023,8.7935,-25.7216,0.0004,-229.2374
16798,-106.5887,22.7392,-0.0086,-0.2766,168.4519,-0.6952,3.9234,8.9134,0.0022,5.6664,-26.8164,-0.0017,-229.2134
16816,-106.5339,22.8496,-0.0086,-0.2754,164.8647,-0.7332,3.8094,8.5494,0.0022,-7.218,-23.0318,-0.0043,-224.9158
16832,-106.4837,22.9606,-0.0086,-0.2626,161.3012,-0.7641,3.4919,8.2788,0.002,-19.4454,-16.5755,-0.0119,-215.9783
16848,-106.4412,23.0654,-0.0088,-0.2452,157.9961,-0.7844,3.1864,8.0378,-0.0018,-19.3996,-15.3019,-0.2387,-207.8531
16865,-106.4047,23.1682,-0.009,-0.2232,154.7881,-0.8044,2.8463,7.8013,-0.0013,-21.4735,-14.9368,0.0327,-200.9734
16878,-106.3732,23.274,-0.0092,-0.1958,151.4991,-0.8294,2.4718,7.5502,0.0033,-22.4133,-15.0229,0.2756,-195.478
16896,-106.3486,23.3789,-0.0093,-0.1666,148.2172,-0.857,2.091,7.3195,0.0027,-22.3406,-13.5347,-0.0386,-191.653
16911,-106.3325,23.4753,-0.0095,-0.1404,145.1926,-0.8807,1.7098,7.1405,0.0022,-23.8486,-11.1997,-0.0285,-188.3613
16927,-106.3231,23.5748,-0.0096,-0.1126,142.1258,-0.9006,1.2884,7.0307,0.0018,-25.299,-6.5949,-0.025,-182.541
16944,-106.321,23.67,-0.0098,-0.0854,139.3164,-0.912,0.8789,6.9947,0.0014,-25.8218,-2.2664,-0.0242,-175.2463
16960,-106.3257,23.7687,-0.01,-0.0567,136.5862,-0.9157,0.4634,7.0114,0.001,-25.7055,1.035,-0.0232,-166.7194
16975,-106.337,23.8708,-0.0102,-0.0267,133.9734,-0.9121,0.052,7.0742,0.0007,-25.1624,3.8401,-0.0226,-157.4413
16992,-106.3544,23.9753,-0.0104,0.003,131.5268,-0.9027,-0.3429,7.164,0.0003,-24.24,5.5089,-0.0231,-147.7301
17008,-106.3792,24.0895,-0.0107,0.0338,129.1153,-0.8878,-0.7382,7.2792,-0.0,-22.874,6.6678,-0.018,-136.7805
17024,-106.409,24.2052,-0.0109,0.0621,126.9359,-0.8689,-1.0914,7.415,-0.0003,-20.8379,8.0093,-0.0175,-125.8557
17040,-106.4447,24.3289,-0.0111,0.089,124.8675,-0.843,-1.4008,7.5784,-0.0006,-17.6378,9.3175,-0.0171,-115.3891
17056,-106.4816,24.4496,-0.0113,0.111,123.0533,-0.8105,-1.6068,7.7492,-0.0009,-12.4276,10.3049,-0.017,-107.673
17070,-106.5213,24.5776,-0.0114,0.13,121.2839,-0.7643,-1.7141,7.9312,-0.0012,-6.2962,10.6727,-0.0197,-102.6279
17086,-106.5213,24.5776,-0.0114,0.13,121.2839,-0.7643,-1.7141,7.9312,-0.0012,-6.2962,10.6727,-0.0197,-102.6279
17102,-106.5657,24.7228,-0.0116,0.1466,119.4115,-0.6992,-1.7532,8.1247,-0.0015,-2.0789,10.3094,-0.017,-98.9547
17119,-106.61,24.8733,-0.0117,0.1587,117.5698,-0.6238,-1.7216,8.31,-0.002,1.6678,9.786,-0.0224,-96.8183
17135,-106.6506,25.0187,-0.0118,0.1663,115.8561,-0.5482,-1.6422,8.4746,-0.0024,4.4441,9.214,-0.0218,-95.728
17151,-106.6902,25.1713,-0.0119,0.171,114.11,-0.4668,-1.5242,8.6327,-0.0027,6.4347,8.6193,-0.0187,-95.1814
17167,-106.7262,25.3215,-0.012,0.173,112.4302,-0.3887,-1.3824,8.7749,-0.003,8.0078,8.0325,-0.0156,-94.9764
17198,-106.7914,25.6395,-0.0121,0.1715,108.9697,-0.2314,-1.0266,9.0356,-0.0033,10.2324,6.8387,-0.0074,-95.1534
17214,-106.7914,25.6395,-0.0121,0.1715,108.9697,-0.2314,-1.0266,9.0356,-0.0033,10.2324,6.8387,-0.0074,-95.1534
17230,-106.8196,25.8021,-0.0121,0.1694,107.2744,-0.1637,-0.9033,9.1628,-0.0034,6.7732,6.9894,-0.004,-92.7463
17248,-106.8471,25.9726,-0.0122,0.1672,105.6259,-0.1106,-0.8639,9.2876,-0.0033,2.0997,6.6544,0.0036,-86.9395
17264,-106.8758,26.1576,-0.0122,0.1647,104.0205,-0.0763,-0.8899,9.4138,-0.003,-1.2957,6.2946,0.0191,-76.8522
17278,-106.9061,26.3539,-0.0122,0.1609,102.573,-0.0612,-1.0008,9.5052,-0.0024,-5.286,4.3605,0.0243,-64.886
17294,-106.9061,26.3539,-0.0122,0.1609,102.573,-0.0612,-1.0008,9.5052,-0.0024,-5.286,4.3605,0.0243,-64.886
17310,-106.9353,26.536,-0.0122,0.1555,101.5115,-0.0665,-1.1661,9.5516,-0.0019,-8.5852,2.4093,0.0275,-51.8501
17326,-106.9657,26.7174,-0.0122,0.1485,100.6958,-0.0813,-1.3149,9.5847,-0.0012,-7.8022,1.7335,0.0379,-39.9918
17342,-106.9965,26.8977,-0.0122,0.1407,100.0795,-0.0957,-1.4171,9.619,-0.0005,-5.4214,1.8192,0.0351,-30.5268
17361,-107.0312,27.1002,-0.0121,0.132,99.5565,-0.1056,-1.4858,9.6599,-0.0001,-3.2641,1.9427,0.0223,-22.2617
17374,-107.0635,27.2901,-0.012,0.123,99.2067,-0.1088,-1.5211,9.6962,0.0001,-1.7935,1.8465,0.0106,-16.3285
17390,-107.0635,27.2901,-0.012,0.123,99.2067,-0.1088,-1.5211,9.6962,0.0001,-1.7935,1.8465,0.0106,-16.3285
17406,-107.0925,27.4625,-0.012,0.1153,98.9687,-0.107,-1.5348,9.727,0.0002,-0.7717,1.7333,0.0026,-12.2264
17422,-107.1243,27.6554,-0.0119,0.1066,98.7736,-0.1007,-1.5369,9.7558,0.0002,-0.1038,1.4526,-0.0011,-8.5226
17438,-107.1564,27.8537,-0.0118,0.1044,98.617,-0.0737,-1.5299,9.778,0.0214,0.3433,1.093,1.0477,-7.2197
17455,-107.1855,28.0398,-0.0112,0.1256,98.5091,0.0238,-1.5277,9.8003,0.0385,0.1147,1.1773,0.8997,-5.6864
17470,-107.1855,28.0398,-0.0112,0.1256,98.5091,0.0238,-1.5277,9.8003,0.0385,0.1147,1.1773,0.8997,-5.6864
17486,-107.2162,28.2327,-0.0111,0.1159,98.4286,0.0112,-1.5291,9.8249,-0.0363,-0.0696,1.2471,-3.8062,-4.4996
17502,-107.2467,28.4273,-0.0112,0.0994,98.3648,-0.0107,-1.5066,9.8388,-0.0102,1.1342,0.7008,1.3197,-4.1667
17520,-107.275,28.6105,-0.0112,0.0872,98.3226,-0.0185,-1.4934,9.8516,-0.0076,0.7075,0.689,0.1356,-3.5668
17535,-107.3051,28.8092,-0.0113,0.0771,98.2934,-0.0204,-1.4826,9.8713,-0.0055,0.5391,0.9767,0.104,-1.094
17551,-107.3345,29.005,-0.0113,0.0685,98.2742,-0.0188,-1.4738,9.8895,-0.0046,0.4405,0.919,0.0481,-0.023
17566,-107.3345,29.005,-0.0113,0.0685,98.2742,-0.0188,-1.4738,9.8895,-0.0046,0.4405,0.919,0.0481,-0.023
17582,-107.3635,29.1999,-0.0113,0.0612,98.2614,-0.0162,-1.4668,9.9001,-0.0036,0.3594,0.5383,0.0515,1.1288
17600,-107.3925,29.3963,-0.0113,0.0547,98.25,-0.0133,-1.4608,9.9044,-0.0028,0.3009,0.2167,0.0391,1.7936
17616,-107.4192,29.5773,-0.0113,0.0495,98.2393,-0.0109,-1.4569,9.9124,-0.0022,0.2138,0.4402,0.0318,1.4565
17632,-107.4463,29.7613,-0.0113,0.0449,98.2318,-0.0087,-1.4535,9.9212,-0.0018,0.1794,0.4751,0.0233,1.6008
17648,-107.4748,29.9566,-0.0113,0.0405,98.2267,-0.0066,-1.4504,9.9279,-0.0014,0.1624,0.3373,0.0183,2.0536
17662,-107.4748,29.9566,-0.0113,0.0405,98.2267,-0.0066,-1.4504,9.9279,-0.0014,0.1624,0.3373,0.0183,2.0536
17678,-107.5028,30.1485,-0.0113,0.0366,98.2216,-0.0049,-1.4479,9.9345,-0.0011,0.1254,0.342,0.0153,2.0431
17696,-107.5311,30.3427,-0.0113,0.0332,98.2179,-0.0035,-1.446,9.9415,-0.0009,0.0979,0.3605,0.0116,2.1531
17712,-107.5588,30.5345,-0.011,0.0106,98.2169,0.024,-1.4447,9.9552,0.0224,0.0708,0.7084,1.2079,2.3494
17726,-107.5871,30.7311,-0.0104,-0.0197,98.2175,0.0576,-1.4461,9.9608,0.0176,-0.075,0.2812,-0.2425,2.3828
17742,-107.6137,30.9162,-0.0097,-0.0559,98.2199,0.0977,-1.4488,9.9825,0.0299,-0.1455,1.1715,0.6603,2.41
17758,-107.6137,30.9162,-0.0097,-0.0559,98.2199,0.0977,-1.4488,9.9825,0.0299,-0.1455,1.1715,0.6603,2.41
17774,-107.6411,31.1028,-0.0104,-0.0166,98.2248,0.0376,-1.4454,9.9881,-0.0202,0.1818,0.2995,-2.6872,1.7325
17792,-107.6716,31.3124,-0.0109,0.0097,98.2253,0.0046,-1.446,10.0163,-0.014,-0.0264,1.3462,0.2991,-0.1935
17806,-107.7016,31.52,-0.0112,0.025,98.2311,-0.0113,-1.4474,10.0331,-0.0096,-0.0663,0.8125,0.2117,0.4183
17822,-107.729,31.7098,-0.0114,0.033,98.2356,-0.0183,-1.4495,10.0476,-0.0068,-0.1151,0.7672,0.148,0.7326
17839,-107.7568,31.9026,-0.0116,0.0371,98.2405,-0.0211,-1.4516,10.0583,-0.0044,-0.1093,0.5602,0.1269,1.325
17854,-107.7568,31.9026,-0.0116,0.0371,98.2405,-0.0211,-1.4516,10.0583,-0.0044,-0.1093,0.5602,0.1269,1.325
17871,-107.7837,32.089,-0.0116,0.0385,98.2435,-0.0216,-1.4534,10.0653,-0.0027,-0.0938,0.3794,0.0922,1.7254
17888,-107.8114,32.2806,-0.0117,0.0381,98.2459,-0.021,-1.4549,10.0709,-0.0015,-0.0801,0.2906,0.0635,2.0622
17904,-107.8385,32.4682,-0.0117,0.0367,98.2466,-0.0198,-1.4564,10.0764,-0.0006,-0.0781,0.296,0.0455,2.0077
17920,-107.866,32.6588,-0.0117,0.0348,98.2476,-0.0184,-1.4578,10.0822,-0.0,-0.0747,0.3087,0.0302,2.0789
17934,-107.8936,32.8494,-0.0116,0.0326,98.2481,-0.017,-1.4591,10.0883,0.0003,-0.072,0.3212,0.0203,2.0744
17950,-107.8936,32.8494,-0.0116,0.0326,98.2481,-0.017,-1.4591,10.0883,0.0003,-0.072,0.3212,0.0203,2.0744
17966,-107.9231,33.0532,-0.0116,0.0306,98.2437,-0.0156,-1.4624,10.1058,0.0006,-0.1618,0.8681,0.013,-0.4025
17983,-107.9519,33.252,-0.0116,0.0287,98.2406,-0.0141,-1.4651,10.1195,0.0008,-0.1368,0.6976,0.0095,-1.0338
18000,-107.9795,33.4432,-0.0116,0.0269,98.2383,-0.0128,-1.4668,10.128,0.0008,-0.0897,0.4502,0.0031,-1.6184
18015,-108.0077,33.6374,-0.0115,0.025,98.2372,-0.0117,-1.4679,10.1332,0.0009,-0.0575,0.272,0.0008,-2.0027
18030,-108.0359,33.8325,-0.0115,0.0232,98.237,-0.0106,-1.4688,10.1378,0.0009,-0.0486,0.239,-0.0003,-2.1235
18046,-108.0359,33.8325,-0.0115,0.0232,98.237,-0.0106,-1.4688,10.1378,0.0009,-0.0486,0.239,-0.0003,-2.1235
18062,-108.0647,34.0307,-0.0115,0.0214,98.2369,-0.0096,-1.4697,10.1424,0.0008,-0.046,0.2354,-0.0025,-2.236
18080,-108.0936,34.2306,-0.0114,0.0196,98.2368,-0.0086,-1.4706,10.1471,0.0008,-0.0438,0.2348,-0.0016,-2.3042
18096,-108.1231,34.4343,-0.0114,0.0184,98.2415,-0.0078,-1.4731,10.1656,0.0007,-0.1257,0.9256,-0.005,0.389
18110,-108.1516,34.6313,-0.0114,0.0175,98.2445,-0.007,-1.475,10.1801,0.0007,-0.0961,0.7466,-0.0008,0.9176
18126,-108.1516,34.6313,-0.0114,0.0175,98.2445,-0.007,-1.475,10.1801,0.0007,-0.0961,0.7466,-0.0008,0.9176
18142,-108.1835,34.851,-0.0114,0.0168,98.24,-0.0062,-1.4772,10.1957,0.0006,-0.1053,0.7273,-0.0044,-0.4989
18159,-108.2117,35.0458,-0.0114,0.0162,98.2371,-0.0056,-1.479,10.2075,0.0005,-0.0912,0.6138,-0.0011,-1.0585
18176,-108.2406,35.2452,-0.0113,0.0155,98.2337,-0.005,-1.48,10.2146,0.0005,-0.0544,0.3627,-0.0027,-1.7747
18190,-108.27,35.4478,-0.0113,0.0147,98.2322,-0.0044,-1.4805,10.2174,0.0004,-0.0215,0.1417,-0.0034,-2.2315
18206,-108.27,35.4478,-0.0113,0.0147,98.2322,-0.0044,-1.4805,10.2174,0.0004,-0.0215,0.1417,-0.0034,-2.2315
18222,-108.3009,35.6614,-0.0113,0.014,98.2378,-0.004,-1.4824,10.2327,0.0004,-0.0909,0.7345,-0.0031,0.4962
18240,-108.3289,35.8553,-0.0113,0.0135,98.2405,-0.0035,-1.4837,10.2444,0.0003,-0.0722,0.6179,-0.0014,1.0193
18256,-108.3567,36.0473,-0.0113,0.0131,98.2427,-0.0031,-1.4846,10.2522,0.0003,-0.0485,0.4189,-0.0018,1.5265
18271,-108.3874,36.2585,-0.0113,0.0127,98.2379,-0.0028,-1.4866,10.2656,0.0003,-0.0954,0.6477,-0.0021,-0.4421
18287,-108.4156,36.4538,-0.0113,0.0124,98.2352,-0.0024,-1.4882,10.2764,0.0002,-0.0868,0.5699,-0.001,-0.941
18302,-108.4156,36.4538,-0.0113,0.0124,98.2352,-0.0024,-1.4882,10.2764,0.0002,-0.0868,0.5699,-0.001,-0.941
18318,-108.4432,36.644,-0.0113,0.0121,98.2332,-0.0022,-1.4894,10.2838,0.0002,-0.0601,0.402,-0.0015,-1.4042
18334,-108.4727,36.8479,-0.0113,0.0116,98.2304,-0.0019,-1.49,10.2878,0.0002,-0.0323,0.1995,-0.0026,-2.0547
18352,-108.5018,37.0483,-0.0113,0.0109,98.2302,-0.0017,-1.4904,10.2902,0.0001,-0.0189,0.1236,-0.0008,-2.1542
18367,-108.5298,37.2416,-0.0113,0.0103,98.2308,-0.0015,-1.4911,10.2951,0.0001,-0.0372,0.2619,-0.0,-1.9421
