timestamp,x,y,z,pitch,yaw,roll,vx,vy,vz,ax,ay,az,yaw_rate
50500,-106.6867,-4.8475,0.4741,0.0,-89.3578,0.0,0.0,0.0,-1.5227,0.0,0.0,-9.8,0.0
50515,-106.6867,-4.8475,0.4741,0.0,-89.3578,0.0,0.0,0.0,-1.5227,0.0,0.0,-9.8,0.0
50531,-106.6867,-4.8475,0.4741,0.0,-89.3578,0.0,0.0,0.0,-1.5227,0.0,0.0,-9.8,0.0
50547,-106.6867,-4.8475,0.4741,0.0,-89.3578,0.0,0.0,0.0,-1.5227,0.0,0.0,-9.8,0.0
50563,-106.6867,-4.8475,0.4741,0.0,-89.3578,0.0,0.0,0.0,-1.5227,0.0,0.0,-9.8,0.0
50579,-106.6867,-4.8475,0.4741,0.0,-89.3578,0.0,0.0,0.0,-1.5227,0.0,0.0,-9.8,0.0
50595,-106.6867,-4.8475,0.4741,0.0,-89.3578,0.0,0.0,0.0,-1.5227,0.0,0.0,-9.8,0.0
50611,-106.6867,-4.8475,0.4741,0.0,-89.3578,0.0,0.0,0.0,-1.5227,0.0,0.0,-9.8,0.0
50627,-106.6867,-4.8475,0.4741,0.0,-89.3578,0.0,0.0,0.0,-1.5227,0.0,0.0,-9.8,0.0
50643,-106.6867,-4.8475,0.4741,0.0,-89.3578,0.0,0.0,0.0,-1.5227,0.0,0.0,-9.8,0.0
50659,-106.6867,-4.8475,0.4741,0.0,-89.3578,0.0,0.0,0.0,-1.5227,0.0,0.0,-9.8,0.0
50677,-106.6867,-4.8475,0.4741,0.0,-89.3578,0.0,0.0,0.0,-1.5227,0.0,0.0,-9.8,0.0
50693,-106.6867,-4.8475,0.4741,0.0,-89.3578,0.0,0.0,0.0,-1.5227,0.0,0.0,-9.8,0.0
50709,-106.6867,-4.8475,0.4741,0.0,-89.3578,0.0,0.0,0.0,-1.5227,0.0,0.0,-9.8,0.0
50725,-106.6867,-4.8475,0.2679,0.0,-89.3578,0.0,0.0,0.0,-2.5027,0.0,0.0,-4.4683,0.0
50741,-106.6867,-4.8475,0.2679,0.0,-89.3578,0.0,0.0,0.0,-2.5027,0.0,0.0,-4.4683,0.0
50757,-106.6867,-4.8475,0.1735,0.0,-89.3578,0.0,0.0,0.0,-2.8434,0.0,0.0,-9.8,0.0
50773,-106.6867,-4.8475,0.1735,0.0,-89.3578,0.0,0.0,0.0,-2.8434,0.0,0.0,-9.8,0.0
50789,-106.6867,-4.8475,0.0632,0.0,-89.3578,0.0,0.0,0.0,-3.1962,0.0,0.0,-9.8,0.0
50805,-106.6867,-4.8475,0.0632,0.0,-89.3578,0.0,0.0,0.0,-3.1962,0.0,0.0,-9.8,0.0
50821,-106.6867,-4.8461,-0.0103,-0.0018,-89.3578,0.0,-0.0004,0.0347,-1.9717,-0.0129,1.1505,40.5538,0.0
50837,-106.6867,-4.8461,-0.0103,-0.0018,-89.3578,0.0,-0.0004,0.0347,-1.9717,-0.0129,1.1505,40.5538,0.0
50853,-106.6868,-4.8442,-0.0598,-0.0026,-89.3578,0.0,-0.0003,0.0276,-0.9086,0.0021,-0.1842,27.2864,0.0
50869,-106.6868,-4.8442,-0.0598,-0.0026,-89.3578,0.0,-0.0003,0.0276,-0.9086,0.0021,-0.1842,27.2864,0.0
50893,-106.6868,-4.8425,-0.0787,-0.0026,-89.3578,0.0,-0.0003,0.0287,-0.3206,-0.0004,0.0301,15.9403,0.0
50901,-106.6868,-4.8425,-0.0787,-0.0026,-89.3578,0.0,-0.0003,0.0287,-0.3206,-0.0004,0.0301,15.9403,0.0
50917,-106.6868,-4.8425,-0.0787,-0.0026,-89.3578,0.0,-0.0003,0.0287,-0.3206,-0.0004,0.0301,15.9403,0.0
50933,-106.6868,-4.8382,-0.0824,-0.0065,-89.3577,0.0,-0.0024,0.2163,0.0127,-0.0539,4.8162,8.552,0.0026
50949,-106.6868,-4.8382,-0.0824,-0.0065,-89.3577,0.0,-0.0024,0.2163,0.0127,-0.0539,4.8162,8.552,0.0026
50969,-106.687,-4.8255,-0.0785,-0.0183,-89.3572,0.0001,-0.0073,0.4244,0.1595,-0.1442,6.1985,4.3734,0.6984
50981,-106.687,-4.8255,-0.0785,-0.0183,-89.3572,0.0001,-0.0073,0.4244,0.1595,-0.1442,6.1985,4.3734,0.6984
50997,-106.687,-4.8255,-0.0785,-0.0183,-89.3572,0.0001,-0.0073,0.4244,0.1595,-0.1442,6.1985,4.3734,0.6984
51013,-106.687,-4.8255,-0.0785,-0.0183,-89.3572,0.0001,-0.0073,0.4244,0.1595,-0.1442,6.1985,4.3734,0.6984
51032,-106.6879,-4.7785,-0.0636,-0.0441,-89.3111,0.0002,-0.0111,0.8923,0.2448,-0.0585,7.0622,1.2877,0.6335
51045,-106.6879,-4.7785,-0.0636,-0.0441,-89.3111,0.0002,-0.0111,0.8923,0.2448,-0.0585,7.0622,1.2877,0.6335
51061,-106.6885,-4.7447,-0.0552,-0.0532,-89.2945,0.0003,-0.0136,1.0667,0.2373,-0.0725,5.0676,-0.2171,0.0772
51077,-106.6885,-4.7447,-0.0552,-0.0532,-89.2945,0.0003,-0.0136,1.0667,0.2373,-0.0725,5.0676,-0.2171,0.0772
51093,-106.6885,-4.7447,-0.0552,-0.0532,-89.2945,0.0003,-0.0136,1.0667,0.2373,-0.0725,5.0676,-0.2171,0.0772
51109,-106.6889,-4.7055,-0.0466,-0.0592,-89.2995,0.0002,-0.0143,1.1724,0.2328,-0.0188,3.0619,-0.13,-0.1061
51125,-106.6889,-4.7055,-0.0466,-0.0592,-89.2995,0.0002,-0.0143,1.1724,0.2328,-0.0188,3.0619,-0.13,-0.1061
51141,-106.6893,-4.6686,-0.0398,-0.0559,-89.3017,0.0001,-0.0141,1.1663,0.1939,0.0057,-0.1854,-1.1927,-0.048
51157,-106.6893,-4.6686,-0.0398,-0.0559,-89.3017,0.0001,-0.0141,1.1663,0.1939,0.0057,-0.1854,-1.1927,-0.048
51173,-106.6898,-4.6288,-0.0337,-0.0484,-89.3005,0.0001,-0.0142,1.1607,0.1593,-0.0032,-0.1586,-0.97,0.0937
51189,-106.6898,-4.6288,-0.0337,-0.0484,-89.3005,0.0001,-0.0142,1.1607,0.1593,-0.0032,-0.1586,-0.97,0.0937
51211,-106.6903,-4.5898,-0.0289,-0.0406,-89.2971,0.0001,-0.0143,1.1584,0.1275,-0.0018,-0.0633,-0.9088,0.1049
51221,-106.6903,-4.5898,-0.0289,-0.0406,-89.2971,0.0001,-0.0143,1.1584,0.1275,-0.0018,-0.0633,-0.9088,0.1049
51240,-106.6909,-4.5504,-0.0253,-0.0389,-89.2916,0.0001,-0.016,1.2852,0.1025,-0.0545,3.9118,-0.7727,0.1872
51253,-106.6909,-4.5504,-0.0253,-0.0389,-89.2916,0.0001,-0.016,1.2852,0.1025,-0.0545,3.9118,-0.7727,0.1872
51272,-106.6914,-4.5071,-0.0224,-0.0392,-89.2863,0.0001,-0.017,1.3816,0.0829,-0.0282,2.9345,-0.5978,0.1429
51285,-106.6914,-4.5071,-0.0224,-0.0392,-89.2863,0.0001,-0.017,1.3816,0.0829,-0.0282,2.9345,-0.5978,0.1429
51304,-106.692,-4.4618,-0.0201,-0.0412,-89.2808,0.0001,-0.0187,1.5039,0.0667,-0.0557,3.8726,-0.5107,0.2201
51317,-106.692,-4.4618,-0.0201,-0.0412,-89.2808,0.0001,-0.0187,1.5039,0.0667,-0.0557,3.8726,-0.5107,0.2201
51333,-106.6927,-4.4103,-0.0181,-0.0416,-89.2798,0.0,-0.0195,1.6152,0.0534,-0.0234,3.2586,-0.3915,-0.4375
51349,-106.6927,-4.4103,-0.0181,-0.0416,-89.2798,0.0,-0.0195,1.6152,0.0534,-0.0234,3.2586,-0.3915,-0.4375
51369,-106.6933,-4.3596,-0.0166,-0.0429,-89.2765,0.0001,-0.022,1.7318,0.0424,-0.079,3.7166,-0.3499,-0.4493
51381,-106.6933,-4.3596,-0.0166,-0.0429,-89.2765,0.0001,-0.022,1.7318,0.0424,-0.079,3.7166,-0.3499,-0.4493
51397,-106.6933,-4.3596,-0.0166,-0.0429,-89.2765,0.0001,-0.022,1.7318,0.0424,-0.079,3.7166,-0.3499,-0.4493
51413,-106.6941,-4.2908,-0.0151,-0.0467,-89.2821,0.0,-0.0229,1.8954,0.0331,-0.0226,4.2011,-0.2398,1.4087
51429,-106.6941,-4.2908,-0.0151,-0.0467,-89.2821,0.0,-0.0229,1.8954,0.0331,-0.0226,4.2011,-0.2398,1.4087
51448,-106.6954,-4.2109,-0.014,-0.0526,-89.2699,0.0006,-0.0299,2.1021,0.024,-0.1721,5.0631,-0.2226,3.2325
51461,-106.6954,-4.2109,-0.014,-0.0526,-89.2699,0.0006,-0.0299,2.1021,0.024,-0.1721,5.0631,-0.2226,3.2325
51480,-106.6961,-4.1401,-0.0133,-0.0602,-89.2791,0.0001,-0.0275,2.3114,0.0191,0.0737,6.5463,-0.1536,1.5389
51493,-106.6961,-4.1401,-0.0133,-0.0602,-89.2791,0.0001,-0.0275,2.3114,0.0191,0.0737,6.5463,-0.1536,1.5389
51512,-106.6971,-4.0662,-0.0127,-0.0659,-89.2685,-0.0001,-0.031,2.5279,0.0152,-0.1116,6.9547,-0.1232,-0.4286
51525,-106.6971,-4.0662,-0.0127,-0.0659,-89.2685,-0.0001,-0.031,2.5279,0.0152,-0.1116,6.9547,-0.1232,-0.4286
51544,-106.6981,-3.9789,-0.0122,-0.0784,-89.2815,0.0,-0.0388,2.7833,0.0122,-0.2447,8.0086,-0.0956,2.345
51557,-106.6981,-3.9789,-0.0122,-0.0784,-89.2815,0.0,-0.0388,2.7833,0.0122,-0.2447,8.0086,-0.0956,2.345
51576,-106.6996,-3.8804,-0.0118,-0.087,-89.2637,0.0005,-0.04,2.9635,0.0096,-0.037,5.4496,-0.0768,1.1196
51589,-106.6996,-3.8804,-0.0118,-0.087,-89.2637,0.0005,-0.04,2.9635,0.0096,-0.037,5.4496,-0.0768,1.1196
51608,-106.7011,-3.7725,-0.0115,-0.0906,-89.2495,0.0005,-0.0418,3.1455,0.0075,-0.0513,5.33,-0.0616,1.0622
51621,-106.7011,-3.7725,-0.0115,-0.0906,-89.2495,0.0005,-0.0418,3.1455,0.0075,-0.0513,5.33,-0.0616,1.0622
51637,-106.7011,-3.7725,-0.0115,-0.0906,-89.2495,0.0005,-0.0418,3.1455,0.0075,-0.0513,5.33,-0.0616,1.0622
51653,-106.7027,-3.658,-0.0112,-0.0924,-89.2373,0.0005,-0.0446,3.3657,0.0058,-0.0833,6.4534,-0.0492,1.6508
51669,-106.7027,-3.658,-0.0112,-0.0924,-89.2373,0.0005,-0.0446,3.3657,0.0058,-0.0833,6.4534,-0.0492,1.6508
51685,-106.7046,-3.5279,-0.0111,-0.0935,-89.2234,0.0006,-0.048,3.5565,0.0045,-0.0916,5.2453,-0.0369,0.8953
51701,-106.7046,-3.5279,-0.0111,-0.0935,-89.2234,0.0006,-0.048,3.5565,0.0045,-0.0916,5.2453,-0.0369,0.8953
51717,-106.7064,-3.4067,-0.0109,-0.096,-89.198,0.0007,-0.0524,3.8337,0.0035,-0.1379,8.7034,-0.0322,-0.0999
51733,-106.7064,-3.4067,-0.0109,-0.096,-89.198,0.0007,-0.0524,3.8337,0.0035,-0.1379,8.7034,-0.0322,-0.0999
51749,-106.7084,-3.2707,-0.0108,-0.0983,-89.1893,0.0008,-0.0563,4.0556,0.0027,-0.1169,6.5798,-0.0217,-1.149
51765,-106.7084,-3.2707,-0.0108,-0.0983,-89.1893,0.0008,-0.0563,4.0556,0.0027,-0.1169,6.5798,-0.0217,-1.149
51781,-106.7104,-3.1267,-0.0107,-0.101,-89.1955,0.0008,-0.0601,4.3114,0.0021,-0.1118,7.5913,-0.0178,-1.9035
51797,-106.7104,-3.1267,-0.0107,-0.101,-89.1955,0.0008,-0.0601,4.3114,0.0021,-0.1118,7.5913,-0.0178,-1.9035
51816,-106.7124,-2.9797,-0.0106,-0.1021,-89.1907,0.0007,-0.0632,4.5372,0.0017,-0.0951,6.872,-0.014,-0.5027
51829,-106.7124,-2.9797,-0.0106,-0.1021,-89.1907,0.0007,-0.0632,4.5372,0.0017,-0.0951,6.872,-0.014,-0.5027
51850,-106.7146,-2.8258,-0.0106,-0.1025,-89.1951,0.0007,-0.066,4.7049,0.0013,-0.0865,5.1067,-0.0111,-0.444
51861,-106.7146,-2.8258,-0.0106,-0.1025,-89.1951,0.0007,-0.066,4.7049,0.0013,-0.0865,5.1067,-0.0111,-0.444
51880,-106.717,-2.6553,-0.0106,-0.1006,-89.193,0.0006,-0.0689,4.8698,0.001,-0.0816,4.6983,-0.0085,-0.2005
51893,-106.717,-2.6553,-0.0106,-0.1006,-89.193,0.0006,-0.0689,4.8698,0.001,-0.0816,4.6983,-0.0085,-0.2005
51912,-106.7196,-2.4799,-0.0105,-0.0984,-89.1849,0.0007,-0.0723,5.0662,0.0008,-0.099,5.6507,-0.0068,-0.0366
51925,-106.7196,-2.4799,-0.0105,-0.0984,-89.1849,0.0007,-0.0723,5.0662,0.0008,-0.099,5.6507,-0.0068,-0.0366
51944,-106.7222,-2.3065,-0.0105,-0.098,-89.1743,0.0008,-0.0764,5.3004,0.0006,-0.1212,7.0913,-0.0051,-0.0548
51957,-106.7222,-2.3065,-0.0105,-0.098,-89.1743,0.0008,-0.0764,5.3004,0.0006,-0.1212,7.0913,-0.0051,-0.0548
51973,-106.7248,-2.1333,-0.0105,-0.0999,-89.1652,0.0008,-0.0807,5.5601,0.0005,-0.1384,8.2271,-0.0042,-0.0557
51989,-106.7248,-2.1333,-0.0105,-0.0999,-89.1652,0.0008,-0.0807,5.5601,0.0005,-0.1384,8.2271,-0.0042,-0.0557
52008,-106.7276,-1.9427,-0.0104,-0.1038,-89.1628,0.0008,-0.0848,5.8162,0.0004,-0.1248,7.7353,-0.0037,-0.304
52021,-106.7276,-1.9427,-0.0104,-0.1038,-89.1628,0.0008,-0.0848,5.8162,0.0004,-0.1248,7.7353,-0.0037,-0.304
52037,-106.7304,-1.7493,-0.0104,-0.1068,-89.1602,0.0007,-0.0887,6.056,0.0003,-0.1189,7.4289,-0.0021,-0.2872
52053,-106.7304,-1.7493,-0.0104,-0.1068,-89.1602,0.0007,-0.0887,6.056,0.0003,-0.1189,7.4289,-0.0021,-0.2872
52069,-106.7304,-1.7493,-0.0104,-0.1068,-89.1602,0.0007,-0.0887,6.056,0.0003,-0.1189,7.4289,-0.0021,-0.2872
52085,-106.7335,-1.5381,-0.0104,-0.1094,-89.1599,0.0006,-0.0924,6.2973,0.0002,-0.111,7.1301,-0.0021,-0.3774
52101,-106.7335,-1.5381,-0.0104,-0.1094,-89.1599,0.0006,-0.0924,6.2973,0.0002,-0.111,7.1301,-0.0021,-0.3774
52117,-106.7368,-1.3174,-0.0104,-0.1101,-89.16,0.0005,-0.0958,6.5138,0.0001,-0.0971,6.3384,-0.0029,-0.383
52133,-106.7368,-1.3174,-0.0104,-0.1101,-89.16,0.0005,-0.0958,6.5138,0.0001,-0.0971,6.3384,-0.0029,-0.383
52149,-106.74,-1.097,-0.0104,-0.1106,-89.1574,0.0005,-0.0995,6.7585,0.0001,-0.1141,7.4236,0.0002,-0.2361
52165,-106.74,-1.097,-0.0104,-0.1106,-89.1574,0.0005,-0.0995,6.7585,0.0001,-0.1141,7.4236,0.0002,-0.2361
52181,-106.7434,-0.8653,-0.0103,-0.1119,-89.1566,0.0004,-0.1033,7.0059,0.0001,-0.1121,7.4054,-0.0006,-0.1646
52197,-106.7434,-0.8653,-0.0103,-0.1119,-89.1566,0.0004,-0.1033,7.0059,0.0001,-0.1121,7.4054,-0.0006,-0.1646
52218,-106.7472,-0.6087,-0.0103,-0.1118,-89.1576,0.0003,-0.1064,7.214,0.0001,-0.0863,5.8097,-0.0008,-0.2559
52229,-106.7472,-0.6087,-0.0103,-0.1118,-89.1576,0.0003,-0.1064,7.214,0.0001,-0.0863,5.8097,-0.0008,-0.2559
52250,-106.7507,-0.3749,-0.0103,-0.1111,-89.1557,0.0003,-0.1099,7.4476,0.0001,-0.1107,7.3659,-0.0007,-0.0803
52261,-106.7507,-0.3749,-0.0103,-0.1111,-89.1557,0.0003,-0.1099,7.4476,0.0001,-0.1107,7.3659,-0.0007,-0.0803
52282,-106.7544,-0.1283,-0.0104,-0.1148,-89.1545,0.0076,-0.1141,7.7137,-0.007,-0.1316,8.2317,-0.2181,0.0194
52293,-106.7544,-0.1283,-0.0104,-0.1148,-89.1545,0.0076,-0.1141,7.7137,-0.007,-0.1316,8.2317,-0.2181,0.0194
52314,-106.7581,0.1258,-0.0103,-0.1155,-89.1546,0.0029,-0.1175,7.9589,0.0007,-0.1042,7.6009,0.2372,-0.0435
52325,-106.7581,0.1258,-0.0103,-0.1155,-89.1546,0.0029,-0.1175,7.9589,0.0007,-0.1042,7.6009,0.2372,-0.0435
52348,-106.7619,0.3823,-0.0103,-0.1161,-89.1547,0.0011,-0.121,8.1863,0.0004,-0.1123,7.185,-0.0085,-0.0546
52357,-106.7619,0.3823,-0.0103,-0.1161,-89.1547,0.0011,-0.121,8.1863,0.0004,-0.1123,7.185,-0.0085,-0.0546
52376,-106.7659,0.658,-0.0103,-0.1159,-89.1551,0.0004,-0.1243,8.4075,0.0002,-0.0991,6.6867,-0.0047,-0.1199
52389,-106.7659,0.658,-0.0103,-0.1159,-89.1551,0.0004,-0.1243,8.4075,0.0002,-0.0991,6.6867,-0.0047,-0.1199
52408,-106.7702,0.9447,-0.0103,-0.1148,-89.1561,0.0002,-0.1274,8.6166,0.0001,-0.0915,6.23,-0.0031,-0.2462
52421,-106.7702,0.9447,-0.0103,-0.1148,-89.1561,0.0002,-0.1274,8.6166,0.0001,-0.0915,6.23,-0.0031,-0.2462
52440,-106.7742,1.2159,-0.0103,-0.1131,-89.1563,0.0001,-0.1301,8.805,0.0001,-0.0878,6.069,-0.002,-0.2236
52453,-106.7742,1.2159,-0.0103,-0.1131,-89.1563,0.0001,-0.1301,8.805,0.0001,-0.0878,6.069,-0.002,-0.2236
52472,-106.7785,1.5131,-0.0103,-0.1108,-89.1571,0.0,-0.1329,8.9968,0.0,-0.084,5.762,-0.001,-0.4207
52485,-106.7785,1.5131,-0.0103,-0.1108,-89.1571,0.0,-0.1329,8.9968,0.0,-0.084,5.762,-0.001,-0.4207
52504,-106.783,1.8151,-0.0104,-0.107,-89.1575,0.0013,-0.1356,9.1769,-0.0013,-0.0798,5.4344,-0.0415,-0.5856
52517,-106.783,1.8151,-0.0104,-0.107,-89.1575,0.0013,-0.1356,9.1769,-0.0013,-0.0798,5.4344,-0.0415,-0.5856
52538,-106.7875,2.1217,-0.0104,-0.1036,-89.1567,0.0013,-0.138,9.3475,-0.0001,-0.0736,5.1638,0.0388,-0.6401
52549,-106.7875,2.1217,-0.0104,-0.1036,-89.1567,0.0013,-0.138,9.3475,-0.0001,-0.0736,5.1638,0.0388,-0.6401
52565,-106.792,2.4258,-0.0104,-0.1005,-89.1556,0.0012,-0.1405,9.511,-0.0,-0.0767,5.081,0.0015,-0.5269
52581,-106.792,2.4258,-0.0104,-0.1005,-89.1556,0.0012,-0.1405,9.511,-0.0,-0.0767,5.081,0.0015,-0.5269
52597,-106.792,2.4258,-0.0104,-0.1005,-89.1556,0.0012,-0.1405,9.511,-0.0,-0.0767,5.081,0.0015,-0.5269
52613,-106.7973,2.7792,-0.0105,-0.0971,-89.1573,0.001,-0.1432,9.6859,0.0,-0.0736,4.7607,0.0013,-1.0192
52629,-106.7973,2.7792,-0.0105,-0.0971,-89.1573,0.001,-0.1432,9.6859,0.0,-0.0736,4.7607,0.0013,-1.0192
52650,-106.8021,3.1042,-0.0105,-0.0939,-89.1559,0.0009,-0.1455,9.8411,0.0001,-0.07,4.6712,0.0004,-0.6757
52661,-106.8021,3.1042,-0.0105,-0.0939,-89.1559,0.0009,-0.1455,9.8411,0.0001,-0.07,4.6712,0.0004,-0.6757
52680,-106.807,3.4345,-0.0105,-0.0913,-89.1553,0.0008,-0.1479,10.0005,0.0,-0.0714,4.7972,-0.0007,-0.5346
52693,-106.807,3.4345,-0.0105,-0.0913,-89.1553,0.0008,-0.1479,10.0005,0.0,-0.0714,4.7972,-0.0007,-0.5346
52712,-106.8118,3.7626,-0.0105,-0.0891,-89.1547,0.0006,-0.1501,10.155,0.0,-0.0703,4.757,0.0004,-0.3871
52725,-106.8118,3.7626,-0.0105,-0.0891,-89.1547,0.0006,-0.1501,10.155,0.0,-0.0703,4.757,0.0004,-0.3871
52744,-106.8168,4.1024,-0.0105,-0.0872,-89.1545,0.0005,-0.1524,10.3096,0.0,-0.069,4.6616,0.0002,-0.3428
52757,-106.8168,4.1024,-0.0105,-0.0872,-89.1545,0.0005,-0.1524,10.3096,0.0,-0.069,4.6616,0.0002,-0.3428
52776,-106.8218,4.4395,-0.0105,-0.0854,-89.1541,0.0004,-0.1546,10.4574,0.0,-0.0673,4.5604,-0.0006,-0.2422
52789,-106.8218,4.4395,-0.0105,-0.0854,-89.1541,0.0004,-0.1546,10.4574,0.0,-0.0673,4.5604,-0.0006,-0.2422
52810,-106.827,4.7887,-0.0105,-0.0837,-89.1539,0.0004,-0.1568,10.6048,0.0,-0.0658,4.4527,0.0001,-0.1958
52821,-106.827,4.7887,-0.0105,-0.0837,-89.1539,0.0004,-0.1568,10.6048,0.0,-0.0658,4.4527,0.0001,-0.1958
52842,-106.8329,5.1907,-0.0106,-0.0817,-89.1549,0.0003,-0.1592,10.7654,0.0,-0.0641,4.2772,-0.0002,-0.395
52853,-106.8329,5.1907,-0.0106,-0.0817,-89.1549,0.0003,-0.1592,10.7654,0.0,-0.0641,4.2772,-0.0002,-0.395
52869,-106.8329,5.1907,-0.0106,-0.0817,-89.1549,0.0003,-0.1592,10.7654,0.0,-0.0641,4.2772,-0.0002,-0.395
52885,-106.8382,5.5504,-0.0106,-0.0798,-89.1544,0.0002,-0.1612,10.9027,0.0,-0.0604,4.1439,-0.0004,-0.2638
52901,-106.8382,5.5504,-0.0106,-0.0798,-89.1544,0.0002,-0.1612,10.9027,0.0,-0.0604,4.1439,-0.0004,-0.2638
52917,-106.8434,5.9013,-0.0106,-0.0781,-89.1539,0.0002,-0.1631,11.0339,0.0,-0.0597,4.1053,-0.0001,-0.1258
52933,-106.8434,5.9013,-0.0106,-0.0781,-89.1539,0.0002,-0.1631,11.0339,0.0,-0.0597,4.1053,-0.0001,-0.1258
52949,-106.8492,6.2958,-0.0106,-0.0763,-89.1539,0.0001,-0.1652,11.176,0.0,-0.0591,4.0065,-0.0,-0.1371
52965,-106.8492,6.2958,-0.0106,-0.0763,-89.1539,0.0001,-0.1652,11.176,0.0,-0.0591,4.0065,-0.0,-0.1371
52985,-106.8552,6.7007,-0.0106,-0.0745,-89.154,0.0001,-0.1673,11.3158,0.0,-0.0574,3.8899,0.0,-0.1555
52997,-106.8552,6.7007,-0.0106,-0.0745,-89.154,0.0001,-0.1673,11.3158,0.0,-0.0574,3.8899,0.0,-0.1555
53016,-106.8611,7.0992,-0.0106,-0.0727,-89.1539,0.0001,-0.1692,11.4482,0.0,-0.0558,3.7878,0.0,-0.1322
53029,-106.8611,7.0992,-0.0106,-0.0727,-89.1539,0.0001,-0.1692,11.4482,0.0,-0.0558,3.7878,0.0,-0.1322
53048,-106.8674,7.5231,-0.0106,-0.0709,-89.154,0.0001,-0.1712,11.5838,0.0,-0.0546,3.6892,-0.0,-0.1576
53061,-106.8674,7.5231,-0.0106,-0.0709,-89.154,0.0001,-0.1712,11.5838,0.0,-0.0546,3.6892,-0.0,-0.1576
53077,-106.8674,7.5231,-0.0106,-0.0709,-89.154,0.0001,-0.1712,11.5838,0.0,-0.0546,3.6892,-0.0,-0.1576
53093,-106.8733,7.922,-0.0106,-0.0692,-89.1538,0.0001,-0.173,11.707,-0.0,-0.0528,3.601,-0.0004,-0.0983
53109,-106.8733,7.922,-0.0106,-0.0692,-89.1538,0.0001,-0.173,11.707,-0.0,-0.0528,3.601,-0.0004,-0.0983
53125,-106.8795,8.3439,-0.0107,-0.0675,-89.1537,0.0,-0.1749,11.833,-0.0,-0.052,3.5189,-0.0002,-0.0847
53141,-106.8795,8.3439,-0.0107,-0.0675,-89.1537,0.0,-0.1749,11.833,-0.0,-0.052,3.5189,-0.0002,-0.0847
53160,-106.8853,8.7396,-0.0107,-0.0661,-89.1536,0.0,-0.1766,11.9472,-0.0,-0.0505,3.4375,0.0,-0.0366
53173,-106.8853,8.7396,-0.0107,-0.0661,-89.1536,0.0,-0.1766,11.9472,-0.0,-0.0505,3.4375,0.0,-0.0366
53189,-106.8916,9.1653,-0.0107,-0.0645,-89.1535,0.0,-0.1783,12.0662,0.0,-0.0495,3.3577,0.0003,-0.0258
53205,-106.8916,9.1653,-0.0107,-0.0645,-89.1535,0.0,-0.1783,12.0662,0.0,-0.0495,3.3577,0.0003,-0.0258
53224,-106.8977,9.5758,-0.0107,-0.063,-89.1534,0.0,-0.1799,12.177,0.0,-0.0484,3.2781,0.0002,-0.0117
53237,-106.8977,9.5758,-0.0107,-0.063,-89.1534,0.0,-0.1799,12.177,0.0,-0.0484,3.2781,0.0002,-0.0117
53257,-106.9033,9.9562,-0.0107,-0.0617,-89.1534,0.0,-0.1814,12.2767,-0.0,-0.0473,3.2057,-0.0004,-0.0022
53269,-106.9033,9.9562,-0.0107,-0.0617,-89.1534,0.0,-0.1814,12.2767,-0.0,-0.0473,3.2057,-0.0004,-0.0022
53288,-106.9093,10.3628,-0.0107,-0.0604,-89.1534,0.0,-0.1829,12.38,0.0,-0.0463,3.1369,0.0001,-0.0007
53301,-106.9093,10.3628,-0.0107,-0.0604,-89.1534,0.0,-0.1829,12.38,0.0,-0.0463,3.1369,0.0001,-0.0007
53317,-106.9158,10.7992,-0.0107,-0.059,-89.1534,0.0,-0.1845,12.4875,0.0,-0.0453,3.0658,0.0001,-0.0004
53333,-106.9158,10.7992,-0.0107,-0.059,-89.1534,0.0,-0.1845,12.4875,0.0,-0.0453,3.0658,0.0001,-0.0004
53349,-106.9158,10.7992,-0.0107,-0.059,-89.1534,0.0,-0.1845,12.4875,0.0,-0.0453,3.0658,0.0001,-0.0004
53365,-106.9222,11.2351,-0.0107,-0.0576,-89.1534,0.0,-0.1861,12.5915,0.0,-0.0442,2.9947,-0.0,-0.0002
53381,-106.9222,11.2351,-0.0107,-0.0576,-89.1534,0.0,-0.1861,12.5915,0.0,-0.0442,2.9947,-0.0,-0.0002
53397,-106.9284,11.6504,-0.0107,-0.0563,-89.1534,0.0,-0.1874,12.6847,0.0,-0.0419,2.838,0.0,-0.0001
53413,-106.9284,11.6504,-0.0107,-0.0563,-89.1534,0.0,-0.1874,12.6847,0.0,-0.0419,2.838,0.0,-0.0001
53429,-106.9346,12.0709,-0.0108,-0.0547,-89.1534,0.0,-0.1887,12.7672,-0.0,-0.037,2.5005,-0.0005,-0.0
53445,-106.9346,12.0709,-0.0108,-0.0547,-89.1534,0.0,-0.1887,12.7672,-0.0,-0.037,2.5005,-0.0005,-0.0
53461,-106.9405,12.4721,-0.0108,-0.0527,-89.1534,-0.0,-0.1897,12.8361,-0.0,-0.0325,2.1981,0.0001,-0.0
53477,-106.9405,12.4721,-0.0108,-0.0527,-89.1534,-0.0,-0.1897,12.8361,-0.0,-0.0325,2.1981,0.0001,-0.0
53509,-106.9476,12.9519,-0.0108,-0.0498,-89.1534,-0.0,-0.1907,12.9082,-0.0,-0.0286,1.9362,0.0002,-0.0
53528,-106.9558,13.3688,-0.0108,-0.0467,-89.2418,0.014,-0.339,12.9466,0.0001,-4.5996,1.193,0.0024,-5.0804
53541,-106.9558,13.3688,-0.0108,-0.0467,-89.2418,0.014,-0.339,12.9466,0.0001,-4.5996,1.193,0.0024,-5.0804
53560,-106.9702,13.798,-0.0108,-0.0417,-89.6078,0.054,-0.6175,12.9429,0.0005,-8.4023,-0.1141,0.0116,-15.0256
53573,-106.9702,13.798,-0.0108,-0.0417,-89.6078,0.054,-0.6175,12.9429,0.0005,-8.4023,-0.1141,0.0116,-15.0256
53592,-106.9911,14.2081,-0.0109,-0.0345,-90.3226,0.1056,-0.9346,12.902,0.0009,-9.9885,-1.2884,0.0132,-27.2665
53605,-106.9911,14.2081,-0.0109,-0.0345,-90.3226,0.1056,-0.9346,12.902,0.0009,-9.9885,-1.2884,0.0132,-27.2665
53624,-107.021,14.6364,-0.0109,-0.0245,-91.5394,0.1628,-1.2814,12.8271,0.0012,-10.4051,-2.2463,0.0086,-42.2627
53637,-107.021,14.6364,-0.0109,-0.0245,-91.5394,0.1628,-1.2814,12.8271,0.0012,-10.4051,-2.2463,0.0086,-42.2627
53656,-107.0549,15.0291,-0.0109,-0.0137,-93.1308,0.2085,-1.5838,12.7395,0.0013,-9.8251,-2.8469,0.0029,-57.4921
53669,-107.0549,15.0291,-0.0109,-0.0137,-93.1308,0.2085,-1.5838,12.7395,0.0013,-9.8251,-2.8469,0.0029,-57.4921
53688,-107.0962,15.4379,-0.011,-0.0014,-95.3374,0.2456,-1.8684,12.6357,0.0011,-8.7976,-3.2093,-0.0036,-74.7476
53701,-107.0962,15.4379,-0.011,-0.0014,-95.3374,0.2456,-1.8684,12.6357,0.0011,-8.7976,-3.2093,-0.0036,-74.7476
53720,-107.1408,15.8378,-0.011,0.0103,-98.0875,0.267,-2.0985,12.5311,0.0009,-7.1888,-3.2658,-0.0086,-92.727
53733,-107.1408,15.8378,-0.011,0.0103,-98.0875,0.267,-2.0985,12.5311,0.0009,-7.1888,-3.2658,-0.0086,-92.727
53752,-107.1879,16.2372,-0.0111,0.0205,-101.4698,0.2719,-2.2674,12.4312,0.0005,-5.2183,-3.0873,-0.0117,-111.586
53765,-107.1879,16.2372,-0.0111,0.0205,-101.4698,0.2719,-2.2674,12.4312,0.0005,-5.2183,-3.0873,-0.0117,-111.586
53784,-107.2332,16.6178,-0.0111,0.0274,-105.3211,0.2605,-2.3584,12.347,0.0001,-2.9105,-2.6931,-0.0122,-130.1487
53797,-107.2332,16.6178,-0.0111,0.0274,-105.3211,0.2605,-2.3584,12.347,0.0001,-2.9105,-2.6931,-0.0122,-130.1487
53813,-107.2783,17.0108,-0.0112,0.0305,-109.9939,0.2323,-2.3749,12.2735,-0.0003,-0.5051,-2.2413,-0.0129,-149.8673
53829,-107.2783,17.0108,-0.0112,0.0305,-109.9939,0.2323,-2.3749,12.2735,-0.0003,-0.5051,-2.2413,-0.0129,-149.8673
53845,-107.3186,17.3973,-0.0112,0.0284,-115.3158,0.1902,-2.3045,12.2171,-0.0007,2.1461,-1.7191,-0.0125,-169.588
53861,-107.3186,17.3973,-0.0112,0.0284,-115.3158,0.1902,-2.3045,12.2171,-0.0007,2.1461,-1.7191,-0.0125,-169.588
53880,-107.3504,17.765,-0.0111,0.0191,-121.0346,0.1346,-2.0735,12.2064,-0.001,7.2744,-0.3381,-0.01,-185.6799
53893,-107.3504,17.765,-0.0111,0.0191,-121.0346,0.1346,-2.0735,12.2064,-0.001,7.2744,-0.3381,-0.01,-185.6799
53912,-107.3703,18.1257,-0.011,-0.0012,-127.1273,0.0595,-1.6442,12.2266,-0.0015,13.5964,0.6422,-0.0134,-196.8723
53925,-107.3703,18.1257,-0.011,-0.0012,-127.1273,0.0595,-1.6442,12.2266,-0.0015,13.5964,0.6422,-0.0134,-196.8723
53944,-107.3746,18.5045,-0.0108,-0.034,-133.9419,-0.0359,-1.0381,12.2261,-0.0013,18.0104,-0.0155,0.0048,-205.4758
53957,-107.3746,18.5045,-0.0108,-0.034,-133.9419,-0.0359,-1.0381,12.2261,-0.0013,18.0104,-0.0155,0.0048,-205.4758
53977,-107.3613,18.8484,-0.0106,-0.0703,-140.446,-0.1261,-0.3846,12.1733,0.0004,21.021,-1.6989,0.0546,-211.2601
53989,-107.3613,18.8484,-0.0106,-0.0703,-140.446,-0.1261,-0.3846,12.1733,0.0004,21.021,-1.6989,0.0546,-211.2601
54008,-107.3255,19.2208,-0.0102,-0.1144,-147.8346,-0.2258,0.4014,12.0353,0.0015,22.8044,-4.0029,0.0311,-216.0345
54021,-107.3255,19.2208,-0.0102,-0.1144,-147.8346,-0.2258,0.4014,12.0353,0.0015,22.8044,-4.0029,0.0311,-216.0345
54040,-107.2754,19.5418,-0.0099,-0.1523,-154.508,-0.3058,1.1269,11.8286,0.0019,23.7127,-6.7583,0.0153,-219.3133
54053,-107.2754,19.5418,-0.0099,-0.1523,-154.508,-0.3058,1.1269,11.8286,0.0019,23.7127,-6.7583,0.0153,-219.3133
54072,-107.2026,19.8725,-0.0095,-0.1909,-161.7416,-0.3858,1.9053,11.5154,0.0021,23.8105,-9.5774,0.0057,-222.4095
54085,-107.2026,19.8725,-0.0095,-0.1909,-161.7416,-0.3858,1.9053,11.5154,0.0021,23.8105,-9.5774,0.0057,-222.4095
54117,-107.1168,20.1714,-0.0092,-0.2237,-168.6683,-0.4525,2.6223,11.1316,0.0021,23.2031,-12.4215,-0.0018,-225.2678
54136,-107.0165,20.4545,-0.009,-0.2506,-175.6825,-0.5196,3.215,10.5636,0.0021,19.1148,-18.3195,0.0023,-226.7627
54149,-107.0165,20.4545,-0.009,-0.2506,-175.6825,-0.5196,3.215,10.5636,0.0021,19.1148,-18.3195,0.0023,-226.7627
54168,-106.905,20.7224,-0.0087,-0.2686,177.0669,-0.5977,3.6403,9.8261,0.0022,13.3635,-23.1687,0.0027,-228.2633
54181,-106.905,20.7224,-0.0087,-0.2686,177.0669,-0.5977,3.6403,9.8261,0.0022,13.3635,-23.1687,0.0027,-228.2633
54200,-106.7918,20.9621,-0.0086,-0.2784,169.8897,-0.6779,3.8979,9.0137,0.0022,8.2054,-25.8832,-0.0008,-228.7502
54213,-106.7918,20.9621,-0.0086,-0.2784,169.8897,-0.6779,3.8979,9.0137,0.0022,8.2054,-25.8832,-0.0008,-228.7502
54232,-106.6886,21.1701,-0.0086,-0.274,163.1154,-0.7486,3.6806,8.3385,0.002,-7.2372,-22.4848,-0.0048,-220.4493
54245,-106.6886,21.1701,-0.0086,-0.274,163.1154,-0.7486,3.6806,8.3385,0.002,-7.2372,-22.4848,-0.0048,-220.4493
54261,-106.6058,21.3681,-0.0088,-0.2415,156.7998,-0.7913,3.0881,7.8771,-0.0012,-19.7277,-15.3611,-0.1084,-204.4919
54277,-106.6058,21.3681,-0.0088,-0.2415,156.7998,-0.7913,3.0881,7.8771,-0.0012,-19.7277,-15.3611,-0.1084,-204.4919
54293,-106.5476,21.5516,-0.0092,-0.1942,151.0567,-0.8329,2.4416,7.4456,0.0039,-22.1765,-14.8032,0.1757,-193.74
54309,-106.5114,21.7289,-0.0095,-0.1431,145.4745,-0.8797,1.7637,7.0776,0.0027,-22.9942,-12.4818,-0.0421,-187.3754
54325,-106.5114,21.7289,-0.0095,-0.1431,145.4745,-0.8797,1.7637,7.0776,0.0027,-22.9942,-12.4818,-0.0421,-187.3754
54344,-106.4976,21.9069,-0.0098,-0.0939,140.0369,-0.9096,0.9994,6.9201,0.0017,-25.406,-5.2356,-0.0321,-175.871
54357,-106.4976,21.9069,-0.0098,-0.0939,140.0369,-0.9096,0.9994,6.9201,0.0017,-25.406,-5.2356,-0.0321,-175.871
54376,-106.5075,22.0889,-0.0101,-0.0408,135.0462,-0.9142,0.2309,6.9637,0.0009,-25.5625,1.4495,-0.0265,-159.7623
54389,-106.5075,22.0889,-0.0101,-0.0408,135.0462,-0.9142,0.2309,6.9637,0.0009,-25.5625,1.4495,-0.0265,-159.7623
54407,-106.5375,22.2698,-0.0105,0.013,130.8092,-0.8976,-0.4628,7.1158,0.0003,-24.3248,5.3343,-0.0223,-142.7902
54421,-106.5375,22.2698,-0.0105,0.013,130.8092,-0.8976,-0.4628,7.1158,0.0003,-24.3248,5.3343,-0.0223,-142.7902
54440,-106.5867,22.4691,-0.0109,0.0647,126.9299,-0.8662,-1.1067,7.3384,-0.0003,-21.5923,7.4661,-0.0191,-123.7078
54453,-106.5867,22.4691,-0.0109,0.0647,126.9299,-0.8662,-1.1067,7.3384,-0.0003,-21.5923,7.4661,-0.0191,-123.7078
54469,-106.6499,22.6804,-0.0112,0.1081,123.5729,-0.8158,-1.5762,7.6259,-0.0008,-15.7226,9.6238,-0.0172,-107.4482
54485,-106.6499,22.6804,-0.0112,0.1081,123.5729,-0.8158,-1.5762,7.6259,-0.0008,-15.7226,9.6238,-0.0172,-107.4482
54504,-106.7225,22.913,-0.0115,0.1399,120.4061,-0.7313,-1.7485,7.9536,-0.0014,-5.5247,10.5132,-0.0185,-98.938
54517,-106.7225,22.913,-0.0115,0.1399,120.4061,-0.7313,-1.7485,7.9536,-0.0014,-5.5247,10.5132,-0.0185,-98.938
54533,-106.7937,23.1512,-0.0117,0.1592,117.4696,-0.6159,-1.7111,8.2532,-0.002,1.2279,9.8414,-0.021,-95.3917
54549,-106.7937,23.1512,-0.0117,0.1592,117.4696,-0.6159,-1.7111,8.2532,-0.002,1.2279,9.8414,-0.021,-95.3917
54565,-106.8633,23.4078,-0.0119,0.1694,114.4938,-0.4787,-1.5387,8.5338,-0.0027,5.4725,8.9075,-0.0202,-94.1163
54581,-106.8633,23.4078,-0.0119,0.1694,114.4938,-0.4787,-1.5387,8.5338,-0.0027,5.4725,8.9075,-0.0202,-94.1163
54597,-106.8633,23.4078,-0.0119,0.1694,114.4938,-0.4787,-1.5387,8.5338,-0.0027,5.4725,8.9075,-0.0202,-94.1163
54631,-106.9967,24.0531,-0.0121,0.1677,107.4538,-0.1545,-0.8263,9.0798,-0.0034,9.5181,7.295,-0.0101,-94.177
54645,-106.9967,24.0531,-0.0121,0.1677,107.4538,-0.1545,-0.8263,9.0798,-0.0034,9.5181,7.295,-0.0101,-94.177
54661,-106.9967,24.0531,-0.0121,0.1677,107.4538,-0.1545,-0.8263,9.0798,-0.0034,9.5181,7.295,-0.0101,-94.177
54677,-107.0462,24.397,-0.0122,0.1617,104.0583,-0.0428,-0.6554,9.331,-0.0033,4.5039,6.6187,0.0036,-84.2353
54693,-107.0462,24.397,-0.0122,0.1617,104.0583,-0.0428,-0.6554,9.331,-0.0033,4.5039,6.6187,0.0036,-84.2353
54709,-107.0832,24.6775,-0.0122,0.1567,101.7653,-0.009,-0.7299,9.4896,-0.0026,-2.4714,5.2622,0.0231,-69.7335
54725,-107.0832,24.6775,-0.0122,0.1567,101.7653,-0.009,-0.7299,9.4896,-0.0026,-2.4714,5.2622,0.0231,-69.7335
54741,-107.124,24.9786,-0.0122,0.1484,99.9438,-0.0195,-0.9746,9.5797,-0.0016,-7.6968,2.8363,0.0317,-49.1348
54757,-107.1675,25.2784,-0.0122,0.1367,98.7574,-0.0504,-1.1725,9.6404,-0.0004,-6.3171,1.9367,0.0381,-31.7529
54773,-107.1675,25.2784,-0.0122,0.1367,98.7574,-0.0504,-1.1725,9.6404,-0.0004,-6.3171,1.9367,0.0381,-31.7529
54789,-107.1675,25.2784,-0.0122,0.1367,98.7574,-0.0504,-1.1725,9.6404,-0.0004,-6.3171,1.9367,0.0381,-31.7529
54805,-107.213,25.5883,-0.0121,0.1233,97.9921,-0.0712,-1.2682,9.7024,0.0002,-2.9796,1.9302,0.0199,-19.6267
54821,-107.213,25.5883,-0.0121,0.1233,97.9921,-0.0712,-1.2682,9.7024,0.0002,-2.9796,1.9302,0.0199,-19.6267
54837,-107.2572,25.8962,-0.012,0.11,97.5276,-0.0756,-1.2966,9.7584,0.0004,-0.8958,1.7681,0.0047,-11.9442
54853,-107.2572,25.8962,-0.012,0.11,97.5276,-0.0756,-1.2966,9.7584,0.0004,-0.8958,1.7681,0.0047,-11.9442
54869,-107.3024,26.222,-0.0119,0.0966,97.2343,-0.0681,-1.2917,9.8081,0.0003,0.1446,1.4912,-0.0031,-6.8119
54885,-107.3024,26.222,-0.0119,0.0966,97.2343,-0.0681,-1.2917,9.8081,0.0003,0.1446,1.4912,-0.0031,-6.8119
54901,-107.3439,26.5314,-0.0118,0.085,97.0663,-0.0561,-1.2752,9.8463,0.0001,0.5253,1.2127,-0.0054,-3.9388
54917,-107.3439,26.5314,-0.0118,0.085,97.0663,-0.0561,-1.2752,9.8463,0.0001,0.5253,1.2127,-0.0054,-3.9388
54933,-107.3857,26.8526,-0.0117,0.0741,96.962,-0.0429,-1.2565,9.8799,-0.0,0.5748,1.0338,-0.0038,-2.0086
54949,-107.3857,26.8526,-0.0117,0.0741,96.962,-0.0429,-1.2565,9.8799,-0.0,0.5748,1.0338,-0.0038,-2.0086
54965,-107.4266,27.1741,-0.0116,0.0643,96.9001,-0.0312,-1.2403,9.9093,-0.0001,0.4979,0.905,-0.0029,-0.8567
54981,-107.4266,27.1741,-0.0116,0.0643,96.9001,-0.0312,-1.2403,9.9093,-0.0001,0.4979,0.905,-0.0029,-0.8567
54997,-107.4698,27.5208,-0.0116,0.055,96.8632,-0.0211,-1.2266,9.9341,-0.0001,0.3939,0.7085,-0.0004,0.2209
55013,-107.4698,27.5208,-0.0116,0.055,96.8632,-0.0211,-1.2266,9.9341,-0.0001,0.3939,0.7085,-0.0004,0.2209
55029,-107.5083,27.8334,-0.0115,0.048,96.8426,-0.0145,-1.2185,9.96,-0.0001,0.2557,0.8238,0.0,0.2876
55045,-107.5083,27.8334,-0.0115,0.048,96.8426,-0.0145,-1.2185,9.96,-0.0001,0.2557,0.8238,0.0,0.2876
55063,-107.5487,28.1714,-0.0105,0.0875,96.8186,0.129,-1.2174,9.969,0.0397,0.0344,0.2658,1.1754,0.5382
55077,-107.5487,28.1714,-0.0105,0.0875,96.8186,0.129,-1.2174,9.969,0.0397,0.0344,0.2658,1.1754,0.5382
55093,-107.5894,28.4996,-0.0107,0.0641,96.8125,0.0577,-1.2143,9.9917,-0.0194,0.0935,0.6919,-1.7973,0.793
55109,-107.5894,28.4996,-0.0107,0.0641,96.8125,0.0577,-1.2143,9.9917,-0.0194,0.0935,0.6919,-1.7973,0.793
55127,-107.6283,28.8187,-0.011,0.0421,96.8087,0.0116,-1.2051,10.0146,-0.0123,0.2878,0.7174,0.2214,0.8167
55141,-107.6283,28.8187,-0.011,0.0421,96.8087,0.0116,-1.2051,10.0146,-0.0123,0.2878,0.7174,0.2214,0.8167
55159,-107.668,29.1488,-0.0112,0.0296,96.8067,-0.0038,-1.2022,10.0337,-0.0073,0.0873,0.5777,0.153,1.0209
55173,-107.668,29.1488,-0.0112,0.0296,96.8067,-0.0038,-1.2022,10.0337,-0.0073,0.0873,0.5777,0.153,1.0209
55192,-107.7067,29.4716,-0.0113,0.0228,96.8048,-0.0077,-1.2021,10.0517,-0.0039,0.005,0.5611,0.1045,0.949
55205,-107.7067,29.4716,-0.0113,0.0228,96.8048,-0.0077,-1.2021,10.0517,-0.0039,0.005,0.5611,0.1045,0.949
55224,-107.7492,29.828,-0.0113,0.0184,96.8057,-0.0078,-1.2025,10.067,-0.0019,-0.0121,0.4327,0.0584,1.5029
55237,-107.7492,29.828,-0.0113,0.0184,96.8057,-0.0078,-1.2025,10.067,-0.0019,-0.0121,0.4327,0.0584,1.5029
55253,-107.7492,29.828,-0.0113,0.0184,96.8057,-0.0078,-1.2025,10.067,-0.0019,-0.0121,0.4327,0.0584,1.5029
55269,-107.7958,30.2179,-0.0114,0.015,96.8076,-0.0067,-1.2025,10.0747,-0.0006,0.0003,0.1991,0.0318,2.2108
55285,-107.7958,30.2179,-0.0114,0.015,96.8076,-0.0067,-1.2025,10.0747,-0.0006,0.0003,0.1991,0.0318,2.2108
55301,-107.838,30.5731,-0.0111,-0.002,96.8063,0.0147,-1.2038,10.0926,0.0193,-0.0371,0.5061,0.5649,1.6717
55317,-107.838,30.5731,-0.0111,-0.002,96.8063,0.0147,-1.2038,10.0926,0.0193,-0.0371,0.5061,0.5649,1.6717
55333,-107.8771,30.9019,-0.0104,-0.0325,96.8027,0.0462,-1.2099,10.104,-0.0089,-0.1879,0.3501,-0.8657,0.8599
55349,-107.8771,30.9019,-0.0104,-0.0325,96.8027,0.0462,-1.2099,10.104,-0.0089,-0.1879,0.3501,-0.8657,0.8599
55365,-107.9174,31.2368,-0.0108,-0.0091,96.8026,0.0135,-1.2081,10.1298,-0.0058,0.055,0.7826,0.0942,0.9495
55381,-107.9174,31.2368,-0.0108,-0.0091,96.8026,0.0135,-1.2081,10.1298,-0.0058,0.055,0.7826,0.0942,0.9495
55400,-107.9591,31.5864,-0.0111,0.0027,96.8038,0.002,-1.2091,10.149,-0.0034,-0.0301,0.555,0.0687,1.2859
55413,-107.9591,31.5864,-0.0111,0.0027,96.8038,0.002,-1.2091,10.149,-0.0034,-0.0301,0.555,0.0687,1.2859
55431,-107.9974,31.9074,-0.0112,0.0077,96.8025,-0.0013,-1.2113,10.1675,-0.0019,-0.0701,0.5882,0.0474,0.8894
55445,-107.9974,31.9074,-0.0112,0.0077,96.8025,-0.0013,-1.2113,10.1675,-0.0019,-0.0701,0.5882,0.0474,0.8894
55461,-108.0364,32.2346,-0.0112,0.0101,96.8025,-0.0023,-1.2137,10.1861,-0.001,-0.075,0.5771,0.0294,0.8851
55477,-108.0364,32.2346,-0.0112,0.0101,96.8025,-0.0023,-1.2137,10.1861,-0.001,-0.075,0.5771,0.0294,0.8851
55496,-108.0763,32.5701,-0.0113,0.0112,96.8029,-0.0024,-1.216,10.2036,-0.0004,-0.0692,0.5305,0.017,0.9946
55509,-108.0763,32.5701,-0.0113,0.0112,96.8029,-0.0024,-1.216,10.2036,-0.0004,-0.0692,0.5305,0.017,0.9946
55527,-108.1164,32.9059,-0.0113,0.0114,96.803,-0.0022,-1.2182,10.2202,-0.0001,-0.0651,0.506,0.0095,1.0148
55541,-108.1164,32.9059,-0.0113,0.0114,96.803,-0.0022,-1.2182,10.2202,-0.0001,-0.0651,0.506,0.0095,1.0148
55557,-108.1609,33.2802,-0.0113,0.0111,96.8056,-0.0019,-1.2197,10.2332,0.0,-0.0432,0.3552,0.0045,1.6657
55573,-108.1609,33.2802,-0.0113,0.0111,96.8056,-0.0019,-1.2197,10.2332,0.0,-0.0432,0.3552,0.0045,1.6657
55589,-108.1991,33.5998,-0.0113,0.0107,96.8034,-0.0017,-1.222,10.2503,0.0001,-0.0713,0.5489,0.0028,0.8377
55605,-108.1991,33.5998,-0.0113,0.0107,96.8034,-0.0017,-1.222,10.2503,0.0001,-0.0713,0.5489,0.0028,0.8377
55621,-108.1991,33.5998,-0.0113,0.0107,96.8034,-0.0017,-1.222,10.2503,0.0001,-0.0713,0.5489,0.0028,0.8377
55637,-108.2398,33.9417,-0.0113,0.0105,96.8041,-0.0014,-1.2241,10.2675,0.0002,-0.0643,0.5149,0.0009,1.0172
55653,-108.2398,33.9417,-0.0113,0.0105,96.8041,-0.0014,-1.2241,10.2675,0.0002,-0.0643,0.5149,0.0009,1.0172
55669,-108.286,34.3289,-0.0113,0.01,96.8076,-0.0012,-1.2254,10.2789,0.0002,-0.0354,0.3045,-0.0004,1.8514
55685,-108.286,34.3289,-0.0113,0.01,96.8076,-0.0012,-1.2254,10.2789,0.0002,-0.0354,0.3045,-0.0004,1.8514
55704,-108.3274,34.6761,-0.0113,0.0095,96.8058,-0.001,-1.2274,10.2941,0.0001,-0.0572,0.45,-0.0002,1.235
55717,-108.3274,34.6761,-0.0113,0.0095,96.8058,-0.001,-1.2274,10.2941,0.0001,-0.0572,0.45,-0.0002,1.235
55733,-108.3274,34.6761,-0.0113,0.0095,96.8058,-0.001,-1.2274,10.2941,0.0001,-0.0572,0.45,-0.0002,1.235
55749,-108.3731,35.0598,-0.0112,0.0091,96.808,-0.0008,-1.2289,10.3066,0.0001,-0.0397,0.3346,-0.0005,1.7961
55765,-108.3731,35.0598,-0.0112,0.0091,96.808,-0.0008,-1.2289,10.3066,0.0001,-0.0397,0.3346,-0.0005,1.7961
55784,-108.4263,35.5048,-0.0112,0.0087,96.7952,-0.0006,-1.2314,10.3262,0.0001,-0.0592,0.454,-0.0003,-1.3277
55797,-108.4263,35.5048,-0.0112,0.0087,96.7952,-0.0006,-1.2314,10.3262,0.0001,-0.0592,0.454,-0.0003,-1.3277
