timestamp,x,y,z,pitch,yaw,roll,vx,vy,vz,ax,ay,az,yaw_rate
103930,-106.6867,-4.8475,-0.0798,0.0,-89.3578,0.0,0.0,-0.0,0.0297,-0.0,0.0,7.3952,-0.0
103946,-106.6867,-4.8475,-0.0798,0.0,-89.3578,0.0,0.0,-0.0,0.0297,-0.0,0.0,7.3952,-0.0
103962,-106.6867,-4.8475,-0.0798,0.0,-89.3578,0.0,0.0,-0.0,0.0297,-0.0,0.0,7.3952,-0.0
103978,-106.6867,-4.8475,-0.0798,0.0,-89.3578,0.0,0.0,-0.0,0.0297,-0.0,0.0,7.3952,-0.0
103994,-106.6867,-4.8475,-0.0798,0.0,-89.3578,0.0,0.0,-0.0,0.0297,-0.0,0.0,7.3952,-0.0
104010,-106.6867,-4.8475,-0.0798,0.0,-89.3578,0.0,0.0,-0.0,0.0297,-0.0,0.0,7.3952,-0.0
104026,-106.6867,-4.8475,-0.0798,0.0,-89.3578,0.0,0.0,-0.0,0.0297,-0.0,0.0,7.3952,-0.0
104042,-106.6867,-4.8475,-0.0798,0.0,-89.3578,0.0,0.0,-0.0,0.0297,-0.0,0.0,7.3952,-0.0
104058,-106.6867,-4.8475,-0.0798,0.0,-89.3578,0.0,0.0,-0.0,0.0297,-0.0,0.0,7.3952,-0.0
104074,-106.6867,-4.846,-0.0613,-0.0014,-89.3578,0.0,-0.0004,0.0372,0.2358,-0.0031,0.2776,1.5375,-0.0002
104090,-106.6867,-4.846,-0.0613,-0.0014,-89.3578,0.0,-0.0004,0.0372,0.2358,-0.0031,0.2776,1.5375,-0.0002
104106,-106.6867,-4.846,-0.0613,-0.0014,-89.3578,0.0,-0.0004,0.0372,0.2358,-0.0031,0.2776,1.5375,-0.0002
104122,-106.6867,-4.846,-0.0613,-0.0014,-89.3578,0.0,-0.0004,0.0372,0.2358,-0.0031,0.2776,1.5375,-0.0002
104138,-106.6867,-4.846,-0.0613,-0.0014,-89.3578,0.0,-0.0004,0.0372,0.2358,-0.0031,0.2776,1.5375,-0.0002
104154,-106.6867,-4.846,-0.0613,-0.0014,-89.3578,0.0,-0.0004,0.0372,0.2358,-0.0031,0.2776,1.5375,-0.0002
104170,-106.6867,-4.846,-0.0613,-0.0014,-89.3578,0.0,-0.0004,0.0372,0.2358,-0.0031,0.2776,1.5375,-0.0002
104186,-106.6867,-4.846,-0.0613,-0.0014,-89.3578,0.0,-0.0004,0.0372,0.2358,-0.0031,0.2776,1.5375,-0.0002
104202,-106.6867,-4.846,-0.0613,-0.0014,-89.3578,0.0,-0.0004,0.0372,0.2358,-0.0031,0.2776,1.5375,-0.0002
104218,-106.6867,-4.846,-0.0613,-0.0014,-89.3578,0.0,-0.0004,0.0372,0.2358,-0.0031,0.2776,1.5375,-0.0002
104234,-106.6868,-4.8412,-0.04,-0.0048,-89.3584,0.0,-0.0011,0.1029,0.1814,-0.0044,0.4144,-0.3432,-0.1214
104250,-106.6868,-4.8412,-0.04,-0.0048,-89.3584,0.0,-0.0011,0.1029,0.1814,-0.0044,0.4144,-0.3432,-0.1214
104266,-106.6868,-4.8412,-0.04,-0.0048,-89.3584,0.0,-0.0011,0.1029,0.1814,-0.0044,0.4144,-0.3432,-0.1214
104282,-106.6868,-4.8412,-0.04,-0.0048,-89.3584,0.0,-0.0011,0.1029,0.1814,-0.0044,0.4144,-0.3432,-0.1214
104298,-106.6868,-4.8412,-0.04,-0.0048,-89.3584,0.0,-0.0011,0.1029,0.1814,-0.0044,0.4144,-0.3432,-0.1214
104316,-106.6869,-4.8068,-0.027,-0.0287,-89.388,-0.0002,-0.0056,0.5776,0.113,-0.0504,5.2923,-0.7624,-0.286
104330,-106.6869,-4.8068,-0.027,-0.0287,-89.388,-0.0002,-0.0056,0.5776,0.113,-0.0504,5.2923,-0.7624,-0.286
104346,-106.6869,-4.8068,-0.027,-0.0287,-89.388,-0.0002,-0.0056,0.5776,0.113,-0.0504,5.2923,-0.7624,-0.286
104362,-106.6869,-4.8068,-0.027,-0.0287,-89.388,-0.0002,-0.0056,0.5776,0.113,-0.0504,5.2923,-0.7624,-0.286
104378,-106.6869,-4.8068,-0.027,-0.0287,-89.388,-0.0002,-0.0056,0.5776,0.113,-0.0504,5.2923,-0.7624,-0.286
104394,-106.6869,-4.8068,-0.027,-0.0287,-89.388,-0.0002,-0.0056,0.5776,0.113,-0.0504,5.2923,-0.7624,-0.286
104412,-106.6876,-4.7335,-0.0192,-0.0459,-89.3885,-0.0,-0.0099,0.9368,0.0626,-0.0463,3.8828,-0.5445,0.0049
104426,-106.6876,-4.7335,-0.0192,-0.0459,-89.3885,-0.0,-0.0099,0.9368,0.0626,-0.0463,3.8828,-0.5445,0.0049
104442,-106.6876,-4.7335,-0.0192,-0.0459,-89.3885,-0.0,-0.0099,0.9368,0.0626,-0.0463,3.8828,-0.5445,0.0049
104458,-106.6876,-4.7335,-0.0192,-0.0459,-89.3885,-0.0,-0.0099,0.9368,0.0626,-0.0463,3.8828,-0.5445,0.0049
104474,-106.6876,-4.7335,-0.0192,-0.0459,-89.3885,-0.0,-0.0099,0.9368,0.0626,-0.0463,3.8828,-0.5445,0.0049
104490,-106.6876,-4.7335,-0.0192,-0.0459,-89.3885,-0.0,-0.0099,0.9368,0.0626,-0.0463,3.8828,-0.5445,0.0049
104507,-106.6892,-4.6371,-0.0147,-0.0421,-89.3356,0.001,-0.0187,1.1106,0.0379,-0.0924,1.8194,-0.2584,0.4823
104522,-106.6892,-4.6371,-0.0147,-0.0421,-89.3356,0.001,-0.0187,1.1106,0.0379,-0.0924,1.8194,-0.2584,0.4823
104538,-106.6892,-4.6371,-0.0147,-0.0421,-89.3356,0.001,-0.0187,1.1106,0.0379,-0.0924,1.8194,-0.2584,0.4823
104554,-106.6892,-4.6371,-0.0147,-0.0421,-89.3356,0.001,-0.0187,1.1106,0.0379,-0.0924,1.8194,-0.2584,0.4823
104570,-106.6892,-4.6371,-0.0147,-0.0421,-89.3356,0.001,-0.0187,1.1106,0.0379,-0.0924,1.8194,-0.2584,0.4823
104586,-106.6892,-4.6371,-0.0147,-0.0421,-89.3356,0.001,-0.0187,1.1106,0.0379,-0.0924,1.8194,-0.2584,0.4823
104603,-106.6913,-4.5351,-0.0126,-0.0284,-89.2721,0.001,-0.0169,1.1093,0.0148,0.0192,-0.0129,-0.243,0.2912
104618,-106.6913,-4.5351,-0.0126,-0.0284,-89.2721,0.001,-0.0169,1.1093,0.0148,0.0192,-0.0129,-0.243,0.2912
104634,-106.6913,-4.5351,-0.0126,-0.0284,-89.2721,0.001,-0.0169,1.1093,0.0148,0.0192,-0.0129,-0.243,0.2912
104650,-106.6913,-4.5351,-0.0126,-0.0284,-89.2721,0.001,-0.0169,1.1093,0.0148,0.0192,-0.0129,-0.243,0.2912
104666,-106.6913,-4.5351,-0.0126,-0.0284,-89.2721,0.001,-0.0169,1.1093,0.0148,0.0192,-0.0129,-0.243,0.2912
104682,-106.6913,-4.5351,-0.0126,-0.0284,-89.2721,0.001,-0.0169,1.1093,0.0148,0.0192,-0.0129,-0.243,0.2912
104698,-106.6927,-4.4332,-0.0118,-0.0233,-89.2659,0.0001,-0.0164,1.2655,0.0065,0.006,1.7053,-0.0912,-0.0084
104714,-106.6927,-4.4332,-0.0118,-0.0233,-89.2659,0.0001,-0.0164,1.2655,0.0065,0.006,1.7053,-0.0912,-0.0084
104730,-106.6927,-4.4332,-0.0118,-0.0233,-89.2659,0.0001,-0.0164,1.2655,0.0065,0.006,1.7053,-0.0912,-0.0084
104746,-106.6927,-4.4332,-0.0118,-0.0233,-89.2659,0.0001,-0.0164,1.2655,0.0065,0.006,1.7053,-0.0912,-0.0084
104762,-106.6927,-4.4332,-0.0118,-0.0233,-89.2659,0.0001,-0.0164,1.2655,0.0065,0.006,1.7053,-0.0912,-0.0084
104778,-106.6927,-4.4332,-0.0118,-0.0233,-89.2659,0.0001,-0.0164,1.2655,0.0065,0.006,1.7053,-0.0912,-0.0084
104794,-106.6941,-4.2964,-0.0112,-0.0381,-89.2813,-0.0007,-0.0173,1.649,0.0029,-0.0101,4.0135,-0.0373,-3.4803
104810,-106.6941,-4.2964,-0.0112,-0.0381,-89.2813,-0.0007,-0.0173,1.649,0.0029,-0.0101,4.0135,-0.0373,-3.4803
104826,-106.6941,-4.2964,-0.0112,-0.0381,-89.2813,-0.0007,-0.0173,1.649,0.0029,-0.0101,4.0135,-0.0373,-3.4803
104842,-106.6941,-4.2964,-0.0112,-0.0381,-89.2813,-0.0007,-0.0173,1.649,0.0029,-0.0101,4.0135,-0.0373,-3.4803
104858,-106.6941,-4.2964,-0.0112,-0.0381,-89.2813,-0.0007,-0.0173,1.649,0.0029,-0.0101,4.0135,-0.0373,-3.4803
104874,-106.6941,-4.2964,-0.0112,-0.0381,-89.2813,-0.0007,-0.0173,1.649,0.0029,-0.0101,4.0135,-0.0373,-3.4803
104890,-106.696,-4.0971,-0.0108,-0.0707,-89.3113,-0.0002,-0.0337,2.4,0.0014,-0.1704,7.8089,-0.0162,2.0106
104906,-106.696,-4.0971,-0.0108,-0.0707,-89.3113,-0.0002,-0.0337,2.4,0.0014,-0.1704,7.8089,-0.0162,2.0106
104922,-106.696,-4.0971,-0.0108,-0.0707,-89.3113,-0.0002,-0.0337,2.4,0.0014,-0.1704,7.8089,-0.0162,2.0106
104938,-106.696,-4.0971,-0.0108,-0.0707,-89.3113,-0.0002,-0.0337,2.4,0.0014,-0.1704,7.8089,-0.0162,2.0106
104954,-106.696,-4.0971,-0.0108,-0.0707,-89.3113,-0.0002,-0.0337,2.4,0.0014,-0.1704,7.8089,-0.0162,2.0106
104970,-106.696,-4.0971,-0.0108,-0.0707,-89.3113,-0.0002,-0.0337,2.4,0.0014,-0.1704,7.8089,-0.0162,2.0106
104987,-106.6978,-3.8452,-0.0107,-0.07,-89.4775,-0.0012,-0.0271,2.5988,0.0007,0.0677,2.0263,-0.0072,-2.8964
105002,-106.6978,-3.8452,-0.0107,-0.07,-89.4775,-0.0012,-0.0271,2.5988,0.0007,0.0677,2.0263,-0.0072,-2.8964
105018,-106.6978,-3.8452,-0.0107,-0.07,-89.4775,-0.0012,-0.0271,2.5988,0.0007,0.0677,2.0263,-0.0072,-2.8964
105034,-106.6978,-3.8452,-0.0107,-0.07,-89.4775,-0.0012,-0.0271,2.5988,0.0007,0.0677,2.0263,-0.0072,-2.8964
105050,-106.6978,-3.8452,-0.0107,-0.07,-89.4775,-0.0012,-0.0271,2.5988,0.0007,0.0677,2.0263,-0.0072,-2.8964
105066,-106.6978,-3.8452,-0.0107,-0.07,-89.4775,-0.0012,-0.0271,2.5988,0.0007,0.0677,2.0263,-0.0072,-2.8964
105082,-106.7005,-3.55,-0.0106,-0.0849,-89.4708,-0.0014,-0.0303,3.3008,0.0003,-0.0339,7.3584,-0.0037,-0.2546
105098,-106.7005,-3.55,-0.0106,-0.0849,-89.4708,-0.0014,-0.0303,3.3008,0.0003,-0.0339,7.3584,-0.0037,-0.2546
105114,-106.7005,-3.55,-0.0106,-0.0849,-89.4708,-0.0014,-0.0303,3.3008,0.0003,-0.0339,7.3584,-0.0037,-0.2546
105130,-106.7005,-3.55,-0.0106,-0.0849,-89.4708,-0.0014,-0.0303,3.3008,0.0003,-0.0339,7.3584,-0.0037,-0.2546
105146,-106.7005,-3.55,-0.0106,-0.0849,-89.4708,-0.0014,-0.0303,3.3008,0.0003,-0.0339,7.3584,-0.0037,-0.2546
105163,-106.7033,-3.2199,-0.0105,-0.0891,-89.4878,-0.0011,-0.0356,3.9641,0.0002,-0.0587,7.382,-0.0016,-0.0858
105178,-106.7033,-3.2199,-0.0105,-0.0891,-89.4878,-0.0011,-0.0356,3.9641,0.0002,-0.0587,7.382,-0.0016,-0.0858
105194,-106.7033,-3.2199,-0.0105,-0.0891,-89.4878,-0.0011,-0.0356,3.9641,0.0002,-0.0587,7.382,-0.0016,-0.0858
105210,-106.7033,-3.2199,-0.0105,-0.0891,-89.4878,-0.0011,-0.0356,3.9641,0.0002,-0.0587,7.382,-0.0016,-0.0858
105226,-106.7033,-3.2199,-0.0105,-0.0891,-89.4878,-0.0011,-0.0356,3.9641,0.0002,-0.0587,7.382,-0.0016,-0.0858
105242,-106.7033,-3.2199,-0.0105,-0.0891,-89.4878,-0.0011,-0.0356,3.9641,0.0002,-0.0587,7.382,-0.0016,-0.0858
105259,-106.7069,-2.8262,-0.0104,-0.0978,-89.4905,-0.0007,-0.0409,4.6045,0.0001,-0.0578,6.9266,-0.0009,-0.0536
105274,-106.7069,-2.8262,-0.0104,-0.0978,-89.4905,-0.0007,-0.0409,4.6045,0.0001,-0.0578,6.9266,-0.0009,-0.0536
105290,-106.7069,-2.8262,-0.0104,-0.0978,-89.4905,-0.0007,-0.0409,4.6045,0.0001,-0.0578,6.9266,-0.0009,-0.0536
105306,-106.7069,-2.8262,-0.0104,-0.0978,-89.4905,-0.0007,-0.0409,4.6045,0.0001,-0.0578,6.9266,-0.0009,-0.0536
105322,-106.7069,-2.8262,-0.0104,-0.0978,-89.4905,-0.0007,-0.0409,4.6045,0.0001,-0.0578,6.9266,-0.0009,-0.0536
105338,-106.7069,-2.8262,-0.0104,-0.0978,-89.4905,-0.0007,-0.0409,4.6045,0.0001,-0.0578,6.9266,-0.0009,-0.0536
105355,-106.7109,-2.3788,-0.0104,-0.1029,-89.4827,-0.0004,-0.0462,5.1867,0.0,-0.0574,6.3765,-0.0005,1.5646
105370,-106.7109,-2.3788,-0.0104,-0.1029,-89.4827,-0.0004,-0.0462,5.1867,0.0,-0.0574,6.3765,-0.0005,1.5646
105386,-106.7109,-2.3788,-0.0104,-0.1029,-89.4827,-0.0004,-0.0462,5.1867,0.0,-0.0574,6.3765,-0.0005,1.5646
105402,-106.7109,-2.3788,-0.0104,-0.1029,-89.4827,-0.0004,-0.0462,5.1867,0.0,-0.0574,6.3765,-0.0005,1.5646
105418,-106.7109,-2.3788,-0.0104,-0.1029,-89.4827,-0.0004,-0.0462,5.1867,0.0,-0.0574,6.3765,-0.0005,1.5646
105434,-106.7109,-2.3788,-0.0104,-0.1029,-89.4827,-0.0004,-0.0462,5.1867,0.0,-0.0574,6.3765,-0.0005,1.5646
105450,-106.7159,-1.8704,-0.0104,-0.1007,-89.4519,0.0004,-0.0552,5.7385,0.0,-0.0962,5.9102,-0.0001,-1.1705
105466,-106.7159,-1.8704,-0.0104,-0.1007,-89.4519,0.0004,-0.0552,5.7385,0.0,-0.0962,5.9102,-0.0001,-1.1705
105482,-106.7159,-1.8704,-0.0104,-0.1007,-89.4519,0.0004,-0.0552,5.7385,0.0,-0.0962,5.9102,-0.0001,-1.1705
105498,-106.7159,-1.8704,-0.0104,-0.1007,-89.4519,0.0004,-0.0552,5.7385,0.0,-0.0962,5.9102,-0.0001,-1.1705
105514,-106.7159,-1.8704,-0.0104,-0.1007,-89.4519,0.0004,-0.0552,5.7385,0.0,-0.0962,5.9102,-0.0001,-1.1705
105531,-106.7211,-1.3372,-0.0104,-0.097,-89.4393,0.0007,-0.0602,6.154,0.0,-0.0569,4.6497,-0.0001,-0.497
105546,-106.7211,-1.3372,-0.0104,-0.097,-89.4393,0.0007,-0.0602,6.154,0.0,-0.0569,4.6497,-0.0001,-0.497
105562,-106.7211,-1.3372,-0.0104,-0.097,-89.4393,0.0007,-0.0602,6.154,0.0,-0.0569,4.6497,-0.0001,-0.497
105578,-106.7211,-1.3372,-0.0104,-0.097,-89.4393,0.0007,-0.0602,6.154,0.0,-0.0569,4.6497,-0.0001,-0.497
105594,-106.7211,-1.3372,-0.0104,-0.097,-89.4393,0.0007,-0.0602,6.154,0.0,-0.0569,4.6497,-0.0001,-0.497
105610,-106.7211,-1.3372,-0.0104,-0.097,-89.4393,0.0007,-0.0602,6.154,0.0,-0.0569,4.6497,-0.0001,-0.497
105627,-106.7277,-0.698,-0.0104,-0.1008,-89.4165,0.0007,-0.0687,6.8329,-0.0,-0.087,6.966,-0.0003,0.4671
105642,-106.7277,-0.698,-0.0104,-0.1008,-89.4165,0.0007,-0.0687,6.8329,-0.0,-0.087,6.966,-0.0003,0.4671
105658,-106.7277,-0.698,-0.0104,-0.1008,-89.4165,0.0007,-0.0687,6.8329,-0.0,-0.087,6.966,-0.0003,0.4671
105674,-106.7277,-0.698,-0.0104,-0.1008,-89.4165,0.0007,-0.0687,6.8329,-0.0,-0.087,6.966,-0.0003,0.4671
105690,-106.7277,-0.698,-0.0104,-0.1008,-89.4165,0.0007,-0.0687,6.8329,-0.0,-0.087,6.966,-0.0003,0.4671
105706,-106.7277,-0.698,-0.0104,-0.1008,-89.4165,0.0007,-0.0687,6.8329,-0.0,-0.087,6.966,-0.0003,0.4671
105723,-106.7345,-0.0072,-0.0103,-0.1104,-89.4297,0.0004,-0.0758,7.5769,-0.0,-0.0749,7.8364,0.0,-0.3356
105738,-106.7345,-0.0072,-0.0103,-0.1104,-89.4297,0.0004,-0.0758,7.5769,-0.0,-0.0749,7.8364,0.0,-0.3356
105754,-106.7345,-0.0072,-0.0103,-0.1104,-89.4297,0.0004,-0.0758,7.5769,-0.0,-0.0749,7.8364,0.0,-0.3356
105770,-106.7345,-0.0072,-0.0103,-0.1104,-89.4297,0.0004,-0.0758,7.5769,-0.0,-0.0749,7.8364,0.0,-0.3356
105786,-106.7345,-0.0072,-0.0103,-0.1104,-89.4297,0.0004,-0.0758,7.5769,-0.0,-0.0749,7.8364,0.0,-0.3356
105802,-106.7345,-0.0072,-0.0103,-0.1104,-89.4297,0.0004,-0.0758,7.5769,-0.0,-0.0749,7.8364,0.0,-0.3356
105820,-106.7423,0.7674,-0.0103,-0.111,-89.4198,0.0003,-0.0825,8.201,-0.0,-0.069,6.4068,-0.0001,0.2911
105834,-106.7423,0.7674,-0.0103,-0.111,-89.4198,0.0003,-0.0825,8.201,-0.0,-0.069,6.4068,-0.0001,0.2911
105850,-106.7423,0.7674,-0.0103,-0.111,-89.4198,0.0003,-0.0825,8.201,-0.0,-0.069,6.4068,-0.0001,0.2911
105866,-106.7423,0.7674,-0.0103,-0.111,-89.4198,0.0003,-0.0825,8.201,-0.0,-0.069,6.4068,-0.0001,0.2911
105882,-106.7423,0.7674,-0.0103,-0.111,-89.4198,0.0003,-0.0825,8.201,-0.0,-0.069,6.4068,-0.0001,0.2911
105898,-106.7423,0.7674,-0.0103,-0.111,-89.4198,0.0003,-0.0825,8.201,-0.0,-0.069,6.4068,-0.0001,0.2911
105914,-106.7505,1.5837,-0.0104,-0.1087,-89.4256,0.0002,-0.0886,8.8213,-0.0,-0.063,6.5063,-0.0003,-0.0481
105930,-106.7505,1.5837,-0.0104,-0.1087,-89.4256,0.0002,-0.0886,8.8213,-0.0,-0.063,6.5063,-0.0003,-0.0481
105946,-106.7505,1.5837,-0.0104,-0.1087,-89.4256,0.0002,-0.0886,8.8213,-0.0,-0.063,6.5063,-0.0003,-0.0481
105962,-106.7505,1.5837,-0.0104,-0.1087,-89.4256,0.0002,-0.0886,8.8213,-0.0,-0.063,6.5063,-0.0003,-0.0481
105978,-106.7505,1.5837,-0.0104,-0.1087,-89.4256,0.0002,-0.0886,8.8213,-0.0,-0.063,6.5063,-0.0003,-0.0481
105994,-106.7505,1.5837,-0.0104,-0.1087,-89.4256,0.0002,-0.0886,8.8213,-0.0,-0.063,6.5063,-0.0003,-0.0481
106012,-106.7591,2.4376,-0.0104,-0.1064,-89.4248,0.0001,-0.0944,9.4042,0.0,-0.063,6.2511,0.0004,-0.0
106026,-106.7591,2.4376,-0.0104,-0.1064,-89.4248,0.0001,-0.0944,9.4042,0.0,-0.063,6.2511,0.0004,-0.0
106042,-106.7591,2.4376,-0.0104,-0.1064,-89.4248,0.0001,-0.0944,9.4042,0.0,-0.063,6.2511,0.0004,-0.0
106058,-106.7591,2.4376,-0.0104,-0.1064,-89.4248,0.0001,-0.0944,9.4042,0.0,-0.063,6.2511,0.0004,-0.0
106074,-106.7591,2.4376,-0.0104,-0.1064,-89.4248,0.0001,-0.0944,9.4042,0.0,-0.063,6.2511,0.0004,-0.0
106090,-106.7591,2.4376,-0.0104,-0.1064,-89.4248,0.0001,-0.0944,9.4042,0.0,-0.063,6.2511,0.0004,-0.0
106107,-106.7683,3.3643,-0.0104,-0.1002,-89.4248,0.0001,-0.0995,9.9051,-0.0,-0.0526,5.2416,-0.0001,-0.0001
106122,-106.7683,3.3643,-0.0104,-0.1002,-89.4248,0.0001,-0.0995,9.9051,-0.0,-0.0526,5.2416,-0.0001,-0.0001
106138,-106.7683,3.3643,-0.0104,-0.1002,-89.4248,0.0001,-0.0995,9.9051,-0.0,-0.0526,5.2416,-0.0001,-0.0001
106154,-106.7683,3.3643,-0.0104,-0.1002,-89.4248,0.0001,-0.0995,9.9051,-0.0,-0.0526,5.2416,-0.0001,-0.0001
106170,-106.7683,3.3643,-0.0104,-0.1002,-89.4248,0.0001,-0.0995,9.9051,-0.0,-0.0526,5.2416,-0.0001,-0.0001
106186,-106.7683,3.3643,-0.0104,-0.1002,-89.4248,0.0001,-0.0995,9.9051,-0.0,-0.0526,5.2416,-0.0001,-0.0001
106203,-106.7782,4.3438,-0.0105,-0.0913,-89.4248,0.0,-0.1039,10.3518,0.0,-0.0465,4.6347,0.0001,-0.0001
106218,-106.7782,4.3438,-0.0105,-0.0913,-89.4248,0.0,-0.1039,10.3518,0.0,-0.0465,4.6347,0.0001,-0.0001
106234,-106.7782,4.3438,-0.0105,-0.0913,-89.4248,0.0,-0.1039,10.3518,0.0,-0.0465,4.6347,0.0001,-0.0001
106250,-106.7782,4.3438,-0.0105,-0.0913,-89.4248,0.0,-0.1039,10.3518,0.0,-0.0465,4.6347,0.0001,-0.0001
106266,-106.7782,4.3438,-0.0105,-0.0913,-89.4248,0.0,-0.1039,10.3518,0.0,-0.0465,4.6347,0.0001,-0.0001
106282,-106.7782,4.3438,-0.0105,-0.0913,-89.4248,0.0,-0.1039,10.3518,0.0,-0.0465,4.6347,0.0001,-0.0001
106298,-106.7885,5.372,-0.0105,-0.0836,-89.4248,0.0,-0.1082,10.7753,-0.0,-0.0438,4.3644,-0.0001,-0.0002
106314,-106.7885,5.372,-0.0105,-0.0836,-89.4248,0.0,-0.1082,10.7753,-0.0,-0.0438,4.3644,-0.0001,-0.0002
106330,-106.7885,5.372,-0.0105,-0.0836,-89.4248,0.0,-0.1082,10.7753,-0.0,-0.0438,4.3644,-0.0001,-0.0002
106346,-106.7885,5.372,-0.0105,-0.0836,-89.4248,0.0,-0.1082,10.7753,-0.0,-0.0438,4.3644,-0.0001,-0.0002
106362,-106.7885,5.372,-0.0105,-0.0836,-89.4248,0.0,-0.1082,10.7753,-0.0,-0.0438,4.3644,-0.0001,-0.0002
106378,-106.7885,5.372,-0.0105,-0.0836,-89.4248,0.0,-0.1082,10.7753,-0.0,-0.0438,4.3644,-0.0001,-0.0002
106394,-106.7991,6.4274,-0.0106,-0.078,-89.4248,0.0,-0.1123,11.1808,0.0,-0.0424,4.2281,0.0002,-0.0001
106410,-106.7991,6.4274,-0.0106,-0.078,-89.4248,0.0,-0.1123,11.1808,0.0,-0.0424,4.2281,0.0002,-0.0001
106426,-106.7991,6.4274,-0.0106,-0.078,-89.4248,0.0,-0.1123,11.1808,0.0,-0.0424,4.2281,0.0002,-0.0001
106442,-106.7991,6.4274,-0.0106,-0.078,-89.4248,0.0,-0.1123,11.1808,0.0,-0.0424,4.2281,0.0002,-0.0001
106458,-106.7991,6.4274,-0.0106,-0.078,-89.4248,0.0,-0.1123,11.1808,0.0,-0.0424,4.2281,0.0002,-0.0001
106474,-106.7991,6.4274,-0.0106,-0.078,-89.4248,0.0,-0.1123,11.1808,0.0,-0.0424,4.2281,0.0002,-0.0001
106491,-106.8103,7.542,-0.0106,-0.073,-89.4248,0.0,-0.1161,11.561,-0.0,-0.039,3.888,-0.0002,-0.0002
106506,-106.8103,7.542,-0.0106,-0.073,-89.4248,0.0,-0.1161,11.561,-0.0,-0.039,3.888,-0.0002,-0.0002
106522,-106.8103,7.542,-0.0106,-0.073,-89.4248,0.0,-0.1161,11.561,-0.0,-0.039,3.888,-0.0002,-0.0002
106538,-106.8103,7.542,-0.0106,-0.073,-89.4248,0.0,-0.1161,11.561,-0.0,-0.039,3.888,-0.0002,-0.0002
106554,-106.8103,7.542,-0.0106,-0.073,-89.4248,0.0,-0.1161,11.561,-0.0,-0.039,3.888,-0.0002,-0.0002
106570,-106.8103,7.542,-0.0106,-0.073,-89.4248,0.0,-0.1161,11.561,-0.0,-0.039,3.888,-0.0002,-0.0002
106587,-106.8208,8.5877,-0.0107,-0.0684,-89.4248,0.0,-0.1194,11.8887,0.0,-0.037,3.6804,0.0001,0.0001
106602,-106.8208,8.5877,-0.0107,-0.0684,-89.4248,0.0,-0.1194,11.8887,0.0,-0.037,3.6804,0.0001,0.0001
106618,-106.8208,8.5877,-0.0107,-0.0684,-89.4248,0.0,-0.1194,11.8887,0.0,-0.037,3.6804,0.0001,0.0001
106634,-106.8208,8.5877,-0.0107,-0.0684,-89.4248,0.0,-0.1194,11.8887,0.0,-0.037,3.6804,0.0001,0.0001
106650,-106.8208,8.5877,-0.0107,-0.0684,-89.4248,0.0,-0.1194,11.8887,0.0,-0.037,3.6804,0.0001,0.0001
106666,-106.8208,8.5877,-0.0107,-0.0684,-89.4248,0.0,-0.1194,11.8887,0.0,-0.037,3.6804,0.0001,0.0001
106682,-106.8318,9.68,-0.0107,-0.0646,-89.4248,0.0,-0.1225,12.2033,0.0,-0.0349,3.4733,0.0001,0.0001
106698,-106.8318,9.68,-0.0107,-0.0646,-89.4248,0.0,-0.1225,12.2033,0.0,-0.0349,3.4733,0.0001,0.0001
106714,-106.8318,9.68,-0.0107,-0.0646,-89.4248,0.0,-0.1225,12.2033,0.0,-0.0349,3.4733,0.0001,0.0001
106730,-106.8318,9.68,-0.0107,-0.0646,-89.4248,0.0,-0.1225,12.2033,0.0,-0.0349,3.4733,0.0001,0.0001
106746,-106.8318,9.68,-0.0107,-0.0646,-89.4248,0.0,-0.1225,12.2033,0.0,-0.0349,3.4733,0.0001,0.0001
106762,-106.8318,9.68,-0.0107,-0.0646,-89.4248,0.0,-0.1225,12.2033,0.0,-0.0349,3.4733,0.0001,0.0001
106778,-106.844,10.9022,-0.0107,-0.0608,-89.4248,0.0,-0.1257,12.5227,0.0,-0.0325,3.236,-0.0001,0.0001
106794,-106.844,10.9022,-0.0107,-0.0608,-89.4248,0.0,-0.1257,12.5227,0.0,-0.0325,3.236,-0.0001,0.0001
106810,-106.844,10.9022,-0.0107,-0.0608,-89.4248,0.0,-0.1257,12.5227,0.0,-0.0325,3.236,-0.0001,0.0001
106826,-106.844,10.9022,-0.0107,-0.0608,-89.4248,0.0,-0.1257,12.5227,0.0,-0.0325,3.236,-0.0001,0.0001
106842,-106.844,10.9022,-0.0107,-0.0608,-89.4248,0.0,-0.1257,12.5227,0.0,-0.0325,3.236,-0.0001,0.0001
106858,-106.844,10.9022,-0.0107,-0.0608,-89.4248,0.0,-0.1257,12.5227,0.0,-0.0325,3.236,-0.0001,0.0001
106874,-106.8562,12.1188,-0.0107,-0.0559,-89.4248,0.0,-0.1284,12.7861,-0.0,-0.0276,2.7434,-0.0,0.0001
106890,-106.8562,12.1188,-0.0107,-0.0559,-89.4248,0.0,-0.1284,12.7861,-0.0,-0.0276,2.7434,-0.0,0.0001
106906,-106.8562,12.1188,-0.0107,-0.0559,-89.4248,0.0,-0.1284,12.7861,-0.0,-0.0276,2.7434,-0.0,0.0001
106922,-106.8562,12.1188,-0.0107,-0.0559,-89.4248,0.0,-0.1284,12.7861,-0.0,-0.0276,2.7434,-0.0,0.0001
106954,-106.8562,12.1188,-0.0107,-0.0559,-89.4248,0.0,-0.1284,12.7861,-0.0,-0.0276,2.7434,-0.0,0.0001
106970,-106.8974,13.3701,-0.0108,-0.0395,-90.7705,0.1209,-0.9454,12.7971,0.001,-8.3735,0.113,0.01,-30.0672
106986,-106.8974,13.3701,-0.0108,-0.0395,-90.7705,0.1209,-0.9454,12.7971,0.001,-8.3735,0.113,0.01,-30.0672
107002,-106.8974,13.3701,-0.0108,-0.0395,-90.7705,0.1209,-0.9454,12.7971,0.001,-8.3735,0.113,0.01,-30.0672
107018,-106.8974,13.3701,-0.0108,-0.0395,-90.7705,0.1209,-0.9454,12.7971,0.001,-8.3735,0.113,0.01,-30.0672
107034,-106.8974,13.3701,-0.0108,-0.0395,-90.7705,0.1209,-0.9454,12.7971,0.001,-8.3735,0.113,0.01,-30.0672
107050,-106.8974,13.3701,-0.0108,-0.0395,-90.7705,0.1209,-0.9454,12.7971,0.001,-8.3735,0.113,0.01,-30.0672
107068,-107.002,14.5972,-0.011,-0.0038,-96.1854,0.2565,-1.8764,12.5412,0.0011,-9.5929,-2.6368,0.0017,-78.8674
107082,-107.002,14.5972,-0.011,-0.0038,-96.1854,0.2565,-1.8764,12.5412,0.0011,-9.5929,-2.6368,0.0017,-78.8674
107098,-107.002,14.5972,-0.011,-0.0038,-96.1854,0.2565,-1.8764,12.5412,0.0011,-9.5929,-2.6368,0.0017,-78.8674
107114,-107.002,14.5972,-0.011,-0.0038,-96.1854,0.2565,-1.8764,12.5412,0.0011,-9.5929,-2.6368,0.0017,-78.8674
107130,-107.002,14.5972,-0.011,-0.0038,-96.1854,0.2565,-1.8764,12.5412,0.0011,-9.5929,-2.6368,0.0017,-78.8674
107146,-107.002,14.5972,-0.011,-0.0038,-96.1854,0.2565,-1.8764,12.5412,0.0011,-9.5929,-2.6368,0.0017,-78.8674
107162,-107.136,15.7806,-0.0111,0.0246,-106.7693,0.2562,-2.321,12.2706,0.0,-4.595,-2.7969,-0.0117,-135.1894
107178,-107.136,15.7806,-0.0111,0.0246,-106.7693,0.2562,-2.321,12.2706,0.0,-4.595,-2.7969,-0.0117,-135.1894
107194,-107.136,15.7806,-0.0111,0.0246,-106.7693,0.2562,-2.321,12.2706,0.0,-4.595,-2.7969,-0.0117,-135.1894
107210,-107.136,15.7806,-0.0111,0.0246,-106.7693,0.2562,-2.321,12.2706,0.0,-4.595,-2.7969,-0.0117,-135.1894
107226,-107.136,15.7806,-0.0111,0.0246,-106.7693,0.2562,-2.321,12.2706,0.0,-4.595,-2.7969,-0.0117,-135.1894
107242,-107.136,15.7806,-0.0111,0.0246,-106.7693,0.2562,-2.321,12.2706,0.0,-4.595,-2.7969,-0.0117,-135.1894
107260,-107.2416,16.9182,-0.0111,0.0101,-122.9262,0.1131,-1.9147,12.1679,-0.0012,4.1733,-1.0543,-0.0122,-188.5303
107274,-107.2416,16.9182,-0.0111,0.0101,-122.9262,0.1131,-1.9147,12.1679,-0.0012,4.1733,-1.0543,-0.0122,-188.5303
107290,-107.2416,16.9182,-0.0111,0.0101,-122.9262,0.1131,-1.9147,12.1679,-0.0012,4.1733,-1.0543,-0.0122,-188.5303
107306,-107.2416,16.9182,-0.0111,0.0101,-122.9262,0.1131,-1.9147,12.1679,-0.0012,4.1733,-1.0543,-0.0122,-188.5303
107322,-107.2416,16.9182,-0.0111,0.0101,-122.9262,0.1131,-1.9147,12.1679,-0.0012,4.1733,-1.0543,-0.0122,-188.5303
107338,-107.2416,16.9182,-0.0111,0.0101,-122.9262,0.1131,-1.9147,12.1679,-0.0012,4.1733,-1.0543,-0.0122,-188.5303
107356,-107.2319,18.0031,-0.0105,-0.0861,-142.7261,-0.1567,-0.119,12.1004,0.0008,18.4491,-0.6937,0.0202,-212.2567
107370,-107.2319,18.0031,-0.0105,-0.0861,-142.7261,-0.1567,-0.119,12.1004,0.0008,18.4491,-0.6937,0.0202,-212.2567
107386,-107.2319,18.0031,-0.0105,-0.0861,-142.7261,-0.1567,-0.119,12.1004,0.0008,18.4491,-0.6937,0.0202,-212.2567
107402,-107.2319,18.0031,-0.0105,-0.0861,-142.7261,-0.1567,-0.119,12.1004,0.0008,18.4491,-0.6937,0.0202,-212.2567
107418,-107.2319,18.0031,-0.0105,-0.0861,-142.7261,-0.1567,-0.119,12.1004,0.0008,18.4491,-0.6937,0.0202,-212.2567
107434,-107.2319,18.0031,-0.0105,-0.0861,-142.7261,-0.1567,-0.119,12.1004,0.0008,18.4491,-0.6937,0.0202,-212.2567
107450,-107.0506,19.0095,-0.0094,-0.2034,-164.0284,-0.4078,2.1728,11.3647,0.0021,23.5044,-7.545,0.0137,-222.7682
107466,-107.0506,19.0095,-0.0094,-0.2034,-164.0284,-0.4078,2.1728,11.3647,0.0021,23.5044,-7.545,0.0137,-222.7682
107482,-107.0506,19.0095,-0.0094,-0.2034,-164.0284,-0.4078,2.1728,11.3647,0.0021,23.5044,-7.545,0.0137,-222.7682
107498,-107.0506,19.0095,-0.0094,-0.2034,-164.0284,-0.4078,2.1728,11.3647,0.0021,23.5044,-7.545,0.0137,-222.7682
107514,-107.0506,19.0095,-0.0094,-0.2034,-164.0284,-0.4078,2.1728,11.3647,0.0021,23.5044,-7.545,0.0137,-222.7682
107530,-107.0506,19.0095,-0.0094,-0.2034,-164.0284,-0.4078,2.1728,11.3647,0.0021,23.5044,-7.545,0.0137,-222.7682
107562,-106.7371,19.8262,-0.0086,-0.2841,175.2024,-0.5741,4.1265,9.9296,0.0016,21.4278,-15.7399,-0.0059,-232.5478
107578,-106.7371,19.8262,-0.0086,-0.2841,175.2024,-0.5741,4.1265,9.9296,0.0016,21.4278,-15.7399,-0.0059,-232.5478
107594,-106.7371,19.8262,-0.0086,-0.2841,175.2024,-0.5741,4.1265,9.9296,0.0016,21.4278,-15.7399,-0.0059,-232.5478
107610,-106.7371,19.8262,-0.0086,-0.2841,175.2024,-0.5741,4.1265,9.9296,0.0016,21.4278,-15.7399,-0.0059,-232.5478
107626,-106.7371,19.8262,-0.0086,-0.2841,175.2024,-0.5741,4.1265,9.9296,0.0016,21.4278,-15.7399,-0.0059,-232.5478
107642,-106.3546,20.4737,-0.0083,-0.3112,153.7082,-0.7467,4.7836,7.6429,0.0017,7.158,-24.9083,0.0013,-232.9307
107658,-106.3546,20.4737,-0.0083,-0.3112,153.7082,-0.7467,4.7836,7.6429,0.0017,7.158,-24.9083,0.0013,-232.9307
107674,-106.3546,20.4737,-0.0083,-0.3112,153.7082,-0.7467,4.7836,7.6429,0.0017,7.158,-24.9083,0.0013,-232.9307
107690,-106.3546,20.4737,-0.0083,-0.3112,153.7082,-0.7467,4.7836,7.6429,0.0017,7.158,-24.9083,0.0013,-232.9307
107706,-106.3546,20.4737,-0.0083,-0.3112,153.7082,-0.7467,4.7836,7.6429,0.0017,7.158,-24.9083,0.0013,-232.9307
107723,-106.0895,20.9684,-0.009,-0.2128,135.2247,-0.8688,3.0673,6.5797,0.004,-19.69,-12.197,0.0261,-193.7189
107738,-106.0895,20.9684,-0.009,-0.2128,135.2247,-0.8688,3.0673,6.5797,0.004,-19.69,-12.197,0.0261,-193.7189
107754,-106.0895,20.9684,-0.009,-0.2128,135.2247,-0.8688,3.0673,6.5797,0.004,-19.69,-12.197,0.0261,-193.7189
107770,-106.0895,20.9684,-0.009,-0.2128,135.2247,-0.8688,3.0673,6.5797,0.004,-19.69,-12.197,0.0261,-193.7189
107786,-106.0895,20.9684,-0.009,-0.2128,135.2247,-0.8688,3.0673,6.5797,0.004,-19.69,-12.197,0.0261,-193.7189
107802,-106.0895,20.9684,-0.009,-0.2128,135.2247,-0.8688,3.0673,6.5797,0.004,-19.69,-12.197,0.0261,-193.7189
107818,-106.0134,21.5,-0.0101,-0.0412,120.0685,-0.8928,0.9116,6.9335,0.0004,-23.9835,3.9356,-0.04,-144.0716
107834,-106.0134,21.5,-0.0101,-0.0412,120.0685,-0.8928,0.9116,6.9335,0.0004,-23.9835,3.9356,-0.04,-144.0716
107850,-106.0134,21.5,-0.0101,-0.0412,120.0685,-0.8928,0.9116,6.9335,0.0004,-23.9835,3.9356,-0.04,-144.0716
107866,-106.0134,21.5,-0.0101,-0.0412,120.0685,-0.8928,0.9116,6.9335,0.0004,-23.9835,3.9356,-0.04,-144.0716
107882,-106.0134,21.5,-0.0101,-0.0412,120.0685,-0.8928,0.9116,6.9335,0.0004,-23.9835,3.9356,-0.04,-144.0716
107898,-106.0134,21.5,-0.0101,-0.0412,120.0685,-0.8928,0.9116,6.9335,0.0004,-23.9835,3.9356,-0.04,-144.0716
107914,-106.0747,22.1658,-0.0112,0.1045,109.5625,-0.7288,-0.2426,8.017,-0.0014,-12.4833,11.719,-0.0197,-96.9679
107930,-106.0747,22.1658,-0.0112,0.1045,109.5625,-0.7288,-0.2426,8.017,-0.0014,-12.4833,11.719,-0.0197,-96.9679
107946,-106.0747,22.1658,-0.0112,0.1045,109.5625,-0.7288,-0.2426,8.017,-0.0014,-12.4833,11.719,-0.0197,-96.9679
107962,-106.0747,22.1658,-0.0112,0.1045,109.5625,-0.7288,-0.2426,8.017,-0.0014,-12.4833,11.719,-0.0197,-96.9679
107978,-106.0747,22.1658,-0.0112,0.1045,109.5625,-0.7288,-0.2426,8.017,-0.0014,-12.4833,11.719,-0.0197,-96.9679
107995,-106.131,22.918,-0.0118,0.1506,101.0874,-0.3465,0.35,8.74,-0.0031,6.5281,7.9644,-0.0186,-92.5739
108010,-106.131,22.918,-0.0118,0.1506,101.0874,-0.3465,0.35,8.74,-0.0031,6.5281,7.9644,-0.0186,-92.5739
108026,-106.131,22.918,-0.0118,0.1506,101.0874,-0.3465,0.35,8.74,-0.0031,6.5281,7.9644,-0.0186,-92.5739
108042,-106.131,22.918,-0.0118,0.1506,101.0874,-0.3465,0.35,8.74,-0.0031,6.5281,7.9644,-0.0186,-92.5739
108074,-106.131,22.918,-0.0118,0.1506,101.0874,-0.3465,0.35,8.74,-0.0031,6.5281,7.9644,-0.0186,-92.5739
108092,-106.1473,23.7576,-0.0121,0.1509,94.2841,-0.1764,0.0887,9.2794,-0.0019,-2.8032,5.7849,0.0126,-48.1617
108106,-106.1473,23.7576,-0.0121,0.1509,94.2841,-0.1764,0.0887,9.2794,-0.0019,-2.8032,5.7849,0.0126,-48.1617
108122,-106.1473,23.7576,-0.0121,0.1509,94.2841,-0.1764,0.0887,9.2794,-0.0019,-2.8032,5.7849,0.0126,-48.1617
108138,-106.1473,23.7576,-0.0121,0.1509,94.2841,-0.1764,0.0887,9.2794,-0.0019,-2.8032,5.7849,0.0126,-48.1617
108154,-106.1473,23.7576,-0.0121,0.1509,94.2841,-0.1764,0.0887,9.2794,-0.0019,-2.8032,5.7849,0.0126,-48.1617
108170,-106.1473,23.7576,-0.0121,0.1509,94.2841,-0.1764,0.0887,9.2794,-0.0019,-2.8032,5.7849,0.0126,-48.1617
108187,-106.1823,24.657,-0.0119,0.1137,91.9109,-0.182,-0.2789,9.4697,-0.0001,-3.8362,1.9859,0.0189,-10.9899
108202,-106.1823,24.657,-0.0119,0.1137,91.9109,-0.182,-0.2789,9.4697,-0.0001,-3.8362,1.9859,0.0189,-10.9899
108218,-106.1823,24.657,-0.0119,0.1137,91.9109,-0.182,-0.2789,9.4697,-0.0001,-3.8362,1.9859,0.0189,-10.9899
108234,-106.1823,24.657,-0.0119,0.1137,91.9109,-0.182,-0.2789,9.4697,-0.0001,-3.8362,1.9859,0.0189,-10.9899
108250,-106.1823,24.657,-0.0119,0.1137,91.9109,-0.182,-0.2789,9.4697,-0.0001,-3.8362,1.9859,0.0189,-10.9899
108266,-106.1823,24.657,-0.0119,0.1137,91.9109,-0.182,-0.2789,9.4697,-0.0001,-3.8362,1.9859,0.0189,-10.9899
108283,-106.2128,25.5742,-0.0116,0.0758,91.3185,-0.1131,-0.2642,9.5778,-0.0004,0.1536,1.1234,-0.0028,-2.35
108298,-106.2128,25.5742,-0.0116,0.0758,91.3185,-0.1131,-0.2642,9.5778,-0.0004,0.1536,1.1234,-0.0028,-2.35
108314,-106.2128,25.5742,-0.0116,0.0758,91.3185,-0.1131,-0.2642,9.5778,-0.0004,0.1536,1.1234,-0.0028,-2.35
108330,-106.2128,25.5742,-0.0116,0.0758,91.3185,-0.1131,-0.2642,9.5778,-0.0004,0.1536,1.1234,-0.0028,-2.35
108346,-106.2128,25.5742,-0.0116,0.0758,91.3185,-0.1131,-0.2642,9.5778,-0.0004,0.1536,1.1234,-0.0028,-2.35
108362,-106.2128,25.5742,-0.0116,0.0758,91.3185,-0.1131,-0.2642,9.5778,-0.0004,0.1536,1.1234,-0.0028,-2.35
108380,-106.237,26.5042,-0.0115,0.0492,91.1568,-0.0587,-0.2256,9.6514,-0.0004,0.3982,0.7619,0.0005,-0.0833
108394,-106.237,26.5042,-0.0115,0.0492,91.1568,-0.0587,-0.2256,9.6514,-0.0004,0.3982,0.7619,0.0005,-0.0833
108410,-106.237,26.5042,-0.0115,0.0492,91.1568,-0.0587,-0.2256,9.6514,-0.0004,0.3982,0.7619,0.0005,-0.0833
108426,-106.237,26.5042,-0.0115,0.0492,91.1568,-0.0587,-0.2256,9.6514,-0.0004,0.3982,0.7619,0.0005,-0.0833
108442,-106.237,26.5042,-0.0115,0.0492,91.1568,-0.0587,-0.2256,9.6514,-0.0004,0.3982,0.7619,0.0005,-0.0833
108458,-106.237,26.5042,-0.0115,0.0492,91.1568,-0.0587,-0.2256,9.6514,-0.0004,0.3982,0.7619,0.0005,-0.0833
108476,-106.2579,27.4548,-0.0114,0.0325,91.1106,-0.0284,-0.203,9.7124,-0.0002,0.2303,0.6204,0.0018,0.5712
108490,-106.2579,27.4548,-0.0114,0.0325,91.1106,-0.0284,-0.203,9.7124,-0.0002,0.2303,0.6204,0.0018,0.5712
108506,-106.2579,27.4548,-0.0114,0.0325,91.1106,-0.0284,-0.203,9.7124,-0.0002,0.2303,0.6204,0.0018,0.5712
108522,-106.2579,27.4548,-0.0114,0.0325,91.1106,-0.0284,-0.203,9.7124,-0.0002,0.2303,0.6204,0.0018,0.5712
108538,-106.2579,27.4548,-0.0114,0.0325,91.1106,-0.0284,-0.203,9.7124,-0.0002,0.2303,0.6204,0.0018,0.5712
108554,-106.2579,27.4548,-0.0114,0.0325,91.1106,-0.0284,-0.203,9.7124,-0.0002,0.2303,0.6204,0.0018,0.5712
108572,-106.2764,28.3398,-0.0105,0.0622,91.0937,-0.1185,-0.1849,9.8007,-0.0166,0.2002,0.974,-0.1808,0.059
108586,-106.2764,28.3398,-0.0105,0.0622,91.0937,-0.1185,-0.1849,9.8007,-0.0166,0.2002,0.974,-0.1808,0.059
108602,-106.2764,28.3398,-0.0105,0.0622,91.0937,-0.1185,-0.1849,9.8007,-0.0166,0.2002,0.974,-0.1808,0.059
108618,-106.2764,28.3398,-0.0105,0.0622,91.0937,-0.1185,-0.1849,9.8007,-0.0166,0.2002,0.974,-0.1808,0.059
108634,-106.2764,28.3398,-0.0105,0.0622,91.0937,-0.1185,-0.1849,9.8007,-0.0166,0.2002,0.974,-0.1808,0.059
108650,-106.2933,29.2426,-0.0111,0.0232,91.0957,-0.0118,-0.1927,9.8498,-0.0049,-0.0853,0.5346,0.1269,0.6827
108666,-106.2933,29.2426,-0.0111,0.0232,91.0957,-0.0118,-0.1927,9.8498,-0.0049,-0.0853,0.5346,0.1269,0.6827
108682,-106.2933,29.2426,-0.0111,0.0232,91.0957,-0.0118,-0.1927,9.8498,-0.0049,-0.0853,0.5346,0.1269,0.6827
108698,-106.2933,29.2426,-0.0111,0.0232,91.0957,-0.0118,-0.1927,9.8498,-0.0049,-0.0853,0.5346,0.1269,0.6827
108714,-106.2933,29.2426,-0.0111,0.0232,91.0957,-0.0118,-0.1927,9.8498,-0.0049,-0.0853,0.5346,0.1269,0.6827
108730,-106.2933,29.2426,-0.0111,0.0232,91.0957,-0.0118,-0.1927,9.8498,-0.0049,-0.0853,0.5346,0.1269,0.6827
108748,-106.3109,30.1526,-0.0113,0.0152,91.0963,-0.0031,-0.1909,9.9021,-0.001,0.0201,0.5667,0.0427,0.6598
108762,-106.3109,30.1526,-0.0113,0.0152,91.0963,-0.0031,-0.1909,9.9021,-0.001,0.0201,0.5667,0.0427,0.6598
108778,-106.3109,30.1526,-0.0113,0.0152,91.0963,-0.0031,-0.1909,9.9021,-0.001,0.0201,0.5667,0.0427,0.6598
108794,-106.3109,30.1526,-0.0113,0.0152,91.0963,-0.0031,-0.1909,9.9021,-0.001,0.0201,0.5667,0.0427,0.6598
108810,-106.3109,30.1526,-0.0113,0.0152,91.0963,-0.0031,-0.1909,9.9021,-0.001,0.0201,0.5667,0.0427,0.6598
108826,-106.3109,30.1526,-0.0113,0.0152,91.0963,-0.0031,-0.1909,9.9021,-0.001,0.0201,0.5667,0.0427,0.6598
108844,-106.3286,31.0605,-0.0104,-0.0283,91.0945,-0.0468,-0.1884,9.9552,-0.0071,0.0268,0.5815,-0.0669,0.8005
108858,-106.3286,31.0605,-0.0104,-0.0283,91.0945,-0.0468,-0.1884,9.9552,-0.0071,0.0268,0.5815,-0.0669,0.8005
108874,-106.3286,31.0605,-0.0104,-0.0283,91.0945,-0.0468,-0.1884,9.9552,-0.0071,0.0268,0.5815,-0.0669,0.8005
108890,-106.3286,31.0605,-0.0104,-0.0283,91.0945,-0.0468,-0.1884,9.9552,-0.0071,0.0268,0.5815,-0.0669,0.8005
108906,-106.3286,31.0605,-0.0104,-0.0283,91.0945,-0.0468,-0.1884,9.9552,-0.0071,0.0268,0.5815,-0.0669,0.8005
108922,-106.3286,31.0605,-0.0104,-0.0283,91.0945,-0.0468,-0.1884,9.9552,-0.0071,0.0268,0.5815,-0.0669,0.8005
108940,-106.3468,32.0263,-0.0111,0.0037,91.0902,-0.0061,-0.1916,9.9987,-0.0021,-0.0333,0.449,0.0513,0.7273
108954,-106.3468,32.0263,-0.0111,0.0037,91.0902,-0.0061,-0.1916,9.9987,-0.0021,-0.0333,0.449,0.0513,0.7273
108970,-106.3468,32.0263,-0.0111,0.0037,91.0902,-0.0061,-0.1916,9.9987,-0.0021,-0.0333,0.449,0.0513,0.7273
108986,-106.3468,32.0263,-0.0111,0.0037,91.0902,-0.0061,-0.1916,9.9987,-0.0021,-0.0333,0.449,0.0513,0.7273
109002,-106.3468,32.0263,-0.0111,0.0037,91.0902,-0.0061,-0.1916,9.9987,-0.0021,-0.0333,0.449,0.0513,0.7273
109018,-106.3468,32.0263,-0.0111,0.0037,91.0902,-0.0061,-0.1916,9.9987,-0.0021,-0.0333,0.449,0.0513,0.7273
109036,-106.3657,33.013,-0.0112,0.0074,91.0898,-0.0022,-0.1911,10.0385,-0.0005,0.0052,0.4045,0.0166,0.7735
109050,-106.3657,33.013,-0.0112,0.0074,91.0898,-0.0022,-0.1911,10.0385,-0.0005,0.0052,0.4045,0.0166,0.7735
109066,-106.3657,33.013,-0.0112,0.0074,91.0898,-0.0022,-0.1911,10.0385,-0.0005,0.0052,0.4045,0.0166,0.7735
109082,-106.3657,33.013,-0.0112,0.0074,91.0898,-0.0022,-0.1911,10.0385,-0.0005,0.0052,0.4045,0.0166,0.7735
109098,-106.3657,33.013,-0.0112,0.0074,91.0898,-0.0022,-0.1911,10.0385,-0.0005,0.0052,0.4045,0.0166,0.7735
109114,-106.3657,33.013,-0.0112,0.0074,91.0898,-0.0022,-0.1911,10.0385,-0.0005,0.0052,0.4045,0.0166,0.7735
109131,-106.3831,33.9262,-0.0112,0.0088,91.0889,-0.0012,-0.1918,10.0979,-0.0001,-0.0071,0.6553,0.0044,0.5865
109146,-106.3831,33.9262,-0.0112,0.0088,91.0889,-0.0012,-0.1918,10.0979,-0.0001,-0.0071,0.6553,0.0044,0.5865
109162,-106.3831,33.9262,-0.0112,0.0088,91.0889,-0.0012,-0.1918,10.0979,-0.0001,-0.0071,0.6553,0.0044,0.5865
109178,-106.3831,33.9262,-0.0112,0.0088,91.0889,-0.0012,-0.1918,10.0979,-0.0001,-0.0071,0.6553,0.0044,0.5865
109194,-106.3831,33.9262,-0.0112,0.0088,91.0889,-0.0012,-0.1918,10.0979,-0.0001,-0.0071,0.6553,0.0044,0.5865
109210,-106.3831,33.9262,-0.0112,0.0088,91.0889,-0.0012,-0.1918,10.0979,-0.0001,-0.0071,0.6553,0.0044,0.5865
109227,-106.4016,34.9015,-0.0112,0.0089,91.0893,-0.0006,-0.1923,10.1405,-0.0,-0.0058,0.4423,0.001,0.7138
109242,-106.4016,34.9015,-0.0112,0.0089,91.0893,-0.0006,-0.1923,10.1405,-0.0,-0.0058,0.4423,0.001,0.7138
