timestamp,x,y,z,pitch,yaw,roll,vx,vy,vz,ax,ay,az,yaw_rate
45996,-106.6867,-4.8475,-0.0808,0.0,-89.3578,0.0,-0.0,-0.0,-0.0351,-0.0,-0.0,9.1209,0.0
46012,-106.6867,-4.8475,-0.0808,0.0,-89.3578,0.0,-0.0,-0.0,-0.0351,-0.0,-0.0,9.1209,0.0
46028,-106.6867,-4.8475,-0.0808,0.0,-89.3578,0.0,-0.0,-0.0,-0.0351,-0.0,-0.0,9.1209,0.0
46044,-106.6867,-4.8475,-0.0808,0.0,-89.3578,0.0,-0.0,-0.0,-0.0351,-0.0,-0.0,9.1209,0.0
46060,-106.6867,-4.8475,-0.0808,0.0,-89.3578,0.0,-0.0,-0.0,-0.0351,-0.0,-0.0,9.1209,0.0
46076,-106.6867,-4.8475,-0.0808,0.0,-89.3578,0.0,-0.0,-0.0,-0.0351,-0.0,-0.0,9.1209,0.0
46092,-106.6867,-4.8475,-0.0808,0.0,-89.3578,0.0,-0.0,-0.0,-0.0351,-0.0,-0.0,9.1209,0.0
46108,-106.6867,-4.8475,-0.0808,0.0,-89.3578,0.0,-0.0,-0.0,-0.0351,-0.0,-0.0,9.1209,0.0
46124,-106.6867,-4.8475,-0.0808,0.0,-89.3578,0.0,-0.0,-0.0,-0.0351,-0.0,-0.0,9.1209,0.0
46140,-106.6867,-4.8475,-0.0808,0.0,-89.3578,0.0,-0.0,-0.0,-0.0351,-0.0,-0.0,9.1209,0.0
46156,-106.6867,-4.8475,-0.0808,0.0,-89.3578,0.0,-0.0,-0.0,-0.0351,-0.0,-0.0,9.1209,0.0
46172,-106.6867,-4.8475,-0.0808,0.0,-89.3578,0.0,-0.0,-0.0,-0.0351,-0.0,-0.0,9.1209,0.0
46188,-106.6867,-4.8475,-0.0808,0.0,-89.3578,0.0,-0.0,-0.0,-0.0351,-0.0,-0.0,9.1209,0.0
46204,-106.6867,-4.8475,-0.0808,0.0,-89.3578,0.0,-0.0,-0.0,-0.0351,-0.0,-0.0,9.1209,0.0
46220,-106.6867,-4.8475,-0.0808,0.0,-89.3578,0.0,-0.0,-0.0,-0.0351,-0.0,-0.0,9.1209,0.0
46236,-106.6867,-4.8483,-0.0643,-0.0002,-89.3578,0.0,-0.0003,0.0233,0.2363,-0.0011,0.099,1.1544,-0.0006
46252,-106.6867,-4.8483,-0.0643,-0.0002,-89.3578,0.0,-0.0003,0.0233,0.2363,-0.0011,0.099,1.1544,-0.0006
46268,-106.6867,-4.8483,-0.0643,-0.0002,-89.3578,0.0,-0.0003,0.0233,0.2363,-0.0011,0.099,1.1544,-0.0006
46284,-106.6867,-4.8483,-0.0643,-0.0002,-89.3578,0.0,-0.0003,0.0233,0.2363,-0.0011,0.099,1.1544,-0.0006
46300,-106.6867,-4.8483,-0.0643,-0.0002,-89.3578,0.0,-0.0003,0.0233,0.2363,-0.0011,0.099,1.1544,-0.0006
46316,-106.6867,-4.8483,-0.0643,-0.0002,-89.3578,0.0,-0.0003,0.0233,0.2363,-0.0011,0.099,1.1544,-0.0006
46332,-106.6868,-4.8436,-0.0423,-0.0049,-89.3567,0.0,-0.0015,0.1301,0.1919,-0.0125,1.04,-0.4321,0.0193
46348,-106.6868,-4.8436,-0.0423,-0.0049,-89.3567,0.0,-0.0015,0.1301,0.1919,-0.0125,1.04,-0.4321,0.0193
46364,-106.6868,-4.8436,-0.0423,-0.0049,-89.3567,0.0,-0.0015,0.1301,0.1919,-0.0125,1.04,-0.4321,0.0193
46380,-106.6868,-4.8436,-0.0423,-0.0049,-89.3567,0.0,-0.0015,0.1301,0.1919,-0.0125,1.04,-0.4321,0.0193
46396,-106.6868,-4.8436,-0.0423,-0.0049,-89.3567,0.0,-0.0015,0.1301,0.1919,-0.0125,1.04,-0.4321,0.0193
46412,-106.6868,-4.8436,-0.0423,-0.0049,-89.3567,0.0,-0.0015,0.1301,0.1919,-0.0125,1.04,-0.4321,0.0193
46428,-106.6872,-4.808,-0.028,-0.0291,-89.3557,0.0,-0.0065,0.579,0.119,-0.0529,4.8143,-0.7818,0.5432
46444,-106.6872,-4.808,-0.028,-0.0291,-89.3557,0.0,-0.0065,0.579,0.119,-0.0529,4.8143,-0.7818,0.5432
46460,-106.6872,-4.808,-0.028,-0.0291,-89.3557,0.0,-0.0065,0.579,0.119,-0.0529,4.8143,-0.7818,0.5432
46476,-106.6872,-4.808,-0.028,-0.0291,-89.3557,0.0,-0.0065,0.579,0.119,-0.0529,4.8143,-0.7818,0.5432
46492,-106.6872,-4.808,-0.028,-0.0291,-89.3557,0.0,-0.0065,0.579,0.119,-0.0529,4.8143,-0.7818,0.5432
46508,-106.6872,-4.808,-0.028,-0.0291,-89.3557,0.0,-0.0065,0.579,0.119,-0.0529,4.8143,-0.7818,0.5432
46524,-106.6881,-4.7398,-0.02,-0.0447,-89.3453,0.0001,-0.0112,0.9218,0.068,-0.0537,3.8631,-0.5755,0.0002
46540,-106.6881,-4.7398,-0.02,-0.0447,-89.3453,0.0001,-0.0112,0.9218,0.068,-0.0537,3.8631,-0.5755,0.0002
46556,-106.6881,-4.7398,-0.02,-0.0447,-89.3453,0.0001,-0.0112,0.9218,0.068,-0.0537,3.8631,-0.5755,0.0002
46572,-106.6881,-4.7398,-0.02,-0.0447,-89.3453,0.0001,-0.0112,0.9218,0.068,-0.0537,3.8631,-0.5755,0.0002
46588,-106.6881,-4.7398,-0.02,-0.0447,-89.3453,0.0001,-0.0112,0.9218,0.068,-0.0537,3.8631,-0.5755,0.0002
46604,-106.6881,-4.7398,-0.02,-0.0447,-89.3453,0.0001,-0.0112,0.9218,0.068,-0.0537,3.8631,-0.5755,0.0002
46620,-106.6893,-4.6434,-0.015,-0.0449,-89.3499,0.0005,-0.0153,1.03,0.038,-0.0434,1.1559,-0.32,-2.9344
46636,-106.6893,-4.6434,-0.015,-0.0449,-89.3499,0.0005,-0.0153,1.03,0.038,-0.0434,1.1559,-0.32,-2.9344
46652,-106.6893,-4.6434,-0.015,-0.0449,-89.3499,0.0005,-0.0153,1.03,0.038,-0.0434,1.1559,-0.32,-2.9344
46668,-106.6893,-4.6434,-0.015,-0.0449,-89.3499,0.0005,-0.0153,1.03,0.038,-0.0434,1.1559,-0.32,-2.9344
46684,-106.6893,-4.6434,-0.015,-0.0449,-89.3499,0.0005,-0.0153,1.03,0.038,-0.0434,1.1559,-0.32,-2.9344
46701,-106.6914,-4.5478,-0.0129,-0.0297,-89.2776,0.0012,-0.0199,1.1032,0.0168,-0.0507,0.8178,-0.2375,3.7188
46716,-106.6914,-4.5478,-0.0129,-0.0297,-89.2776,0.0012,-0.0199,1.1032,0.0168,-0.0507,0.8178,-0.2375,3.7188
46732,-106.6914,-4.5478,-0.0129,-0.0297,-89.2776,0.0012,-0.0199,1.1032,0.0168,-0.0507,0.8178,-0.2375,3.7188
46748,-106.6914,-4.5478,-0.0129,-0.0297,-89.2776,0.0012,-0.0199,1.1032,0.0168,-0.0507,0.8178,-0.2375,3.7188
46764,-106.6914,-4.5478,-0.0129,-0.0297,-89.2776,0.0012,-0.0199,1.1032,0.0168,-0.0507,0.8178,-0.2375,3.7188
46780,-106.6914,-4.5478,-0.0129,-0.0297,-89.2776,0.0012,-0.0199,1.1032,0.0168,-0.0507,0.8178,-0.2375,3.7188
46798,-106.6918,-4.4411,-0.0119,-0.0244,-89.3382,-0.0023,0.002,1.3074,0.0075,0.2314,2.1653,-0.0985,-0.6671
46812,-106.6918,-4.4411,-0.0119,-0.0244,-89.3382,-0.0023,0.002,1.3074,0.0075,0.2314,2.1653,-0.0985,-0.6671
46828,-106.6918,-4.4411,-0.0119,-0.0244,-89.3382,-0.0023,0.002,1.3074,0.0075,0.2314,2.1653,-0.0985,-0.6671
46844,-106.6918,-4.4411,-0.0119,-0.0244,-89.3382,-0.0023,0.002,1.3074,0.0075,0.2314,2.1653,-0.0985,-0.6671
46860,-106.6918,-4.4411,-0.0119,-0.0244,-89.3382,-0.0023,0.002,1.3074,0.0075,0.2314,2.1653,-0.0985,-0.6671
46876,-106.6918,-4.4411,-0.0119,-0.0244,-89.3382,-0.0023,0.002,1.3074,0.0075,0.2314,2.1653,-0.0985,-0.6671
46893,-106.6932,-4.2906,-0.0112,-0.0525,-89.3953,-0.0,-0.0231,1.8331,0.0036,-0.2751,5.7623,-0.0426,-4.3485
46908,-106.6932,-4.2906,-0.0112,-0.0525,-89.3953,-0.0,-0.0231,1.8331,0.0036,-0.2751,5.7623,-0.0426,-4.3485
46924,-106.6932,-4.2906,-0.0112,-0.0525,-89.3953,-0.0,-0.0231,1.8331,0.0036,-0.2751,5.7623,-0.0426,-4.3485
46940,-106.6932,-4.2906,-0.0112,-0.0525,-89.3953,-0.0,-0.0231,1.8331,0.0036,-0.2751,5.7623,-0.0426,-4.3485
46956,-106.6932,-4.2906,-0.0112,-0.0525,-89.3953,-0.0,-0.0231,1.8331,0.0036,-0.2751,5.7623,-0.0426,-4.3485
46972,-106.6932,-4.2906,-0.0112,-0.0525,-89.3953,-0.0,-0.0231,1.8331,0.0036,-0.2751,5.7623,-0.0426,-4.3485
46990,-106.695,-4.0818,-0.0109,-0.0677,-89.433,-0.0013,-0.0197,2.3757,0.0017,0.0359,5.6138,-0.0193,-3.5606
47004,-106.695,-4.0818,-0.0109,-0.0677,-89.433,-0.0013,-0.0197,2.3757,0.0017,0.0359,5.6138,-0.0193,-3.5606
47020,-106.695,-4.0818,-0.0109,-0.0677,-89.433,-0.0013,-0.0197,2.3757,0.0017,0.0359,5.6138,-0.0193,-3.5606
47036,-106.695,-4.0818,-0.0109,-0.0677,-89.433,-0.0013,-0.0197,2.3757,0.0017,0.0359,5.6138,-0.0193,-3.5606
47052,-106.695,-4.0818,-0.0109,-0.0677,-89.433,-0.0013,-0.0197,2.3757,0.0017,0.0359,5.6138,-0.0193,-3.5606
47068,-106.695,-4.0818,-0.0109,-0.0677,-89.433,-0.0013,-0.0197,2.3757,0.0017,0.0359,5.6138,-0.0193,-3.5606
47084,-106.6986,-3.8297,-0.0107,-0.0817,-89.3398,0.0001,-0.0278,3.0087,0.0008,-0.0861,6.696,-0.0094,-2.104
47100,-106.6986,-3.8297,-0.0107,-0.0817,-89.3398,0.0001,-0.0278,3.0087,0.0008,-0.0861,6.696,-0.0094,-2.104
47116,-106.6986,-3.8297,-0.0107,-0.0817,-89.3398,0.0001,-0.0278,3.0087,0.0008,-0.0861,6.696,-0.0094,-2.104
47132,-106.6986,-3.8297,-0.0107,-0.0817,-89.3398,0.0001,-0.0278,3.0087,0.0008,-0.0861,6.696,-0.0094,-2.104
47148,-106.6986,-3.8297,-0.0107,-0.0817,-89.3398,0.0001,-0.0278,3.0087,0.0008,-0.0861,6.696,-0.0094,-2.104
47165,-106.7019,-3.5343,-0.0105,-0.0941,-89.3398,0.0006,-0.0436,3.6382,0.0004,-0.1776,7.0675,-0.0047,-0.836
47180,-106.7019,-3.5343,-0.0105,-0.0941,-89.3398,0.0006,-0.0436,3.6382,0.0004,-0.1776,7.0675,-0.0047,-0.836
47196,-106.7019,-3.5343,-0.0105,-0.0941,-89.3398,0.0006,-0.0436,3.6382,0.0004,-0.1776,7.0675,-0.0047,-0.836
47212,-106.7019,-3.5343,-0.0105,-0.0941,-89.3398,0.0006,-0.0436,3.6382,0.0004,-0.1776,7.0675,-0.0047,-0.836
47228,-106.7019,-3.5343,-0.0105,-0.0941,-89.3398,0.0006,-0.0436,3.6382,0.0004,-0.1776,7.0675,-0.0047,-0.836
47244,-106.7019,-3.5343,-0.0105,-0.0941,-89.3398,0.0006,-0.0436,3.6382,0.0004,-0.1776,7.0675,-0.0047,-0.836
47260,-106.7019,-3.5343,-0.0105,-0.0941,-89.3398,0.0006,-0.0436,3.6382,0.0004,-0.1776,7.0675,-0.0047,-0.836
47276,-106.7074,-3.1561,-0.0105,-0.092,-89.2447,0.0017,-0.0534,4.0973,0.0002,-0.0988,4.6438,-0.002,2.4741
47292,-106.7074,-3.1561,-0.0105,-0.092,-89.2447,0.0017,-0.0534,4.0973,0.0002,-0.0988,4.6438,-0.002,2.4741
47308,-106.7074,-3.1561,-0.0105,-0.092,-89.2447,0.0017,-0.0534,4.0973,0.0002,-0.0988,4.6438,-0.002,2.4741
47324,-106.7074,-3.1561,-0.0105,-0.092,-89.2447,0.0017,-0.0534,4.0973,0.0002,-0.0988,4.6438,-0.002,2.4741
47340,-106.7074,-3.1561,-0.0105,-0.092,-89.2447,0.0017,-0.0534,4.0973,0.0002,-0.0988,4.6438,-0.002,2.4741
47356,-106.712,-2.7552,-0.0106,-0.0826,-89.3016,0.0005,-0.0556,4.5146,0.0001,-0.023,4.4074,-0.0013,-1.0277
47372,-106.712,-2.7552,-0.0106,-0.0826,-89.3016,0.0005,-0.0556,4.5146,0.0001,-0.023,4.4074,-0.0013,-1.0277
47388,-106.712,-2.7552,-0.0106,-0.0826,-89.3016,0.0005,-0.0556,4.5146,0.0001,-0.023,4.4074,-0.0013,-1.0277
47404,-106.712,-2.7552,-0.0106,-0.0826,-89.3016,0.0005,-0.0556,4.5146,0.0001,-0.023,4.4074,-0.0013,-1.0277
47420,-106.712,-2.7552,-0.0106,-0.0826,-89.3016,0.0005,-0.0556,4.5146,0.0001,-0.023,4.4074,-0.0013,-1.0277
47436,-106.712,-2.7552,-0.0106,-0.0826,-89.3016,0.0005,-0.0556,4.5146,0.0001,-0.023,4.4074,-0.0013,-1.0277
47453,-106.7166,-2.3229,-0.0105,-0.0885,-89.3671,-0.0006,-0.0582,5.0637,0.0,-0.0292,6.0878,-0.0006,-1.9812
47468,-106.7166,-2.3229,-0.0105,-0.0885,-89.3671,-0.0006,-0.0582,5.0637,0.0,-0.0292,6.0878,-0.0006,-1.9812
47484,-106.7166,-2.3229,-0.0105,-0.0885,-89.3671,-0.0006,-0.0582,5.0637,0.0,-0.0292,6.0878,-0.0006,-1.9812
47500,-106.7166,-2.3229,-0.0105,-0.0885,-89.3671,-0.0006,-0.0582,5.0637,0.0,-0.0292,6.0878,-0.0006,-1.9812
47516,-106.7166,-2.3229,-0.0105,-0.0885,-89.3671,-0.0006,-0.0582,5.0637,0.0,-0.0292,6.0878,-0.0006,-1.9812
47532,-106.7166,-2.3229,-0.0105,-0.0885,-89.3671,-0.0006,-0.0582,5.0637,0.0,-0.0292,6.0878,-0.0006,-1.9812
47550,-106.722,-1.8338,-0.0105,-0.0921,-89.3724,-0.001,-0.0607,5.6152,0.0,-0.0273,5.9972,-0.0,1.5473
47564,-106.722,-1.8338,-0.0105,-0.0921,-89.3724,-0.001,-0.0607,5.6152,0.0,-0.0273,5.9972,-0.0,1.5473
47580,-106.722,-1.8338,-0.0105,-0.0921,-89.3724,-0.001,-0.0607,5.6152,0.0,-0.0273,5.9972,-0.0,1.5473
47596,-106.722,-1.8338,-0.0105,-0.0921,-89.3724,-0.001,-0.0607,5.6152,0.0,-0.0273,5.9972,-0.0,1.5473
47612,-106.722,-1.8338,-0.0105,-0.0921,-89.3724,-0.001,-0.0607,5.6152,0.0,-0.0273,5.9972,-0.0,1.5473
47628,-106.722,-1.8338,-0.0105,-0.0921,-89.3724,-0.001,-0.0607,5.6152,0.0,-0.0273,5.9972,-0.0,1.5473
47644,-106.7277,-1.2958,-0.0104,-0.1011,-89.3879,-0.0008,-0.0682,6.2784,0.0,-0.083,7.3171,-0.0003,-1.2053
47660,-106.7277,-1.2958,-0.0104,-0.1011,-89.3879,-0.0008,-0.0682,6.2784,0.0,-0.083,7.3171,-0.0003,-1.2053
47676,-106.7277,-1.2958,-0.0104,-0.1011,-89.3879,-0.0008,-0.0682,6.2784,0.0,-0.083,7.3171,-0.0003,-1.2053
47692,-106.7277,-1.2958,-0.0104,-0.1011,-89.3879,-0.0008,-0.0682,6.2784,0.0,-0.083,7.3171,-0.0003,-1.2053
47708,-106.7277,-1.2958,-0.0104,-0.1011,-89.3879,-0.0008,-0.0682,6.2784,0.0,-0.083,7.3171,-0.0003,-1.2053
47727,-106.7343,-0.6817,-0.0104,-0.1096,-89.3818,-0.0006,-0.0744,6.9528,0.0,-0.0666,7.2734,-0.0002,0.9865
47740,-106.7343,-0.6817,-0.0104,-0.1096,-89.3818,-0.0006,-0.0744,6.9528,0.0,-0.0666,7.2734,-0.0002,0.9865
47756,-106.7343,-0.6817,-0.0104,-0.1096,-89.3818,-0.0006,-0.0744,6.9528,0.0,-0.0666,7.2734,-0.0002,0.9865
47772,-106.7343,-0.6817,-0.0104,-0.1096,-89.3818,-0.0006,-0.0744,6.9528,0.0,-0.0666,7.2734,-0.0002,0.9865
47788,-106.7343,-0.6817,-0.0104,-0.1096,-89.3818,-0.0006,-0.0744,6.9528,0.0,-0.0666,7.2734,-0.0002,0.9865
47804,-106.7343,-0.6817,-0.0104,-0.1096,-89.3818,-0.0006,-0.0744,6.9528,0.0,-0.0666,7.2734,-0.0002,0.9865
47820,-106.7417,0.0053,-0.0103,-0.1119,-89.387,-0.0004,-0.0818,7.5911,0.0,-0.0781,6.7629,0.0001,-0.8273
47836,-106.7417,0.0053,-0.0103,-0.1119,-89.387,-0.0004,-0.0818,7.5911,0.0,-0.0781,6.7629,0.0001,-0.8273
47852,-106.7417,0.0053,-0.0103,-0.1119,-89.387,-0.0004,-0.0818,7.5911,0.0,-0.0781,6.7629,0.0001,-0.8273
47868,-106.7417,0.0053,-0.0103,-0.1119,-89.387,-0.0004,-0.0818,7.5911,0.0,-0.0781,6.7629,0.0001,-0.8273
47884,-106.7417,0.0053,-0.0103,-0.1119,-89.387,-0.0004,-0.0818,7.5911,0.0,-0.0781,6.7629,0.0001,-0.8273
47900,-106.7417,0.0053,-0.0103,-0.1119,-89.387,-0.0004,-0.0818,7.5911,0.0,-0.0781,6.7629,0.0001,-0.8273
47918,-106.7494,0.7214,-0.0103,-0.1149,-89.3856,-0.0002,-0.0886,8.2601,0.0,-0.0756,7.4102,0.0,0.0247
47932,-106.7494,0.7214,-0.0103,-0.1149,-89.3856,-0.0002,-0.0886,8.2601,0.0,-0.0756,7.4102,0.0,0.0247
47948,-106.7494,0.7214,-0.0103,-0.1149,-89.3856,-0.0002,-0.0886,8.2601,0.0,-0.0756,7.4102,0.0,0.0247
47964,-106.7494,0.7214,-0.0103,-0.1149,-89.3856,-0.0002,-0.0886,8.2601,0.0,-0.0756,7.4102,0.0,0.0247
47980,-106.7494,0.7214,-0.0103,-0.1149,-89.3856,-0.0002,-0.0886,8.2601,0.0,-0.0756,7.4102,0.0,0.0247
47996,-106.7494,0.7214,-0.0103,-0.1149,-89.3856,-0.0002,-0.0886,8.2601,0.0,-0.0756,7.4102,0.0,0.0247
48012,-106.7579,1.5177,-0.0103,-0.1144,-89.3858,-0.0002,-0.0949,8.8533,-0.0,-0.0682,6.3981,-0.0002,-0.0006
48028,-106.7579,1.5177,-0.0103,-0.1144,-89.3858,-0.0002,-0.0949,8.8533,-0.0,-0.0682,6.3981,-0.0002,-0.0006
48044,-106.7579,1.5177,-0.0103,-0.1144,-89.3858,-0.0002,-0.0949,8.8533,-0.0,-0.0682,6.3981,-0.0002,-0.0006
48060,-106.7579,1.5177,-0.0103,-0.1144,-89.3858,-0.0002,-0.0949,8.8533,-0.0,-0.0682,6.3981,-0.0002,-0.0006
48076,-106.7579,1.5177,-0.0103,-0.1144,-89.3858,-0.0002,-0.0949,8.8533,-0.0,-0.0682,6.3981,-0.0002,-0.0006
48092,-106.7666,2.3297,-0.0104,-0.1007,-89.3858,-0.0001,-0.0987,9.2026,0.0,-0.0416,3.8962,0.0001,-0.0003
48108,-106.7666,2.3297,-0.0104,-0.1007,-89.3858,-0.0001,-0.0987,9.2026,0.0,-0.0416,3.8962,0.0001,-0.0003
48124,-106.7666,2.3297,-0.0104,-0.1007,-89.3858,-0.0001,-0.0987,9.2026,0.0,-0.0416,3.8962,0.0001,-0.0003
48140,-106.7666,2.3297,-0.0104,-0.1007,-89.3858,-0.0001,-0.0987,9.2026,0.0,-0.0416,3.8962,0.0001,-0.0003
48156,-106.7666,2.3297,-0.0104,-0.1007,-89.3858,-0.0001,-0.0987,9.2026,0.0,-0.0416,3.8962,0.0001,-0.0003
48172,-106.7666,2.3297,-0.0104,-0.1007,-89.3858,-0.0001,-0.0987,9.2026,0.0,-0.0416,3.8962,0.0001,-0.0003
48190,-106.7759,3.1908,-0.0105,-0.0952,-89.3858,-0.0001,-0.1045,9.7443,0.0,-0.064,5.9781,-0.0,-0.0001
48204,-106.7759,3.1908,-0.0105,-0.0952,-89.3858,-0.0001,-0.1045,9.7443,0.0,-0.064,5.9781,-0.0,-0.0001
48220,-106.7759,3.1908,-0.0105,-0.0952,-89.3858,-0.0001,-0.1045,9.7443,0.0,-0.064,5.9781,-0.0,-0.0001
48236,-106.7759,3.1908,-0.0105,-0.0952,-89.3858,-0.0001,-0.1045,9.7443,0.0,-0.064,5.9781,-0.0,-0.0001
48252,-106.7759,3.1908,-0.0105,-0.0952,-89.3858,-0.0001,-0.1045,9.7443,0.0,-0.064,5.9781,-0.0,-0.0001
48268,-106.7759,3.1908,-0.0105,-0.0952,-89.3858,-0.0001,-0.1045,9.7443,0.0,-0.064,5.9781,-0.0,-0.0001
48284,-106.7859,4.1237,-0.0105,-0.0936,-89.3858,-0.0001,-0.1098,10.2415,0.0,-0.0573,5.3472,0.0,0.0001
48300,-106.7859,4.1237,-0.0105,-0.0936,-89.3858,-0.0001,-0.1098,10.2415,0.0,-0.0573,5.3472,0.0,0.0001
48316,-106.7859,4.1237,-0.0105,-0.0936,-89.3858,-0.0001,-0.1098,10.2415,0.0,-0.0573,5.3472,0.0,0.0001
48332,-106.7859,4.1237,-0.0105,-0.0936,-89.3858,-0.0001,-0.1098,10.2415,0.0,-0.0573,5.3472,0.0,0.0001
48348,-106.7859,4.1237,-0.0105,-0.0936,-89.3858,-0.0001,-0.1098,10.2415,0.0,-0.0573,5.3472,0.0,0.0001
48365,-106.796,5.0709,-0.0105,-0.0887,-89.3858,-0.0,-0.1144,10.6722,-0.0,-0.0511,4.7679,-0.0001,0.0
48380,-106.796,5.0709,-0.0105,-0.0887,-89.3858,-0.0,-0.1144,10.6722,-0.0,-0.0511,4.7679,-0.0001,0.0
48396,-106.796,5.0709,-0.0105,-0.0887,-89.3858,-0.0,-0.1144,10.6722,-0.0,-0.0511,4.7679,-0.0001,0.0
48412,-106.796,5.0709,-0.0105,-0.0887,-89.3858,-0.0,-0.1144,10.6722,-0.0,-0.0511,4.7679,-0.0001,0.0
48428,-106.796,5.0709,-0.0105,-0.0887,-89.3858,-0.0,-0.1144,10.6722,-0.0,-0.0511,4.7679,-0.0001,0.0
48444,-106.796,5.0709,-0.0105,-0.0887,-89.3858,-0.0,-0.1144,10.6722,-0.0,-0.0511,4.7679,-0.0001,0.0
48462,-106.8073,6.1225,-0.0106,-0.0819,-89.3858,0.0,-0.1187,11.076,-0.0,-0.0449,4.1867,-0.0001,0.0001
48476,-106.8073,6.1225,-0.0106,-0.0819,-89.3858,0.0,-0.1187,11.076,-0.0,-0.0449,4.1867,-0.0001,0.0001
48492,-106.8073,6.1225,-0.0106,-0.0819,-89.3858,0.0,-0.1187,11.076,-0.0,-0.0449,4.1867,-0.0001,0.0001
48508,-106.8073,6.1225,-0.0106,-0.0819,-89.3858,0.0,-0.1187,11.076,-0.0,-0.0449,4.1867,-0.0001,0.0001
48524,-106.8073,6.1225,-0.0106,-0.0819,-89.3858,0.0,-0.1187,11.076,-0.0,-0.0449,4.1867,-0.0001,0.0001
48540,-106.8073,6.1225,-0.0106,-0.0819,-89.3858,0.0,-0.1187,11.076,-0.0,-0.0449,4.1867,-0.0001,0.0001
48557,-106.818,7.1213,-0.0106,-0.0749,-89.3858,0.0,-0.1224,11.4135,-0.0,-0.0408,3.806,0.0001,0.0
48572,-106.818,7.1213,-0.0106,-0.0749,-89.3858,0.0,-0.1224,11.4135,-0.0,-0.0408,3.806,0.0001,0.0
48588,-106.818,7.1213,-0.0106,-0.0749,-89.3858,0.0,-0.1224,11.4135,-0.0,-0.0408,3.806,0.0001,0.0
48604,-106.818,7.1213,-0.0106,-0.0749,-89.3858,0.0,-0.1224,11.4135,-0.0,-0.0408,3.806,0.0001,0.0
48620,-106.818,7.1213,-0.0106,-0.0749,-89.3858,0.0,-0.1224,11.4135,-0.0,-0.0408,3.806,0.0001,0.0
48636,-106.818,7.1213,-0.0106,-0.0749,-89.3858,0.0,-0.1224,11.4135,-0.0,-0.0408,3.806,0.0001,0.0
48652,-106.8292,8.1649,-0.0106,-0.0697,-89.3858,-0.0,-0.126,11.7488,-0.0,-0.04,3.7248,-0.0001,0.0001
48668,-106.8292,8.1649,-0.0106,-0.0697,-89.3858,-0.0,-0.126,11.7488,-0.0,-0.04,3.7248,-0.0001,0.0001
48684,-106.8292,8.1649,-0.0106,-0.0697,-89.3858,-0.0,-0.126,11.7488,-0.0,-0.04,3.7248,-0.0001,0.0001
48700,-106.8292,8.1649,-0.0106,-0.0697,-89.3858,-0.0,-0.126,11.7488,-0.0,-0.04,3.7248,-0.0001,0.0001
48716,-106.8292,8.1649,-0.0106,-0.0697,-89.3858,-0.0,-0.126,11.7488,-0.0,-0.04,3.7248,-0.0001,0.0001
48734,-106.841,9.2725,-0.0107,-0.066,-89.3858,0.0,-0.1295,12.0783,0.0,-0.038,3.55,0.0001,0.0001
48748,-106.841,9.2725,-0.0107,-0.066,-89.3858,0.0,-0.1295,12.0783,0.0,-0.038,3.55,0.0001,0.0001
48764,-106.841,9.2725,-0.0107,-0.066,-89.3858,0.0,-0.1295,12.0783,0.0,-0.038,3.55,0.0001,0.0001
48780,-106.841,9.2725,-0.0107,-0.066,-89.3858,0.0,-0.1295,12.0783,0.0,-0.038,3.55,0.0001,0.0001
48796,-106.841,9.2725,-0.0107,-0.066,-89.3858,0.0,-0.1295,12.0783,0.0,-0.038,3.55,0.0001,0.0001
48812,-106.841,9.2725,-0.0107,-0.066,-89.3858,0.0,-0.1295,12.0783,0.0,-0.038,3.55,0.0001,0.0001
48829,-106.8532,10.4047,-0.0107,-0.062,-89.3858,0.0,-0.1327,12.3804,0.0,-0.035,3.267,0.0,0.0
48844,-106.8532,10.4047,-0.0107,-0.062,-89.3858,0.0,-0.1327,12.3804,0.0,-0.035,3.267,0.0,0.0
48860,-106.8532,10.4047,-0.0107,-0.062,-89.3858,0.0,-0.1327,12.3804,0.0,-0.035,3.267,0.0,0.0
48876,-106.8532,10.4047,-0.0107,-0.062,-89.3858,0.0,-0.1327,12.3804,0.0,-0.035,3.267,0.0,0.0
48892,-106.8532,10.4047,-0.0107,-0.062,-89.3858,0.0,-0.1327,12.3804,0.0,-0.035,3.267,0.0,0.0
48908,-106.8532,10.4047,-0.0107,-0.062,-89.3858,0.0,-0.1327,12.3804,0.0,-0.035,3.267,0.0,0.0
48926,-106.8654,11.5467,-0.0107,-0.0581,-89.3858,-0.0,-0.1357,12.6561,-0.0,-0.0325,3.0265,-0.0003,0.0
48940,-106.8654,11.5467,-0.0107,-0.0581,-89.3858,-0.0,-0.1357,12.6561,-0.0,-0.0325,3.0265,-0.0003,0.0
48956,-106.8654,11.5467,-0.0107,-0.0581,-89.3858,-0.0,-0.1357,12.6561,-0.0,-0.0325,3.0265,-0.0003,0.0
48972,-106.8654,11.5467,-0.0107,-0.0581,-89.3858,-0.0,-0.1357,12.6561,-0.0,-0.0325,3.0265,-0.0003,0.0
48988,-106.8654,11.5467,-0.0107,-0.0581,-89.3858,-0.0,-0.1357,12.6561,-0.0,-0.0325,3.0265,-0.0003,0.0
49020,-106.878,12.7185,-0.0108,-0.0523,-89.3858,0.0,-0.138,12.8711,0.0,-0.0251,2.3447,0.0002,0.0
49036,-106.878,12.7185,-0.0108,-0.0523,-89.3858,0.0,-0.138,12.8711,0.0,-0.0251,2.3447,0.0002,0.0
49052,-106.878,12.7185,-0.0108,-0.0523,-89.3858,0.0,-0.138,12.8711,0.0,-0.0251,2.3447,0.0002,0.0
49068,-106.878,12.7185,-0.0108,-0.0523,-89.3858,0.0,-0.138,12.8711,0.0,-0.0251,2.3447,0.0002,0.0
49084,-106.878,12.7185,-0.0108,-0.0523,-89.3858,0.0,-0.138,12.8711,0.0,-0.0251,2.3447,0.0002,0.0
49102,-106.9148,13.8973,-0.0108,-0.0373,-90.5155,0.1072,-0.8803,12.8716,0.0009,-8.122,0.0049,0.01,-27.0623
49116,-106.9148,13.8973,-0.0108,-0.0373,-90.5155,0.1072,-0.8803,12.8716,0.0009,-8.122,0.0049,0.01,-27.0623
49132,-106.9148,13.8973,-0.0108,-0.0373,-90.5155,0.1072,-0.8803,12.8716,0.0009,-8.122,0.0049,0.01,-27.0623
49148,-106.9148,13.8973,-0.0108,-0.0373,-90.5155,0.1072,-0.8803,12.8716,0.0009,-8.122,0.0049,0.01,-27.0623
49164,-106.9148,13.8973,-0.0108,-0.0373,-90.5155,0.1072,-0.8803,12.8716,0.0009,-8.122,0.0049,0.01,-27.0623
49180,-106.9148,13.8973,-0.0108,-0.0373,-90.5155,0.1072,-0.8803,12.8716,0.0009,-8.122,0.0049,0.01,-27.0623
49197,-107.0081,15.0549,-0.011,-0.0055,-95.1071,0.2436,-1.7777,12.6328,0.0012,-9.8722,-2.6268,0.0033,-71.6103
49212,-107.0081,15.0549,-0.011,-0.0055,-95.1071,0.2436,-1.7777,12.6328,0.0012,-9.8722,-2.6268,0.0033,-71.6103
49228,-107.0081,15.0549,-0.011,-0.0055,-95.1071,0.2436,-1.7777,12.6328,0.0012,-9.8722,-2.6268,0.0033,-71.6103
49244,-107.0081,15.0549,-0.011,-0.0055,-95.1071,0.2436,-1.7777,12.6328,0.0012,-9.8722,-2.6268,0.0033,-71.6103
49260,-107.0081,15.0549,-0.011,-0.0055,-95.1071,0.2436,-1.7777,12.6328,0.0012,-9.8722,-2.6268,0.0033,-71.6103
49276,-107.0081,15.0549,-0.011,-0.0055,-95.1071,0.2436,-1.7777,12.6328,0.0012,-9.8722,-2.6268,0.0033,-71.6103
49294,-107.1387,16.2179,-0.0111,0.025,-104.6224,0.2672,-2.3085,12.3473,0.0002,-5.6353,-3.031,-0.0107,-126.0396
49308,-107.1387,16.2179,-0.0111,0.025,-104.6224,0.2672,-2.3085,12.3473,0.0002,-5.6353,-3.031,-0.0107,-126.0396
49324,-107.1387,16.2179,-0.0111,0.025,-104.6224,0.2672,-2.3085,12.3473,0.0002,-5.6353,-3.031,-0.0107,-126.0396
49340,-107.1387,16.2179,-0.0111,0.025,-104.6224,0.2672,-2.3085,12.3473,0.0002,-5.6353,-3.031,-0.0107,-126.0396
49356,-107.1387,16.2179,-0.0111,0.025,-104.6224,0.2672,-2.3085,12.3473,0.0002,-5.6353,-3.031,-0.0107,-126.0396
49372,-107.2485,17.2786,-0.0112,0.023,-118.5745,0.1624,-2.176,12.1899,-0.0009,1.4777,-1.7556,-0.0128,-179.0426
49388,-107.2485,17.2786,-0.0112,0.023,-118.5745,0.1624,-2.176,12.1899,-0.0009,1.4777,-1.7556,-0.0128,-179.0426
49404,-107.2485,17.2786,-0.0112,0.023,-118.5745,0.1624,-2.176,12.1899,-0.0009,1.4777,-1.7556,-0.0128,-179.0426
49420,-107.2485,17.2786,-0.0112,0.023,-118.5745,0.1624,-2.176,12.1899,-0.0009,1.4777,-1.7556,-0.0128,-179.0426
49436,-107.2485,17.2786,-0.0112,0.023,-118.5745,0.1624,-2.176,12.1899,-0.0009,1.4777,-1.7556,-0.0128,-179.0426
49452,-107.2485,17.2786,-0.0112,0.023,-118.5745,0.1624,-2.176,12.1899,-0.0009,1.4777,-1.7556,-0.0128,-179.0426
49469,-107.2797,18.3111,-0.0107,-0.0484,-136.5409,-0.0688,-0.7721,12.1994,-0.0006,15.3969,0.1048,0.0035,-207.7752
49484,-107.2797,18.3111,-0.0107,-0.0484,-136.5409,-0.0688,-0.7721,12.1994,-0.0006,15.3969,0.1048,0.0035,-207.7752
49500,-107.2797,18.3111,-0.0107,-0.0484,-136.5409,-0.0688,-0.7721,12.1994,-0.0006,15.3969,0.1048,0.0035,-207.7752
49516,-107.2797,18.3111,-0.0107,-0.0484,-136.5409,-0.0688,-0.7721,12.1994,-0.0006,15.3969,0.1048,0.0035,-207.7752
49532,-107.2797,18.3111,-0.0107,-0.0484,-136.5409,-0.0688,-0.7721,12.1994,-0.0006,15.3969,0.1048,0.0035,-207.7752
49548,-107.2797,18.3111,-0.0107,-0.0484,-136.5409,-0.0688,-0.7721,12.1994,-0.0006,15.3969,0.1048,0.0035,-207.7752
49564,-107.1708,19.2618,-0.0098,-0.1599,-155.655,-0.3188,1.2588,11.7794,0.002,22.8544,-4.7265,0.0295,-219.6919
49580,-107.1708,19.2618,-0.0098,-0.1599,-155.655,-0.3188,1.2588,11.7794,0.002,22.8544,-4.7265,0.0295,-219.6919
49596,-107.1708,19.2618,-0.0098,-0.1599,-155.655,-0.3188,1.2588,11.7794,0.002,22.8544,-4.7265,0.0295,-219.6919
49628,-107.1708,19.2618,-0.0098,-0.1599,-155.655,-0.3188,1.2588,11.7794,0.002,22.8544,-4.7265,0.0295,-219.6919
49645,-107.1708,19.2618,-0.0098,-0.1599,-155.655,-0.3188,1.2588,11.7794,0.002,22.8544,-4.7265,0.0295,-219.6919
49660,-106.9174,20.145,-0.009,-0.2362,-176.7051,-0.5979,2.9274,9.9354,0.0027,17.5503,-19.3955,0.0069,-221.7968
49676,-106.9174,20.145,-0.009,-0.2362,-176.7051,-0.5979,2.9274,9.9354,0.0027,17.5503,-19.3955,0.0069,-221.7968
49692,-106.9174,20.145,-0.009,-0.2362,-176.7051,-0.5979,2.9274,9.9354,0.0027,17.5503,-19.3955,0.0069,-221.7968
49708,-106.9174,20.145,-0.009,-0.2362,-176.7051,-0.5979,2.9274,9.9354,0.0027,17.5503,-19.3955,0.0069,-221.7968
49724,-106.9174,20.145,-0.009,-0.2362,-176.7051,-0.5979,2.9274,9.9354,0.0027,17.5503,-19.3955,0.0069,-221.7968
49742,-106.6926,20.7715,-0.0092,-0.1971,164.9559,-0.8091,2.2968,7.8948,-0.0033,-7.258,-23.4898,-0.068,-200.0253
49756,-106.6926,20.7715,-0.0092,-0.1971,164.9559,-0.8091,2.2968,7.8948,-0.0033,-7.258,-23.4898,-0.068,-200.0253
49772,-106.6926,20.7715,-0.0092,-0.1971,164.9559,-0.8091,2.2968,7.8948,-0.0033,-7.258,-23.4898,-0.068,-200.0253
49788,-106.6926,20.7715,-0.0092,-0.1971,164.9559,-0.8091,2.2968,7.8948,-0.0033,-7.258,-23.4898,-0.068,-200.0253
49804,-106.6926,20.7715,-0.0092,-0.1971,164.9559,-0.8091,2.2968,7.8948,-0.0033,-7.258,-23.4898,-0.068,-200.0253
49822,-106.6263,21.2765,-0.0099,-0.082,148.1684,-0.9482,0.5021,6.5588,0.0032,-20.4584,-15.2292,0.0739,-179.3177
49836,-106.6263,21.2765,-0.0099,-0.082,148.1684,-0.9482,0.5021,6.5588,0.0032,-20.4584,-15.2292,0.0739,-179.3177
49852,-106.6263,21.2765,-0.0099,-0.082,148.1684,-0.9482,0.5021,6.5588,0.0032,-20.4584,-15.2292,0.0739,-179.3177
49868,-106.6263,21.2765,-0.0099,-0.082,148.1684,-0.9482,0.5021,6.5588,0.0032,-20.4584,-15.2292,0.0739,-179.3177
49884,-106.6263,21.2765,-0.0099,-0.082,148.1684,-0.9482,0.5021,6.5588,0.0032,-20.4584,-15.2292,0.0739,-179.3177
49900,-106.6263,21.2765,-0.0099,-0.082,148.1684,-0.9482,0.5021,6.5588,0.0032,-20.4584,-15.2292,0.0739,-179.3177
49917,-106.7504,21.7783,-0.0109,0.0708,134.9459,-0.8782,-1.6557,6.851,-0.0003,-24.8537,3.3655,-0.0404,-130.1361
49932,-106.7504,21.7783,-0.0109,0.0708,134.9459,-0.8782,-1.6557,6.851,-0.0003,-24.8537,3.3655,-0.0404,-130.1361
49948,-106.7504,21.7783,-0.0109,0.0708,134.9459,-0.8782,-1.6557,6.851,-0.0003,-24.8537,3.3655,-0.0404,-130.1361
49964,-106.7504,21.7783,-0.0109,0.0708,134.9459,-0.8782,-1.6557,6.851,-0.0003,-24.8537,3.3655,-0.0404,-130.1361
49980,-106.7504,21.7783,-0.0109,0.0708,134.9459,-0.8782,-1.6557,6.851,-0.0003,-24.8537,3.3655,-0.0404,-130.1361
49998,-106.9945,22.3459,-0.0118,0.1793,125.8648,-0.6569,-2.6279,7.7555,-0.0018,-11.7348,10.9167,-0.018,-98.7921
50012,-106.9945,22.3459,-0.0118,0.1793,125.8648,-0.6569,-2.6279,7.7555,-0.0018,-11.7348,10.9167,-0.018,-98.7921
50028,-106.9945,22.3459,-0.0118,0.1793,125.8648,-0.6569,-2.6279,7.7555,-0.0018,-11.7348,10.9167,-0.018,-98.7921
50044,-106.9945,22.3459,-0.0118,0.1793,125.8648,-0.6569,-2.6279,7.7555,-0.0018,-11.7348,10.9167,-0.018,-98.7921
50060,-106.9945,22.3459,-0.0118,0.1793,125.8648,-0.6569,-2.6279,7.7555,-0.0018,-11.7348,10.9167,-0.018,-98.7921
50076,-107.2536,23.0143,-0.0122,0.2019,117.7978,-0.3013,-2.2606,8.6161,-0.0032,4.3426,10.174,-0.0168,-93.8096
50092,-107.2536,23.0143,-0.0122,0.2019,117.7978,-0.3013,-2.2606,8.6161,-0.0032,4.3426,10.174,-0.0168,-93.8096
50108,-107.2536,23.0143,-0.0122,0.2019,117.7978,-0.3013,-2.2606,8.6161,-0.0032,4.3426,10.174,-0.0168,-93.8096
50140,-107.2536,23.0143,-0.0122,0.2019,117.7978,-0.3013,-2.2606,8.6161,-0.0032,4.3426,10.174,-0.0168,-93.8096
50157,-107.2536,23.0143,-0.0122,0.2019,117.7978,-0.3013,-2.2606,8.6161,-0.0032,4.3426,10.174,-0.0168,-93.8096
50172,-107.4886,23.7423,-0.0124,0.1869,111.3116,-0.135,-2.5255,9.0826,-0.0024,-3.1659,5.5741,0.0098,-57.5189
50188,-107.4886,23.7423,-0.0124,0.1869,111.3116,-0.135,-2.5255,9.0826,-0.0024,-3.1659,5.5741,0.0098,-57.5189
50204,-107.4886,23.7423,-0.0124,0.1869,111.3116,-0.135,-2.5255,9.0826,-0.0024,-3.1659,5.5741,0.0098,-57.5189
50220,-107.4886,23.7423,-0.0124,0.1869,111.3116,-0.135,-2.5255,9.0826,-0.0024,-3.1659,5.5741,0.0098,-57.5189
50236,-107.4886,23.7423,-0.0124,0.1869,111.3116,-0.135,-2.5255,9.0826,-0.0024,-3.1659,5.5741,0.0098,-57.5189
50253,-107.7529,24.5233,-0.0121,0.1447,108.6044,-0.1586,-2.9924,9.1785,-0.0001,-5.412,1.1108,0.0257,-15.9255
50268,-107.7529,24.5233,-0.0121,0.1447,108.6044,-0.1586,-2.9924,9.1785,-0.0001,-5.412,1.1108,0.0257,-15.9255
50284,-107.7529,24.5233,-0.0121,0.1447,108.6044,-0.1586,-2.9924,9.1785,-0.0001,-5.412,1.1108,0.0257,-15.9255
50300,-107.7529,24.5233,-0.0121,0.1447,108.6044,-0.1586,-2.9924,9.1785,-0.0001,-5.412,1.1108,0.0257,-15.9255
50316,-107.7529,24.5233,-0.0121,0.1447,108.6044,-0.1586,-2.9924,9.1785,-0.0001,-5.412,1.1108,0.0257,-15.9255
50332,-107.7529,24.5233,-0.0121,0.1447,108.6044,-0.1586,-2.9924,9.1785,-0.0001,-5.412,1.1108,0.0257,-15.9255
50348,-108.0246,25.3354,-0.0118,0.1,107.8033,-0.111,-3.0316,9.2911,-0.0002,-0.4446,1.2793,-0.0011,-5.7017
50364,-108.0246,25.3354,-0.0118,0.1,107.8033,-0.111,-3.0316,9.2911,-0.0002,-0.4446,1.2793,-0.0011,-5.7017
50380,-108.0246,25.3354,-0.0118,0.1,107.8033,-0.111,-3.0316,9.2911,-0.0002,-0.4446,1.2793,-0.0011,-5.7017
50396,-108.0246,25.3354,-0.0118,0.1,107.8033,-0.111,-3.0316,9.2911,-0.0002,-0.4446,1.2793,-0.0011,-5.7017
50412,-108.0246,25.3354,-0.0118,0.1,107.8033,-0.111,-3.0316,9.2911,-0.0002,-0.4446,1.2793,-0.0011,-5.7017
50429,-108.2923,26.1584,-0.0116,0.0665,107.5732,-0.061,-3.0122,9.3729,-0.0003,0.2197,0.9271,-0.001,-0.7304
50444,-108.2923,26.1584,-0.0116,0.0665,107.5732,-0.061,-3.0122,9.3729,-0.0003,0.2197,0.9271,-0.001,-0.7304
50460,-108.2923,26.1584,-0.0116,0.0665,107.5732,-0.061,-3.0122,9.3729,-0.0003,0.2197,0.9271,-0.001,-0.7304
50476,-108.2923,26.1584,-0.0116,0.0665,107.5732,-0.061,-3.0122,9.3729,-0.0003,0.2197,0.9271,-0.001,-0.7304
50492,-108.2923,26.1584,-0.0116,0.0665,107.5732,-0.061,-3.0122,9.3729,-0.0003,0.2197,0.9271,-0.001,-0.7304
50509,-108.2923,26.1584,-0.0116,0.0665,107.5732,-0.061,-3.0122,9.3729,-0.0003,0.2197,0.9271,-0.001,-0.7304
50524,-108.5649,27.0116,-0.0115,0.0451,107.497,-0.0298,-3.0049,9.4586,-0.0002,0.0808,0.9468,0.0013,0.1744
50540,-108.5649,27.0116,-0.0115,0.0451,107.497,-0.0298,-3.0049,9.4586,-0.0002,0.0808,0.9468,0.0013,0.1744
50556,-108.5649,27.0116,-0.0115,0.0451,107.497,-0.0298,-3.0049,9.4586,-0.0002,0.0808,0.9468,0.0013,0.1744
50572,-108.5649,27.0116,-0.0115,0.0451,107.497,-0.0298,-3.0049,9.4586,-0.0002,0.0808,0.9468,0.0013,0.1744
50588,-108.5649,27.0116,-0.0115,0.0451,107.497,-0.0298,-3.0049,9.4586,-0.0002,0.0808,0.9468,0.0013,0.1744
50604,-108.5649,27.0116,-0.0115,0.0451,107.497,-0.0298,-3.0049,9.4586,-0.0002,0.0808,0.9468,0.0013,0.1744
50620,-108.8442,27.8936,-0.0114,0.0311,107.475,-0.0135,-3.0071,9.5201,-0.0001,-0.024,0.6612,0.0015,0.5358
50636,-108.8442,27.8936,-0.0114,0.0311,107.475,-0.0135,-3.0071,9.5201,-0.0001,-0.024,0.6612,0.0015,0.5358
50652,-108.8442,27.8936,-0.0114,0.0311,107.475,-0.0135,-3.0071,9.5201,-0.0001,-0.024,0.6612,0.0015,0.5358
50668,-108.8442,27.8936,-0.0114,0.0311,107.475,-0.0135,-3.0071,9.5201,-0.0001,-0.024,0.6612,0.0015,0.5358
50684,-108.8442,27.8936,-0.0114,0.0311,107.475,-0.0135,-3.0071,9.5201,-0.0001,-0.024,0.6612,0.0015,0.5358
50701,-109.1172,28.7591,-0.0113,0.0228,107.4685,-0.0063,-3.0176,9.5766,-0.0,-0.1159,0.6235,0.0007,0.5601
50716,-109.1172,28.7591,-0.0113,0.0228,107.4685,-0.0063,-3.0176,9.5766,-0.0,-0.1159,0.6235,0.0007,0.5601
50732,-109.1172,28.7591,-0.0113,0.0228,107.4685,-0.0063,-3.0176,9.5766,-0.0,-0.1159,0.6235,0.0007,0.5601
50748,-109.1172,28.7591,-0.0113,0.0228,107.4685,-0.0063,-3.0176,9.5766,-0.0,-0.1159,0.6235,0.0007,0.5601
50764,-109.1172,28.7591,-0.0113,0.0228,107.4685,-0.0063,-3.0176,9.5766,-0.0,-0.1159,0.6235,0.0007,0.5601
50780,-109.1172,28.7591,-0.0113,0.0228,107.4685,-0.0063,-3.0176,9.5766,-0.0,-0.1159,0.6235,0.0007,0.5601
50798,-109.3856,29.6112,-0.0113,0.0167,107.4596,-0.0031,-3.0249,9.6089,0.0,-0.0823,0.364,0.0003,-0.79
50812,-109.3856,29.6112,-0.0113,0.0167,107.4596,-0.0031,-3.0249,9.6089,0.0,-0.0823,0.364,0.0003,-0.79
50828,-109.3856,29.6112,-0.0113,0.0167,107.4596,-0.0031,-3.0249,9.6089,0.0,-0.0823,0.364,0.0003,-0.79
50844,-109.3856,29.6112,-0.0113,0.0167,107.4596,-0.0031,-3.0249,9.6089,0.0,-0.0823,0.364,0.0003,-0.79
50860,-109.3856,29.6112,-0.0113,0.0167,107.4596,-0.0031,-3.0249,9.6089,0.0,-0.0823,0.364,0.0003,-0.79
50877,-109.3856,29.6112,-0.0113,0.0167,107.4596,-0.0031,-3.0249,9.6089,0.0,-0.0823,0.364,0.0003,-0.79
50892,-109.6709,30.5178,-0.0113,0.0133,107.4593,-0.0015,-3.039,9.6579,0.0,-0.1497,0.5211,0.0001,-0.6705
50908,-109.6709,30.5178,-0.0113,0.0133,107.4593,-0.0015,-3.039,9.6579,0.0,-0.1497,0.5211,0.0001,-0.6705
50924,-109.6709,30.5178,-0.0113,0.0133,107.4593,-0.0015,-3.039,9.6579,0.0,-0.1497,0.5211,0.0001,-0.6705
50940,-109.6709,30.5178,-0.0113,0.0133,107.4593,-0.0015,-3.039,9.6579,0.0,-0.1497,0.5211,0.0001,-0.6705
50956,-109.6709,30.5178,-0.0113,0.0133,107.4593,-0.0015,-3.039,9.6579,0.0,-0.1497,0.5211,0.0001,-0.6705
50973,-109.9459,31.3918,-0.0112,0.012,107.4595,-0.0008,-3.055,9.7104,0.0,-0.1771,0.5821,-0.0,-0.5642
50988,-109.9459,31.3918,-0.0112,0.012,107.4595,-0.0008,-3.055,9.7104,0.0,-0.1771,0.5821,-0.0,-0.5642
51004,-109.9459,31.3918,-0.0112,0.012,107.4595,-0.0008,-3.055,9.7104,0.0,-0.1771,0.5821,-0.0,-0.5642
51020,-109.9459,31.3918,-0.0112,0.012,107.4595,-0.0008,-3.055,9.7104,0.0,-0.1771,0.5821,-0.0,-0.5642
51036,-109.9459,31.3918,-0.0112,0.012,107.4595,-0.0008,-3.055,9.7104,0.0,-0.1771,0.5821,-0.0,-0.5642
51052,-109.9459,31.3918,-0.0112,0.012,107.4595,-0.0008,-3.055,9.7104,0.0,-0.1771,0.5821,-0.0,-0.5642
51068,-110.2108,32.2341,-0.0112,0.0106,107.4657,-0.0004,-3.0654,9.7443,0.0,-0.1205,0.3913,-0.0001,0.6988
51084,-110.2108,32.2341,-0.0112,0.0106,107.4657,-0.0004,-3.0654,9.7443,0.0,-0.1205,0.3913,-0.0001,0.6988
51100,-110.2108,32.2341,-0.0112,0.0106,107.4657,-0.0004,-3.0654,9.7443,0.0,-0.1205,0.3913,-0.0001,0.6988
51116,-110.2108,32.2341,-0.0112,0.0106,107.4657,-0.0004,-3.0654,9.7443,0.0,-0.1205,0.3913,-0.0001,0.6988
51132,-110.2108,32.2341,-0.0112,0.0106,107.4657,-0.0004,-3.0654,9.7443,0.0,-0.1205,0.3913,-0.0001,0.6988
51150,-110.4869,33.1115,-0.0112,0.009,107.4582,-0.0002,-3.0745,9.7732,0.0,-0.1006,0.3208,-0.0001,-0.7792
51164,-110.4869,33.1115,-0.0112,0.009,107.4582,-0.0002,-3.0745,9.7732,0.0,-0.1006,0.3208,-0.0001,-0.7792
51180,-110.4869,33.1115,-0.0112,0.009,107.4582,-0.0002,-3.0745,9.7732,0.0,-0.1006,0.3208,-0.0001,-0.7792
51196,-110.4869,33.1115,-0.0112,0.009,107.4582,-0.0002,-3.0745,9.7732,0.0,-0.1006,0.3208,-0.0001,-0.7792
51212,-110.4869,33.1115,-0.0112,0.009,107.4582,-0.0002,-3.0745,9.7732,0.0,-0.1006,0.3208,-0.0001,-0.7792
51228,-110.4869,33.1115,-0.0112,0.009,107.4582,-0.0002,-3.0745,9.7732,0.0,-0.1006,0.3208,-0.0001,-0.7792
51245,-110.7571,33.9708,-0.0112,0.0084,107.4654,-0.0001,-3.0862,9.811,0.0,-0.1344,0.4318,0.0001,0.7198
51260,-110.7571,33.9708,-0.0112,0.0084,107.4654,-0.0001,-3.0862,9.811,0.0,-0.1344,0.4318,0.0001,0.7198
51276,-110.7571,33.9708,-0.0112,0.0084,107.4654,-0.0001,-3.0862,9.811,0.0,-0.1344,0.4318,0.0001,0.7198
51292,-110.7571,33.9708,-0.0112,0.0084,107.4654,-0.0001,-3.0862,9.811,0.0,-0.1344,0.4318,0.0001,0.7198
51308,-110.7571,33.9708,-0.0112,0.0084,107.4654,-0.0001,-3.0862,9.811,0.0,-0.1344,0.4318,0.0001,0.7198
