timestamp,x,y,z,pitch,yaw,roll,vx,vy,vz,ax,ay,az,yaw_rate
24236,-106.6867,-4.8475,0.5169,0.0,-89.3578,0.0,0.0,0.0,-1.2158,0.0,0.0,-9.8,0.0
24252,-106.6867,-4.8475,0.5042,0.0,-89.3578,0.0,0.0,0.0,-1.311,0.0,0.0,-9.8,0.0
24268,-106.6867,-4.8475,0.5042,0.0,-89.3578,0.0,0.0,0.0,-1.311,0.0,0.0,-9.8,0.0
24284,-106.6867,-4.8475,0.5042,0.0,-89.3578,0.0,0.0,0.0,-1.311,0.0,0.0,-9.8,0.0
24300,-106.6867,-4.8475,0.5042,0.0,-89.3578,0.0,0.0,0.0,-1.311,0.0,0.0,-9.8,0.0
24317,-106.6867,-4.8475,0.39,0.0,-89.3578,0.0,0.0,0.0,-1.973,0.0,0.0,-9.8,0.0
24332,-106.6867,-4.8475,0.39,0.0,-89.3578,0.0,0.0,0.0,-1.973,0.0,0.0,-9.8,0.0
24348,-106.6867,-4.8475,0.39,0.0,-89.3578,0.0,0.0,0.0,-1.973,0.0,0.0,-9.8,0.0
24364,-106.6867,-4.8475,0.39,0.0,-89.3578,0.0,0.0,0.0,-1.973,0.0,0.0,-9.8,0.0
24383,-106.6867,-4.8475,0.2435,0.0,-89.3578,0.0,0.0,0.0,-2.5904,0.0,0.0,-9.8,0.0
24396,-106.6867,-4.8475,0.2435,0.0,-89.3578,0.0,0.0,0.0,-2.5904,0.0,0.0,-9.8,0.0
24412,-106.6867,-4.8475,0.2435,0.0,-89.3578,0.0,0.0,0.0,-2.5904,0.0,0.0,-9.8,0.0
24428,-106.6867,-4.8475,0.2435,0.0,-89.3578,0.0,0.0,0.0,-2.5904,0.0,0.0,-9.8,0.0
24446,-106.6867,-4.8475,0.0725,0.0,-89.3578,0.0,0.0,0.0,-3.1635,0.0,0.0,-9.8,0.0
24460,-106.6867,-4.8475,0.0725,0.0,-89.3578,0.0,0.0,0.0,-3.1635,0.0,0.0,-9.8,0.0
24476,-106.6867,-4.8475,0.0725,0.0,-89.3578,0.0,0.0,0.0,-3.1635,0.0,0.0,-9.8,0.0
24492,-106.6867,-4.8475,0.0725,0.0,-89.3578,0.0,0.0,0.0,-3.1635,0.0,0.0,-9.8,0.0
24508,-106.6868,-4.8444,-0.0498,-0.0028,-89.3578,0.0,-0.0005,0.0411,-1.144,-0.0075,0.6709,32.9493,-0.0
24524,-106.6868,-4.8444,-0.0498,-0.0028,-89.3578,0.0,-0.0005,0.0411,-1.144,-0.0075,0.6709,32.9493,-0.0
24540,-106.6868,-4.8444,-0.0498,-0.0028,-89.3578,0.0,-0.0005,0.0411,-1.144,-0.0075,0.6709,32.9493,-0.0
24556,-106.6868,-4.8444,-0.0498,-0.0028,-89.3578,0.0,-0.0005,0.0411,-1.144,-0.0075,0.6709,32.9493,-0.0
24572,-106.6868,-4.8401,-0.0819,-0.0038,-89.3577,0.0,-0.001,0.0904,-0.1276,-0.0082,0.7355,15.1588,0.0021
24588,-106.6868,-4.8401,-0.0819,-0.0038,-89.3577,0.0,-0.001,0.0904,-0.1276,-0.0082,0.7355,15.1588,0.0021
24604,-106.6868,-4.8401,-0.0819,-0.0038,-89.3577,0.0,-0.001,0.0904,-0.1276,-0.0082,0.7355,15.1588,0.0021
24620,-106.6871,-4.8151,-0.0776,-0.0276,-89.3575,-0.0,-0.0071,0.6358,0.1698,-0.1072,9.5256,5.1934,-0.0064
24636,-106.6871,-4.8151,-0.0776,-0.0276,-89.3575,-0.0,-0.0071,0.6358,0.1698,-0.1072,9.5256,5.1934,-0.0064
24652,-106.6872,-4.8015,-0.0738,-0.0363,-89.3576,0.0,-0.0086,0.7641,0.2095,-0.076,6.9244,2.1462,-0.0057
24670,-106.6874,-4.7842,-0.0692,-0.0448,-89.3582,0.0,-0.0102,0.9172,0.2332,-0.0809,7.6501,1.184,-0.0797
24684,-106.6877,-4.7611,-0.0635,-0.054,-89.3584,0.0,-0.0121,1.083,0.2718,-0.0848,7.3127,1.7035,-0.0034
24700,-106.6877,-4.7611,-0.0635,-0.054,-89.3584,0.0,-0.0121,1.083,0.2718,-0.0848,7.3127,1.7035,-0.0034
24716,-106.6879,-4.7379,-0.058,-0.0604,-89.3586,0.0,-0.0136,1.2173,0.2587,-0.0733,6.4755,-0.6361,-0.0219
24732,-106.6882,-4.713,-0.0527,-0.0634,-89.359,-0.0,-0.0133,1.1902,0.2439,0.0159,-1.2865,-0.698,-0.0293
24748,-106.6885,-4.6816,-0.0468,-0.0642,-89.3595,-0.0,-0.0141,1.2659,0.2261,-0.0324,2.9988,-0.707,-0.0149
24764,-106.6885,-4.6816,-0.0468,-0.0642,-89.3595,-0.0,-0.0141,1.2659,0.2261,-0.0324,2.9988,-0.707,-0.0149
24780,-106.6889,-4.6513,-0.0419,-0.0631,-89.3593,-0.0,-0.0145,1.304,0.2,-0.0189,1.6245,-1.1119,0.0138
24796,-106.6892,-4.6215,-0.0379,-0.0612,-89.3591,-0.0,-0.0153,1.3667,0.1772,-0.0332,2.8294,-1.0265,0.0098
24812,-106.6892,-4.6215,-0.0379,-0.0612,-89.3591,-0.0,-0.0153,1.3667,0.1772,-0.0332,2.8294,-1.0265,0.0098
24828,-106.6897,-4.5913,-0.0342,-0.0572,-89.3427,0.0,-0.0151,1.3336,0.1572,0.0083,-1.4749,-0.8904,0.8749
24846,-106.69,-4.5587,-0.031,-0.057,-89.3484,-0.0001,-0.0163,1.5437,0.1382,-0.0529,9.4684,-0.857,-0.757
24860,-106.69,-4.5587,-0.031,-0.057,-89.3484,-0.0001,-0.0163,1.5437,0.1382,-0.0529,9.4684,-0.857,-0.757
24876,-106.6906,-4.5241,-0.028,-0.0537,-89.3269,0.0001,-0.0162,1.424,0.1209,0.0021,-5.1093,-0.7392,0.161
24894,-106.6909,-4.4905,-0.0257,-0.0525,-89.3351,0.0001,-0.0182,1.6151,0.1045,-0.0937,8.8347,-0.7586,0.9414
24909,-106.6913,-4.4541,-0.0236,-0.0527,-89.3331,0.0003,-0.02,1.6319,0.0911,-0.0781,0.7619,-0.607,-0.0212
24924,-106.6913,-4.4541,-0.0236,-0.0527,-89.3331,0.0003,-0.02,1.6319,0.0911,-0.0781,0.7619,-0.607,-0.0212
24940,-106.6918,-4.4158,-0.0217,-0.0522,-89.333,0.0003,-0.0211,1.7738,0.0789,-0.052,6.3043,-0.543,-0.0318
24958,-106.6923,-4.3781,-0.0202,-0.05,-89.3314,0.0003,-0.0201,1.6994,0.0679,0.0457,-3.4055,-0.5024,0.123
24972,-106.6923,-4.3781,-0.0202,-0.05,-89.3314,0.0003,-0.0201,1.6994,0.0679,0.0457,-3.4055,-0.5024,0.123
24988,-106.6928,-4.3342,-0.0187,-0.051,-89.3284,0.0002,-0.0224,1.9097,0.0585,-0.0938,8.8675,-0.3981,1.2565
25006,-106.693,-4.293,-0.0175,-0.0483,-89.365,0.0001,-0.0218,1.8275,0.0497,0.0257,-3.6634,-0.3929,-1.9278
25020,-106.6936,-4.243,-0.0164,-0.0509,-89.3669,-0.0001,-0.0234,2.0921,0.0423,-0.0668,10.6345,-0.2958,-1.2134
25036,-106.6936,-4.243,-0.0164,-0.0509,-89.3669,-0.0001,-0.0234,2.0921,0.0423,-0.0668,10.6345,-0.2958,-1.2134
25054,-106.6942,-4.1927,-0.0155,-0.0555,-89.3475,-0.0003,-0.023,2.2317,0.0355,0.0172,6.0317,-0.2952,3.624
25070,-106.6944,-4.1431,-0.0148,-0.0583,-89.3878,-0.0008,-0.0203,2.2266,0.0302,0.1252,-0.2318,-0.242,-1.8874
25084,-106.6944,-4.1431,-0.0148,-0.0583,-89.3878,-0.0008,-0.0203,2.2266,0.0302,0.1252,-0.2318,-0.242,-1.8874
25100,-106.6947,-4.0901,-0.0142,-0.0626,-89.4134,-0.0011,-0.0224,2.4589,0.0259,-0.0932,10.597,-0.1963,-0.7731
25118,-106.695,-4.0342,-0.0136,-0.0652,-89.4438,-0.0012,-0.0231,2.5559,0.0221,-0.0352,4.3503,-0.1677,-2.2987
25132,-106.6954,-3.9771,-0.0132,-0.0687,-89.4578,-0.0012,-0.0248,2.7033,0.0189,-0.0791,6.8616,-0.1513,-2.4313
25148,-106.6954,-3.9771,-0.0132,-0.0687,-89.4578,-0.0012,-0.0248,2.7033,0.0189,-0.0791,6.8616,-0.1513,-2.4313
25165,-106.696,-3.9167,-0.0128,-0.0731,-89.4475,-0.0009,-0.0276,2.8591,0.0162,-0.1281,7.2799,-0.1259,-1.1678
25182,-106.6969,-3.8506,-0.0124,-0.078,-89.4254,-0.0005,-0.0321,3.0479,0.0139,-0.203,8.5114,-0.1051,-0.3021
25196,-106.6969,-3.8506,-0.0124,-0.078,-89.4254,-0.0005,-0.0321,3.0479,0.0139,-0.203,8.5114,-0.1051,-0.3021
25212,-106.6976,-3.7767,-0.0121,-0.0807,-89.4238,-0.0003,-0.032,3.1368,0.0117,0.0016,3.7182,-0.0888,0.5575
25230,-106.6984,-3.7023,-0.0118,-0.0831,-89.4222,-0.0002,-0.0341,3.3317,0.0098,-0.0891,8.4573,-0.0824,-0.12
25244,-106.6992,-3.6275,-0.0116,-0.0841,-89.4248,-0.0002,-0.0338,3.3381,0.0083,0.0124,0.2866,-0.0684,-0.0097
25260,-106.6992,-3.6275,-0.0116,-0.0841,-89.4248,-0.0002,-0.0338,3.3381,0.0083,0.0124,0.2866,-0.0684,-0.0097
25277,-106.7,-3.5431,-0.0114,-0.087,-89.4271,-0.0002,-0.036,3.5715,0.007,-0.0926,9.761,-0.0532,-0.0988
25294,-106.7008,-3.4621,-0.0113,-0.0881,-89.4279,-0.0002,-0.0371,3.6981,0.0059,-0.0494,5.6738,-0.0509,-0.1533
25308,-106.7008,-3.4621,-0.0113,-0.0881,-89.4279,-0.0002,-0.0371,3.6981,0.0059,-0.0494,5.6738,-0.0509,-0.1533
25324,-106.7016,-3.3775,-0.0111,-0.0906,-89.4275,-0.0002,-0.039,3.8977,0.005,-0.0854,9.0015,-0.0405,0.036
25342,-106.7025,-3.2921,-0.011,-0.0925,-89.4275,-0.0002,-0.0398,3.9675,0.0043,-0.0347,3.2312,-0.0351,0.2013
25356,-106.7033,-3.2052,-0.0109,-0.0958,-89.4283,-0.0002,-0.0422,4.2115,0.0037,-0.117,11.6167,-0.0284,0.2247
25372,-106.7033,-3.2052,-0.0109,-0.0958,-89.4283,-0.0002,-0.0422,4.2115,0.0037,-0.117,11.6167,-0.0284,0.2247
25389,-106.7043,-3.1054,-0.0108,-0.0971,-89.4366,-0.0002,-0.0422,4.2648,0.0031,0.001,2.2745,-0.0235,-0.9364
25404,-106.7053,-3.0042,-0.0108,-0.0981,-89.4335,-0.0002,-0.0445,4.4699,0.0026,-0.0987,8.9105,-0.0216,-1.0299
25420,-106.7053,-3.0042,-0.0108,-0.0981,-89.4335,-0.0002,-0.0445,4.4699,0.0026,-0.0987,8.9105,-0.0216,-1.0299
25436,-106.7063,-2.901,-0.0107,-0.0983,-89.431,-0.0002,-0.0448,4.544,0.0022,-0.0159,3.2499,-0.0189,0.5166
25454,-106.7073,-2.7926,-0.0107,-0.099,-89.4403,-0.0003,-0.0461,4.7466,0.0019,-0.0542,8.7465,-0.0136,1.0352
25469,-106.7083,-2.6858,-0.0106,-0.0985,-89.4491,-0.0004,-0.0468,4.8216,0.0016,-0.0295,3.3645,-0.0134,-0.6283
25484,-106.7083,-2.6858,-0.0106,-0.0985,-89.4491,-0.0004,-0.0468,4.8216,0.0016,-0.0295,3.3645,-0.0134,-0.6283
25501,-106.7095,-2.5721,-0.0106,-0.0996,-89.4462,-0.0003,-0.0494,5.0387,0.0013,-0.1147,9.4854,-0.0105,-1.1188
25516,-106.7106,-2.4604,-0.0106,-0.1001,-89.4406,-0.0003,-0.0502,5.1361,0.0011,-0.0362,4.4466,-0.0094,0.3828
25532,-106.7106,-2.4604,-0.0106,-0.1001,-89.4406,-0.0003,-0.0502,5.1361,0.0011,-0.0362,4.4466,-0.0094,0.3828
25549,-106.7117,-2.3423,-0.0105,-0.1023,-89.4437,-0.0003,-0.0518,5.3627,0.001,-0.0719,10.15,-0.0073,0.7839
25566,-106.7129,-2.2198,-0.0105,-0.1038,-89.45,-0.0003,-0.0528,5.4744,0.0008,-0.0454,4.9571,-0.0067,-0.3614
25581,-106.7141,-2.0959,-0.0105,-0.106,-89.447,-0.0003,-0.0553,5.6858,0.0007,-0.1128,9.5837,-0.0057,-0.7125
25596,-106.7141,-2.0959,-0.0105,-0.106,-89.447,-0.0003,-0.0553,5.6858,0.0007,-0.1128,9.5837,-0.0057,-0.7125
25613,-106.7153,-1.9702,-0.0104,-0.1076,-89.4434,-0.0002,-0.0565,5.8155,0.0006,-0.0535,5.9527,-0.0046,0.2153
25628,-106.7166,-1.838,-0.0104,-0.11,-89.4452,-0.0002,-0.0582,6.0264,0.0005,-0.0776,9.5063,-0.0037,0.4405
25644,-106.7166,-1.838,-0.0104,-0.11,-89.4452,-0.0002,-0.0582,6.0264,0.0005,-0.0776,9.5063,-0.0037,0.4405
25662,-106.718,-1.6925,-0.0104,-0.1111,-89.4497,-0.0002,-0.0592,6.139,0.0004,-0.0434,4.7246,-0.0037,-0.2392
25678,-106.7194,-1.5495,-0.0104,-0.1116,-89.448,-0.0002,-0.0613,6.3239,0.0003,-0.0911,8.097,-0.0028,-0.635
25692,-106.7194,-1.5495,-0.0104,-0.1116,-89.448,-0.0002,-0.0613,6.3239,0.0003,-0.0911,8.097,-0.0028,-0.635
25708,-106.7208,-1.4044,-0.0104,-0.1112,-89.4443,-0.0002,-0.0624,6.4389,0.0003,-0.0468,5.0692,-0.0024,0.1927
25726,-106.7222,-1.2568,-0.0104,-0.1118,-89.4464,-0.0002,-0.064,6.636,0.0002,-0.0739,8.7769,-0.0021,0.2983
25740,-106.7236,-1.1088,-0.0104,-0.1123,-89.4472,-0.0002,-0.0654,6.778,0.0002,-0.0646,6.4554,-0.0015,-0.0245
25756,-106.7236,-1.1088,-0.0104,-0.1123,-89.4472,-0.0002,-0.0654,6.778,0.0002,-0.0646,6.4554,-0.0015,-0.0245
25772,-106.7252,-0.9414,-0.0103,-0.1136,-89.4469,-0.0001,-0.0674,6.9807,0.0002,-0.0813,8.3776,-0.0008,-0.0096
25788,-106.7269,-0.7694,-0.0103,-0.1134,-89.4469,-0.0001,-0.0685,7.0973,0.0002,-0.0458,4.785,-0.0015,0.0004
25804,-106.7269,-0.7694,-0.0103,-0.1134,-89.4469,-0.0001,-0.0685,7.0973,0.0002,-0.0458,4.785,-0.0015,0.0004
25822,-106.7284,-0.6172,-0.0103,-0.1129,-89.4469,-0.0001,-0.0701,7.2587,0.0001,-0.0735,7.6368,-0.0012,0.0007
25838,-106.7299,-0.4578,-0.0103,-0.1128,-89.4469,-0.0001,-0.0715,7.4016,0.0001,-0.0635,6.5916,-0.0009,-0.0005
25852,-106.7315,-0.296,-0.0103,-0.1131,-89.4469,-0.0001,-0.0731,7.5675,0.0001,-0.0743,7.7081,-0.0008,-0.0003
25868,-106.7315,-0.296,-0.0103,-0.1131,-89.4469,-0.0001,-0.0731,7.5675,0.0001,-0.0743,7.7081,-0.0008,-0.0003
25885,-106.7331,-0.1288,-0.0103,-0.1133,-89.4469,-0.0001,-0.0744,7.7116,0.0001,-0.0636,6.5991,-0.0009,-0.0002
25901,-106.7347,0.0412,-0.0103,-0.1133,-89.4469,-0.0001,-0.0759,7.8635,0.0001,-0.0674,6.9855,-0.0002,-0.0002
25916,-106.7347,0.0412,-0.0103,-0.1133,-89.4469,-0.0001,-0.0759,7.8635,0.0001,-0.0674,6.9855,-0.0002,-0.0002
25932,-106.7363,0.2094,-0.0103,-0.1132,-89.4469,-0.0,-0.0772,7.9978,0.0,-0.0613,6.349,-0.0015,-0.0002
25949,-106.7381,0.3883,-0.0103,-0.1127,-89.4469,-0.0,-0.0786,8.1404,0.0,-0.0622,6.4518,-0.0002,0.0
25965,-106.7398,0.5641,-0.0103,-0.112,-89.4469,-0.0,-0.0798,8.2708,0.0001,-0.0589,6.1018,0.0011,-0.0001
25980,-106.7398,0.5641,-0.0103,-0.112,-89.4469,-0.0,-0.0798,8.2708,0.0001,-0.0589,6.1018,0.0011,-0.0001
25996,-106.7416,0.7544,-0.0103,-0.111,-89.4469,-0.0,-0.0812,8.409,0.0,-0.0586,6.0718,-0.0007,-0.0
26014,-106.7435,0.9504,-0.0104,-0.1097,-89.4469,-0.0,-0.0825,8.5437,0.0,-0.0565,5.8427,0.0002,-0.0001
26028,-106.7435,0.9504,-0.0104,-0.1097,-89.4469,-0.0,-0.0825,8.5437,0.0,-0.0565,5.8427,0.0002,-0.0001
26044,-106.7455,1.1534,-0.0104,-0.1083,-89.4469,-0.0,-0.0838,8.6796,0.0,-0.0557,5.778,-0.0008,0.0001
26062,-106.7475,1.3603,-0.0104,-0.1067,-89.4469,-0.0,-0.0851,8.8116,0.0,-0.054,5.5952,-0.0002,-0.0002
26076,-106.7494,1.5635,-0.0104,-0.1052,-89.4469,-0.0,-0.0863,8.938,0.0,-0.0534,5.5319,-0.0,0.0002
26092,-106.7494,1.5635,-0.0104,-0.1052,-89.4469,-0.0,-0.0863,8.938,0.0,-0.0534,5.5319,-0.0,0.0002
26110,-106.7514,1.7715,-0.0104,-0.1035,-89.4469,-0.0,-0.0875,9.0623,0.0,-0.052,5.3905,-0.0005,-0.0002
26126,-106.7534,1.9793,-0.0104,-0.1019,-89.4469,-0.0,-0.0886,9.1831,0.0,-0.0514,5.3173,-0.0001,0.0002
26140,-106.7534,1.9793,-0.0104,-0.1019,-89.4469,-0.0,-0.0886,9.1831,0.0,-0.0514,5.3173,-0.0001,0.0002
26156,-106.7554,2.1855,-0.0104,-0.1003,-89.4469,-0.0,-0.0898,9.2992,0.0,-0.0503,5.2098,0.0,-0.0002
26174,-106.7574,2.3889,-0.0104,-0.0988,-89.4469,0.0,-0.0908,9.4105,0.0,-0.0494,5.1324,-0.0001,0.0001
26188,-106.7594,2.5926,-0.0104,-0.0972,-89.4469,-0.0,-0.0919,9.5189,0.0,-0.0488,5.0477,0.0004,-0.0001
26204,-106.7594,2.5926,-0.0104,-0.0972,-89.4469,-0.0,-0.0919,9.5189,0.0,-0.0488,5.0477,0.0004,-0.0001
26222,-106.7614,2.8008,-0.0105,-0.0957,-89.4469,-0.0,-0.0929,9.6269,0.0,-0.048,4.9711,-0.0005,0.0
26238,-106.7633,3.0027,-0.0105,-0.0943,-89.4469,0.0,-0.0939,9.7288,0.0,-0.0473,4.8957,0.0005,-0.0001
26252,-106.7633,3.0027,-0.0105,-0.0943,-89.4469,0.0,-0.0939,9.7288,0.0,-0.0473,4.8957,0.0005,-0.0001
26268,-106.7655,3.2276,-0.0105,-0.0927,-89.4469,0.0,-0.095,9.8395,0.0,-0.0465,4.822,-0.0001,0.0
26286,-106.7675,3.4377,-0.0105,-0.0913,-89.4469,-0.0,-0.096,9.9402,0.0,-0.0459,4.7479,-0.0001,-0.0
26301,-106.7695,3.6493,-0.0105,-0.0899,-89.4469,0.0,-0.0969,10.0391,0.0,-0.0452,4.6796,0.0,-0.0
26316,-106.7716,3.8606,-0.0105,-0.0886,-89.4469,0.0,-0.0978,10.1356,-0.0,-0.0445,4.6129,-0.0008,-0.0
26332,-106.7716,3.8606,-0.0105,-0.0886,-89.4469,0.0,-0.0978,10.1356,-0.0,-0.0445,4.6129,-0.0008,-0.0
26349,-106.7738,4.0935,-0.0105,-0.0872,-89.4469,0.0,-0.0988,10.2393,-0.0,-0.0439,4.5457,0.0005,-0.0
26366,-106.776,4.3186,-0.0105,-0.0858,-89.4469,0.0,-0.0998,10.3372,0.0,-0.0432,4.4774,0.0005,-0.0
26380,-106.776,4.3186,-0.0105,-0.0858,-89.4469,0.0,-0.0998,10.3372,0.0,-0.0432,4.4774,0.0005,-0.0
26396,-106.7782,4.5421,-0.0105,-0.0846,-89.4469,0.0,-0.1007,10.432,-0.0,-0.0426,4.4129,-0.0014,-0.0
26413,-106.7803,4.7664,-0.0105,-0.0833,-89.4469,0.0,-0.1016,10.525,-0.0,-0.0419,4.3501,0.0002,-0.0
26428,-106.7827,5.0106,-0.0106,-0.082,-89.4469,0.0,-0.1026,10.6238,-0.0,-0.0414,4.2866,0.0005,-0.0
26444,-106.7827,5.0106,-0.0106,-0.082,-89.4469,0.0,-0.1026,10.6238,-0.0,-0.0414,4.2866,0.0005,-0.0
26460,-106.7849,5.237,-0.0106,-0.0808,-89.4469,0.0,-0.1034,10.7133,-0.0,-0.0408,4.2234,0.0001,-0.0
26478,-106.7871,5.4651,-0.0106,-0.0797,-89.4469,0.0,-0.1043,10.8015,0.0,-0.0402,4.1647,0.0003,-0.0
26492,-106.7893,5.6989,-0.0106,-0.0786,-89.4469,0.0,-0.1051,10.8899,0.0,-0.0397,4.1064,0.0001,-0.0
26508,-106.7893,5.6989,-0.0106,-0.0786,-89.4469,0.0,-0.1051,10.8899,0.0,-0.0397,4.1064,0.0001,-0.0
26524,-106.7916,5.9319,-0.0106,-0.0775,-89.4469,0.0,-0.106,10.9761,0.0,-0.0391,4.0486,-0.0,-0.0
26544,-106.7939,6.1716,-0.0106,-0.0763,-89.4469,0.0,-0.1068,11.0628,-0.0,-0.0385,3.9916,-0.0004,-0.0
26556,-106.7963,6.4172,-0.0106,-0.0752,-89.4469,0.0,-0.1076,11.1497,-0.0,-0.038,3.9343,0.0,-0.0
26572,-106.7963,6.4172,-0.0106,-0.0752,-89.4469,0.0,-0.1076,11.1497,-0.0,-0.038,3.9343,0.0,-0.0
26589,-106.7987,6.671,-0.0106,-0.0741,-89.4469,0.0,-0.1085,11.2375,-0.0,-0.0375,3.8767,-0.0013,-0.0
26606,-106.8011,6.9135,-0.0106,-0.0731,-89.4469,0.0,-0.1093,11.3195,0.0,-0.0368,3.8207,0.002,-0.0
26620,-106.8011,6.9135,-0.0106,-0.0731,-89.4469,0.0,-0.1093,11.3195,0.0,-0.0368,3.8207,0.002,-0.0
26636,-106.8036,7.1764,-0.0106,-0.072,-89.4469,0.0,-0.1101,11.4065,-0.0,-0.0364,3.7654,-0.0005,-0.0
26654,-106.8061,7.4393,-0.0106,-0.0709,-89.4469,0.0,-0.1109,11.4916,-0.0,-0.0358,3.7085,-0.0,-0.0
26668,-106.8061,7.4393,-0.0106,-0.0709,-89.4469,0.0,-0.1109,11.4916,-0.0,-0.0358,3.7085,-0.0,-0.0
26684,-106.8087,7.7078,-0.0106,-0.0698,-89.4469,-0.0,-0.1118,11.5765,0.0,-0.0353,3.6526,0.0001,-0.0
26702,-106.8112,7.959,-0.0107,-0.0688,-89.4469,0.0,-0.1125,11.6543,0.0,-0.0347,3.5989,0.0001,-0.0
26717,-106.8137,8.2192,-0.0107,-0.0679,-89.4469,0.0,-0.1133,11.7331,-0.0,-0.0342,3.5475,-0.0002,-0.0
26732,-106.8137,8.2192,-0.0107,-0.0679,-89.4469,0.0,-0.1133,11.7331,-0.0,-0.0342,3.5475,-0.0002,-0.0
26748,-106.8161,8.4714,-0.0107,-0.067,-89.4469,-0.0,-0.114,11.808,-0.0,-0.0338,3.4967,-0.0001,-0.0
26766,-106.8186,8.7291,-0.0107,-0.066,-89.4469,0.0,-0.1147,11.8829,0.0,-0.0332,3.4475,0.0005,0.0
26780,-106.8212,8.9958,-0.0107,-0.0651,-89.4469,0.0,-0.1154,11.9588,-0.0,-0.0328,3.3979,-0.0003,-0.0
26796,-106.8212,8.9958,-0.0107,-0.0651,-89.4469,0.0,-0.1154,11.9588,-0.0,-0.0328,3.3979,-0.0003,-0.0
26814,-106.8237,9.2571,-0.0107,-0.0642,-89.4469,0.0,-0.1161,12.0317,0.0,-0.0324,3.3489,0.0005,-0.0
26830,-106.8263,9.5286,-0.0107,-0.0633,-89.4469,-0.0,-0.1169,12.1059,0.0,-0.0318,3.3007,-0.0002,-0.0
26844,-106.8263,9.5286,-0.0107,-0.0633,-89.4469,-0.0,-0.1169,12.1059,0.0,-0.0318,3.3007,-0.0002,-0.0
26860,-106.829,9.8052,-0.0107,-0.0623,-89.4469,-0.0,-0.1176,12.1799,0.0,-0.0314,3.252,-0.0,-0.0
26878,-106.8315,10.0701,-0.0107,-0.0615,-89.4469,0.0,-0.1182,12.2493,0.0,-0.0309,3.2044,-0.0,-0.0
26893,-106.8341,10.3359,-0.0107,-0.0606,-89.4469,0.0,-0.1189,12.3176,-0.0,-0.0305,3.1592,-0.0004,-0.0
26908,-106.8341,10.3359,-0.0107,-0.0606,-89.4469,0.0,-0.1189,12.3176,-0.0,-0.0305,3.1592,-0.0004,-0.0
26924,-106.8366,10.5955,-0.0107,-0.0598,-89.4469,0.0,-0.1195,12.383,-0.0,-0.0301,3.1151,-0.0003,-0.0
26942,-106.8394,10.8835,-0.0107,-0.059,-89.4469,0.0,-0.1202,12.4542,0.0,-0.0296,3.0705,0.0008,-0.0
26956,-106.842,11.1538,-0.0107,-0.0582,-89.4469,0.0,-0.1209,12.5196,0.0,-0.0291,3.0252,-0.0004,-0.0
26972,-106.842,11.1538,-0.0107,-0.0582,-89.4469,0.0,-0.1209,12.5196,0.0,-0.0291,3.0252,-0.0004,-0.0
26990,-106.8447,11.4366,-0.0107,-0.0573,-89.4469,0.0,-0.1215,12.5867,0.0,-0.0288,2.9819,0.0005,-0.0
27006,-106.8474,11.7126,-0.0107,-0.0565,-89.4469,0.0,-0.1221,12.6502,0.0,-0.028,2.9031,-0.0003,-0.0
27020,-106.8501,11.9882,-0.0107,-0.0556,-89.4469,0.0,-0.1227,12.7083,0.0,-0.0258,2.6775,-0.0001,-0.0
27036,-106.8501,11.9882,-0.0107,-0.0556,-89.4469,0.0,-0.1227,12.7083,0.0,-0.0258,2.6775,-0.0001,-0.0
27054,-106.8528,12.2752,-0.0108,-0.0545,-89.4469,-0.0,-0.1232,12.7636,0.0,-0.0237,2.4564,0.0,-0.0
27070,-106.8554,12.5464,-0.0108,-0.0532,-89.4469,0.0,-0.1237,12.8113,-0.0,-0.0217,2.2492,-0.0005,-0.0
27084,-106.8554,12.5464,-0.0108,-0.0532,-89.4469,0.0,-0.1237,12.8113,-0.0,-0.0217,2.2492,-0.0005,-0.0
27100,-106.8583,12.8426,-0.0108,-0.0516,-89.4469,0.0,-0.1241,12.859,-0.0,-0.02,2.0661,-0.0004,-0.0
27116,-106.8611,13.1327,-0.0108,-0.0499,-89.4469,-0.0,-0.1245,12.9014,0.0,-0.0182,1.8871,0.001,-0.0
27134,-106.8637,13.4012,-0.0108,-0.0482,-89.4469,0.0,-0.1249,12.9372,-0.0,-0.0166,1.7241,-0.0008,-0.0
27148,-106.8637,13.4012,-0.0108,-0.0482,-89.4469,0.0,-0.1249,12.9372,-0.0,-0.0166,1.7241,-0.0008,-0.0
27164,-106.8663,13.6724,-0.0108,-0.0463,-89.4469,0.0,-0.1252,12.9704,0.0,-0.0153,1.5854,0.0006,-0.0
27181,-106.8693,13.9823,-0.0108,-0.0441,-89.4469,0.0,-0.1255,13.0053,-0.0,-0.0141,1.4617,-0.0002,-0.0
27196,-106.8718,14.247,-0.0108,-0.0422,-89.4469,0.0,-0.1258,13.0323,0.0,-0.0128,1.3269,0.0003,-0.0
27212,-106.8718,14.247,-0.0108,-0.0422,-89.4469,0.0,-0.1258,13.0323,0.0,-0.0128,1.3269,0.0003,-0.0
27228,-106.8748,14.5545,-0.0109,-0.0399,-89.4469,0.0,-0.1261,13.0611,-0.0,-0.0118,1.2243,-0.0002,-0.0
27260,-106.8778,14.8608,-0.0109,-0.0377,-89.4469,-0.0,-0.1263,13.0873,0.0,-0.0108,1.1177,0.0005,-0.0
27278,-106.8816,15.163,-0.0109,-0.0354,-89.4864,0.0067,-0.2108,13.1042,0.0,-3.6608,0.7348,0.0006,-2.8919
27294,-106.8878,15.4616,-0.0109,-0.0327,-89.633,0.0261,-0.3688,13.1034,0.0002,-6.9349,-0.0353,0.0082,-8.4019
27308,-106.8878,15.4616,-0.0109,-0.0327,-89.633,0.0261,-0.3688,13.1034,0.0002,-6.9349,-0.0353,0.0082,-8.4019
27324,-106.8971,15.757,-0.0109,-0.0291,-89.9294,0.0558,-0.5689,13.0847,0.0005,-8.8672,-0.8289,0.0131,-15.6422
27340,-106.9118,16.0845,-0.0109,-0.0239,-90.4818,0.0974,-0.8214,13.0438,0.0008,-10.0693,-1.632,0.0132,-25.3313
27356,-106.9118,16.0845,-0.0109,-0.0239,-90.4818,0.0974,-0.8214,13.0438,0.0008,-10.0693,-1.632,0.0132,-25.3313
27372,-106.9299,16.3941,-0.011,-0.0177,-91.2476,0.1383,-1.0692,12.9893,0.0011,-10.4069,-2.29,0.0105,-35.656
27390,-106.9521,16.7034,-0.011,-0.0105,-92.2792,0.1777,-1.3152,12.9222,0.0012,-10.2863,-2.8071,0.0061,-46.966
27404,-106.9521,16.7034,-0.011,-0.0105,-92.2792,0.1777,-1.3152,12.9222,0.0012,-10.2863,-2.8071,0.0061,-46.966
27420,-106.9749,16.9779,-0.011,-0.0035,-93.4339,0.2081,-1.5221,12.8557,0.0012,-9.6904,-3.1126,0.0004,-57.6706
27437,-107.0018,17.2662,-0.011,0.0043,-94.9147,0.2352,-1.7253,12.7802,0.0012,-9.0045,-3.3458,-0.0024,-69.613
27454,-107.0313,17.5574,-0.0111,0.0123,-96.709,0.2557,-1.9091,12.7012,0.0011,-7.994,-3.4367,-0.0057,-82.3104
27468,-107.0313,17.5574,-0.0111,0.0123,-96.709,0.2557,-1.9091,12.7012,0.0011,-7.994,-3.4367,-0.0057,-82.3104
27484,-107.0609,17.8316,-0.0111,0.0194,-98.6857,0.2675,-2.0556,12.6277,0.0009,-6.7127,-3.3661,-0.0092,-94.7254
27500,-107.094,18.1271,-0.0111,0.0264,-101.155,0.2718,-2.1835,12.5504,0.0006,-5.3852,-3.2549,-0.011,-108.6359
27516,-107.094,18.1271,-0.0111,0.0264,-101.155,0.2718,-2.1835,12.5504,0.0006,-5.3852,-3.2549,-0.011,-108.6359
27532,-107.1248,18.3983,-0.0112,0.0314,-103.7376,0.2675,-2.2646,12.4854,0.0003,-3.6874,-2.9529,-0.0128,-121.6946
27549,-107.1555,18.6717,-0.0112,0.0349,-106.666,0.2551,-2.3106,12.4259,-0.0,-2.0535,-2.655,-0.0142,-135.1526
27564,-107.1842,18.937,-0.0112,0.0363,-109.8341,0.2357,-2.3168,12.3754,-0.0003,-0.2799,-2.2949,-0.0122,-148.4137
27580,-107.1842,18.937,-0.0112,0.0363,-109.8341,0.2357,-2.3168,12.3754,-0.0003,-0.2799,-2.2949,-0.0122,-148.4137
27597,-107.2108,19.1978,-0.0112,0.0353,-113.2716,0.2099,-2.2842,12.3329,-0.0006,1.4931,-1.9457,-0.013,-161.6011
27612,-107.2362,19.4711,-0.0112,0.0316,-117.2398,0.176,-2.2028,12.2971,-0.0008,3.5031,-1.5424,-0.0118,-175.4072
27628,-107.2362,19.4711,-0.0112,0.0316,-117.2398,0.176,-2.2028,12.2971,-0.0008,3.5031,-1.5424,-0.0118,-175.4072
27644,-107.2558,19.7229,-0.0112,0.0242,-121.1901,0.1367,-2.0226,12.2934,-0.001,8.3288,-0.1688,-0.0097,-185.8669
27662,-107.2704,19.9819,-0.0111,0.0107,-125.4963,0.085,-1.736,12.3045,-0.0013,12.7547,0.4946,-0.0129,-194.326
27676,-107.2777,20.2439,-0.011,-0.0088,-130.0655,0.0237,-1.3635,12.3116,-0.0017,16.2269,0.307,-0.0144,-201.1644
27692,-107.2777,20.2439,-0.011,-0.0088,-130.0655,0.0237,-1.3635,12.3116,-0.0017,16.2269,0.307,-0.0144,-201.1644
27709,-107.2764,20.508,-0.0109,-0.0334,-134.8647,-0.044,-0.9199,12.2996,-0.0012,18.9428,-0.5121,0.0221,-206.7167
27726,-107.2659,20.763,-0.0107,-0.0606,-139.6658,-0.1113,-0.4397,12.2586,0.0001,20.9716,-1.7919,0.0562,-211.0546
27740,-107.2659,20.763,-0.0107,-0.0606,-139.6658,-0.1113,-0.4397,12.2586,0.0001,20.9716,-1.7919,0.0562,-211.0546
27756,-107.2449,21.022,-0.0104,-0.0907,-144.7132,-0.1803,0.089,12.1786,0.001,22.365,-3.3836,0.0378,-214.6491
27773,-107.2143,21.2709,-0.0102,-0.1205,-149.7282,-0.2449,0.6282,12.0572,0.0016,23.2883,-5.2436,0.0251,-217.5231
27788,-107.2143,21.2709,-0.0102,-0.1205,-149.7282,-0.2449,0.6282,12.0572,0.0016,23.2883,-5.2436,0.0251,-217.5231
27804,-107.1764,21.5004,-0.0099,-0.148,-154.5113,-0.3022,1.1467,11.8999,0.0019,23.7499,-7.2026,0.014,-219.8462
27822,-107.1305,21.7209,-0.0097,-0.1739,-159.266,-0.3555,1.6589,11.7031,0.0021,23.8293,-9.1571,0.0067,-221.9289
27837,-107.079,21.9263,-0.0095,-0.1973,-163.8572,-0.403,2.144,11.4753,0.0021,23.5832,-11.0775,0.0021,-223.8279
27868,-107.0204,22.1249,-0.0093,-0.2191,-168.4769,-0.4472,2.6171,11.211,0.0021,23.0553,-12.8751,-0.0024,-225.7685
27886,-106.9555,22.3159,-0.0091,-0.2385,-173.1171,-0.4907,3.0354,10.8623,0.0021,20.4199,-17.0235,0.0026,-226.7569
27901,-106.8837,22.504,-0.0089,-0.2542,-177.9394,-0.5404,3.3726,10.411,0.0022,15.9164,-21.3027,0.0026,-228.0153
27916,-106.8119,22.6746,-0.0088,-0.2654,177.4136,-0.5905,3.6314,9.9309,0.0022,12.7329,-23.6211,0.0019,-228.9166
27932,-106.8119,22.6746,-0.0088,-0.2654,177.4136,-0.5905,3.6314,9.9309,0.0022,12.7329,-23.6211,0.0019,-228.9166
27948,-106.7393,22.8336,-0.0087,-0.2732,172.7939,-0.6416,3.8212,9.4189,0.0022,9.4193,-25.41,0.0006,-229.4182
27965,-106.6597,22.9957,-0.0086,-0.2783,167.7306,-0.6992,3.9487,8.8288,0.0022,5.7783,-26.7408,-0.0006,-229.4437
27982,-106.5908,23.1325,-0.0086,-0.2754,163.2028,-0.7505,3.7957,8.3758,0.0021,-7.6533,-22.6559,-0.0029,-223.5951
27996,-106.5908,23.1325,-0.0086,-0.2754,163.2028,-0.7505,3.7957,8.3758,0.0021,-7.6533,-22.6559,-0.0029,-223.5951
28012,-106.5319,23.2642,-0.0087,-0.2579,158.9326,-0.7823,3.4201,8.0689,-0.0043,-18.9277,-15.4633,-0.3254,-212.5505
28028,-106.4826,23.3924,-0.009,-0.2324,154.862,-0.8065,2.998,7.7756,-0.0029,-21.2815,-14.79,0.0702,-203.0098
28046,-106.4436,23.5167,-0.0092,-0.2,150.9404,-0.8359,2.5464,7.4816,0.0047,-22.7624,-14.8148,0.3833,-195.9767
28060,-106.4124,23.6463,-0.0093,-0.1654,146.8399,-0.8673,2.0635,7.2108,0.0033,-22.6883,-12.7268,-0.0652,-191.1281
28076,-106.3951,23.763,-0.0095,-0.1315,143.1609,-0.8951,1.5818,7.0263,0.0027,-24.555,-9.4043,-0.0324,-186.1008
28092,-106.3951,23.763,-0.0095,-0.1315,143.1609,-0.8951,1.5818,7.0263,0.0027,-24.555,-9.4043,-0.0324,-186.1008
28108,-106.3883,23.8804,-0.0097,-0.0968,139.6058,-0.9127,1.0743,6.9536,0.002,-25.6999,-3.683,-0.0337,-177.768
28126,-106.3916,24.0001,-0.01,-0.0607,136.241,-0.9179,0.5656,6.969,0.0014,-25.7243,0.7806,-0.0319,-167.5077
28142,-106.4041,24.1197,-0.0102,-0.025,133.1792,-0.9123,0.0838,7.05,0.0008,-25.0696,4.2124,-0.0298,-156.5417
28156,-106.4041,24.1197,-0.0102,-0.025,133.1792,-0.9123,0.0838,7.05,0.0008,-25.0696,4.2124,-0.0298,-156.5417
28172,-106.4279,24.2606,-0.0105,0.0132,129.9495,-0.8977,-0.4348,7.186,0.0002,-23.7269,6.2248,-0.0266,-143.2087
28190,-106.4622,24.4102,-0.0108,0.0509,126.9721,-0.8752,-0.9177,7.3586,-0.0002,-21.6738,7.7447,-0.0201,-128.8088
28206,-106.5031,24.5607,-0.011,0.0839,124.3939,-0.8452,-1.3053,7.5607,-0.0006,-18.0326,9.4038,-0.0162,-115.7591
28220,-106.5031,24.5607,-0.011,0.0839,124.3939,-0.8452,-1.3053,7.5607,-0.0006,-18.0326,9.4038,-0.0162,-115.7591
28236,-106.5488,24.7157,-0.0113,0.112,122.0748,-0.8021,-1.552,7.7852,-0.001,-11.6105,10.5616,-0.0171,-106.2914
28254,-106.6003,24.8885,-0.0115,0.1359,119.7476,-0.7344,-1.6536,8.028,-0.0014,-4.4625,10.6626,-0.0187,-100.4866
28268,-106.6003,24.8885,-0.0115,0.1359,119.7476,-0.7344,-1.6536,8.028,-0.0014,-4.4625,10.6626,-0.0187,-100.4866
28284,-106.6543,25.0759,-0.0116,0.1537,117.4119,-0.6446,-1.6403,8.2667,-0.0019,0.5586,10.0243,-0.0219,-97.1663
28302,-106.7036,25.2585,-0.0118,0.1643,115.2505,-0.5504,-1.5443,8.4759,-0.0024,4.2668,9.3008,-0.0208,-95.6476
28316,-106.7503,25.448,-0.0119,0.1702,113.0884,-0.45,-1.3909,8.6699,-0.0028,6.7544,8.5361,-0.019,-95.0031
28332,-106.7503,25.448,-0.0119,0.1702,113.0884,-0.45,-1.3909,8.6699,-0.0028,6.7544,8.5361,-0.019,-95.0031
28349,-106.7928,25.641,-0.012,0.1722,110.9464,-0.3503,-1.1964,8.8463,-0.0031,8.6131,7.8102,-0.0135,-94.8456
28380,-106.831,25.8406,-0.0121,0.1714,108.7769,-0.2521,-0.9668,9.0079,-0.0033,10.0436,7.0731,-0.0097,-94.9886
28396,-106.8643,26.0403,-0.0121,0.1695,106.6937,-0.1685,-0.826,9.1718,-0.0034,6.2872,7.3178,-0.0034,-91.5367
28413,-106.8965,26.25,-0.0122,0.1674,104.7135,-0.1085,-0.8132,9.3271,-0.0033,0.5541,6.7503,0.0066,-82.9082
28428,-106.8965,26.25,-0.0122,0.1674,104.7135,-0.1085,-0.8132,9.3271,-0.0033,0.5541,6.7503,0.0066,-82.9082
28444,-106.9295,26.4701,-0.0122,0.1642,102.9444,-0.0776,-0.9065,9.4491,-0.0028,-3.9338,5.1453,0.0191,-70.1978
28462,-106.9645,26.6971,-0.0122,0.1586,101.4989,-0.075,-1.0882,9.5231,-0.0021,-7.5313,3.0669,0.0294,-54.5871
28476,-106.9645,26.6971,-0.0122,0.1586,101.4989,-0.075,-1.0882,9.5231,-0.0021,-7.5313,3.0669,0.0294,-54.5871
28492,-107.002,26.9274,-0.0122,0.1501,100.4271,-0.0912,-1.28,9.566,-0.0012,-7.9002,1.7643,0.0373,-39.3231
28509,-107.0413,27.1628,-0.0122,0.1397,99.6582,-0.1075,-1.401,9.6117,-0.0004,-4.9095,1.8563,0.0313,-27.537
28524,-107.0413,27.1628,-0.0122,0.1397,99.6582,-0.1075,-1.401,9.6117,-0.0004,-4.9095,1.8563,0.0313,-27.537
28540,-107.0793,27.3905,-0.0121,0.1292,99.1413,-0.1151,-1.4627,9.6559,-0.0,-2.6065,1.8646,0.0168,-19.2671
28558,-107.1167,27.6181,-0.012,0.1188,98.7831,-0.1142,-1.4887,9.6974,0.0001,-1.1016,1.7619,0.0067,-13.4077
28572,-107.1167,27.6181,-0.012,0.1188,98.7831,-0.1142,-1.4887,9.6974,0.0001,-1.1016,1.7619,0.0067,-13.4077
28588,-107.1546,27.8533,-0.0119,0.1103,98.5289,-0.0999,-1.4919,9.7341,0.0065,-0.1336,1.5167,0.2642,-9.2705
28606,-107.1915,28.0918,-0.0111,0.1404,98.3488,0.0328,-1.4922,9.7622,0.041,-0.0138,1.1512,1.4106,-6.6692
28620,-107.1915,28.0918,-0.0111,0.1404,98.3488,0.0328,-1.4922,9.7622,0.041,-0.0138,1.1512,1.4106,-6.6692
28636,-107.2276,28.3235,-0.0109,0.1325,98.2319,0.0308,-1.4805,9.7935,-0.0224,0.4955,1.3169,-2.6732,-4.1592
28654,-107.2647,28.5653,-0.0111,0.1047,98.1436,-0.018,-1.4588,9.8243,-0.0162,0.8793,1.2524,0.2509,-3.4835
28668,-107.2647,28.5653,-0.0111,0.1047,98.1436,-0.018,-1.4588,9.8243,-0.0162,0.8793,1.2524,0.2509,-3.4835
28684,-107.3018,28.814,-0.0113,0.0848,98.0903,-0.0347,-1.4426,9.8471,-0.0106,0.6402,0.8992,0.2196,-1.2769
28702,-107.3378,29.0591,-0.0114,0.0708,98.0449,-0.037,-1.4321,9.8718,-0.007,0.4225,0.9944,0.1448,-2.1988
28716,-107.3378,29.0591,-0.0114,0.0708,98.0449,-0.037,-1.4321,9.8718,-0.007,0.4225,0.9944,0.1448,-2.1988
28733,-107.3762,29.3247,-0.0114,0.0594,98.0278,-0.0335,-1.4219,9.8842,-0.0045,0.381,0.4606,0.0923,0.4099
28749,-107.4112,29.5673,-0.0115,0.0515,98.0023,-0.0288,-1.4169,9.9053,-0.0029,0.2037,0.8606,0.0656,-1.6487
28764,-107.4112,29.5673,-0.0115,0.0515,98.0023,-0.0288,-1.4169,9.9053,-0.0029,0.2037,0.8606,0.0656,-1.6487
28782,-107.445,29.8048,-0.0115,0.0454,97.9997,-0.0242,-1.4126,9.9209,-0.0019,0.1785,0.6528,0.0423,0.5913
28796,-107.445,29.8048,-0.0115,0.0454,97.9997,-0.0242,-1.4126,9.9209,-0.0019,0.1785,0.6528,0.0423,0.5913
28812,-107.4795,30.047,-0.0115,0.0402,97.9837,-0.02,-1.4098,9.9369,-0.0012,0.1157,0.6538,0.0297,-1.3239
28830,-107.5142,30.2923,-0.0115,0.0359,97.9873,-0.0163,-1.4077,9.9519,-0.0007,0.0842,0.6068,0.02,0.9225
28844,-107.5142,30.2923,-0.0115,0.0359,97.9873,-0.0163,-1.4077,9.9519,-0.0007,0.0842,0.6068,0.02,0.9225
28860,-107.5495,30.5429,-0.0111,0.0152,97.9734,0.0096,-1.4067,9.9661,0.0225,0.0393,0.5652,0.9219,-1.3762
28878,-107.5833,30.7848,-0.0104,-0.0257,97.98,0.0566,-1.4101,9.9802,0.0194,-0.1393,0.5818,-0.1282,0.9845
28892,-107.5833,30.7848,-0.0104,-0.0257,97.98,0.0566,-1.4101,9.9802,0.0194,-0.1393,0.5818,-0.1282,0.9845
28908,-107.6172,31.0234,-0.0104,-0.02,97.9697,0.0396,-1.41,9.9954,-0.0104,0.0049,0.6343,-1.2487,-0.8895
28925,-107.652,31.2695,-0.0108,-0.0023,97.9755,0.0151,-1.4063,10.0082,-0.0076,0.1495,0.5203,0.1139,0.8854
28940,-107.652,31.2695,-0.0108,-0.0023,97.9755,0.0151,-1.4063,10.0082,-0.0076,0.1495,0.5203,0.1139,0.8854
28956,-107.6864,31.514,-0.011,0.0075,97.9666,0.0044,-1.406,10.0224,-0.0054,0.0133,0.5858,0.0928,-1.0319
28973,-107.7207,31.7589,-0.0111,0.0127,97.9742,-0.0003,-1.4066,10.036,-0.0037,-0.0241,0.5534,0.069,1.002
28988,-107.7207,31.7589,-0.0111,0.0127,97.9742,-0.0003,-1.4066,10.036,-0.0037,-0.0241,0.5534,0.069,1.002
29006,-107.7568,32.0158,-0.0112,0.0153,97.9637,-0.0022,-1.4077,10.0483,-0.0024,-0.0464,0.4843,0.051,-1.2724
29022,-107.7914,32.2629,-0.0113,0.0162,97.973,-0.0027,-1.409,10.0608,-0.0015,-0.052,0.5063,0.0359,1.1106
29036,-107.7914,32.2629,-0.0113,0.0162,97.973,-0.0027,-1.409,10.0608,-0.0015,-0.052,0.5063,0.0359,1.1106
29054,-107.826,32.5102,-0.0113,0.0163,97.9638,-0.0027,-1.4107,10.0737,-0.0009,-0.0679,0.5259,0.0236,-1.0838
29068,-107.8616,32.7643,-0.0113,0.0159,97.9733,-0.0025,-1.4122,10.0863,-0.0005,-0.0603,0.498,0.0162,1.1788
29084,-107.8616,32.7643,-0.0113,0.0159,97.9733,-0.0025,-1.4122,10.0863,-0.0005,-0.0603,0.498,0.0162,1.1788
29102,-107.8954,33.0056,-0.0113,0.0154,97.965,-0.0023,-1.414,10.0991,-0.0003,-0.0756,0.5371,0.0104,-0.9646
29116,-107.9298,33.2517,-0.0113,0.0148,97.9728,-0.002,-1.4157,10.1123,-0.0001,-0.0707,0.5419,0.0071,0.9691
29132,-107.9298,33.2517,-0.0113,0.0148,97.9728,-0.002,-1.4157,10.1123,-0.0001,-0.0707,0.5419,0.0071,0.9691
29149,-107.9652,33.5043,-0.0113,0.0142,97.9641,-0.0017,-1.4175,10.1248,0.0,-0.0719,0.5026,0.0037,-1.0852
29164,-107.9652,33.5043,-0.0113,0.0142,97.9641,-0.0017,-1.4175,10.1248,0.0,-0.0719,0.5026,0.0037,-1.0852
29180,-108.0015,33.7639,-0.0113,0.0135,97.9742,-0.0015,-1.419,10.1365,0.0001,-0.0591,0.4562,0.0025,1.2474
29197,-108.0361,34.0103,-0.0113,0.0129,97.9653,-0.0013,-1.4208,10.1486,0.0001,-0.0738,0.4993,0.0011,-1.0323
29212,-108.0361,34.0103,-0.0113,0.0129,97.9653,-0.0013,-1.4208,10.1486,0.0001,-0.0738,0.4993,0.0011,-1.0323
29228,-108.0701,34.2536,-0.0113,0.0124,97.9729,-0.0011,-1.4226,10.1615,0.0001,-0.072,0.5373,0.0016,0.9096
29245,-108.1059,34.509,-0.0113,0.012,97.9644,-0.001,-1.4244,10.174,0.0001,-0.0721,0.4971,-0.0004,-1.0688
29260,-108.1059,34.509,-0.0113,0.012,97.9644,-0.001,-1.4244,10.174,0.0001,-0.0721,0.4971,-0.0004,-1.0688
29276,-108.1399,34.7523,-0.0113,0.0116,97.972,-0.0009,-1.426,10.1863,0.0001,-0.0669,0.5138,0.0002,0.9003
29294,-108.174,34.9956,-0.0113,0.0113,97.9652,-0.0008,-1.4278,10.1989,0.0001,-0.0758,0.5294,-0.0003,-0.8392
29308,-108.174,34.9956,-0.0113,0.0113,97.9652,-0.0008,-1.4278,10.1989,0.0001,-0.0758,0.5294,-0.0003,-0.8392
29324,-108.2079,35.238,-0.0113,0.0111,97.9715,-0.0006,-1.4294,10.2114,0.0001,-0.0697,0.5265,-0.0004,0.7932
29342,-108.2446,35.5001,-0.0112,0.0108,97.9631,-0.0005,-1.4311,10.2233,0.0001,-0.0665,0.4648,-0.0002,-1.0912
29356,-108.2446,35.5001,-0.0112,0.0108,97.9631,-0.0005,-1.4311,10.2233,0.0001,-0.0665,0.4648,-0.0002,-1.0912
29374,-108.2809,35.7595,-0.0112,0.0105,97.9727,-0.0005,-1.4325,10.2341,0.0001,-0.054,0.424,-0.0009,1.162
29388,-108.3157,36.0078,-0.0112,0.0102,97.9644,-0.0004,-1.4342,10.2456,0.0001,-0.0694,0.4734,-0.0005,-0.9695
29404,-108.3157,36.0078,-0.0112,0.0102,97.9644,-0.0004,-1.4342,10.2456,0.0001,-0.0694,0.4734,-0.0005,-0.9695
29421,-108.3507,36.258,-0.0112,0.01,97.9721,-0.0003,-1.4358,10.2575,0.0001,-0.0651,0.4892,-0.0,0.9353
29436,-108.3864,36.5127,-0.0112,0.0098,97.9641,-0.0003,-1.4375,10.2691,0.0,-0.0687,0.4696,-0.0006,-0.9916
29452,-108.3864,36.5127,-0.0112,0.0098,97.9641,-0.0003,-1.4375,10.2691,0.0,-0.0687,0.4696,-0.0006,-0.9916
29469,-108.4228,36.7735,-0.0112,0.0096,97.9731,-0.0002,-1.439,10.2803,0.0,-0.0579,0.4386,-0.0,1.1136
29484,-108.4228,36.7735,-0.0112,0.0096,97.9731,-0.0002,-1.439,10.2803,0.0,-0.0579,0.4386,-0.0,1.1136
29500,-108.4585,37.0277,-0.0112,0.0094,97.9644,-0.0002,-1.4406,10.2914,0.0,-0.0671,0.4501,-0.0007,-1.0252
29517,-108.4935,37.2782,-0.0112,0.0093,97.9722,-0.0002,-1.4422,10.303,0.0,-0.0638,0.4776,0.0001,0.9242
29532,-108.4935,37.2782,-0.0112,0.0093,97.9722,-0.0002,-1.4422,10.303,0.0,-0.0638,0.4776,0.0001,0.9242
29548,-108.5297,37.5366,-0.0112,0.0091,97.964,-0.0002,-1.4439,10.3145,0.0,-0.067,0.4574,-0.0001,-1.0156
29564,-108.5663,37.7984,-0.0112,0.009,97.973,-0.0002,-1.4453,10.3254,0.0,-0.0564,0.4296,-0.0,1.1018
