timestamp,x,y,z,pitch,yaw,roll,vx,vy,vz,ax,ay,az,yaw_rate
121634,-106.6867,-4.8475,-0.0795,0.0,-89.3578,0.0,-0.0,-0.0,0.0573,-0.0,0.0,6.7687,0.0
121650,-106.6867,-4.8475,-0.0795,0.0,-89.3578,0.0,-0.0,-0.0,0.0573,-0.0,0.0,6.7687,0.0
121666,-106.6867,-4.8475,-0.0795,0.0,-89.3578,0.0,-0.0,-0.0,0.0573,-0.0,0.0,6.7687,0.0
121682,-106.6867,-4.8475,-0.0795,0.0,-89.3578,0.0,-0.0,-0.0,0.0573,-0.0,0.0,6.7687,0.0
121698,-106.6867,-4.8475,-0.0795,0.0,-89.3578,0.0,-0.0,-0.0,0.0573,-0.0,0.0,6.7687,0.0
121714,-106.6867,-4.8475,-0.0795,0.0,-89.3578,0.0,-0.0,-0.0,0.0573,-0.0,0.0,6.7687,0.0
121730,-106.6867,-4.8475,-0.0795,0.0,-89.3578,0.0,-0.0,-0.0,0.0573,-0.0,0.0,6.7687,0.0
121746,-106.6867,-4.8475,-0.0795,0.0,-89.3578,0.0,-0.0,-0.0,0.0573,-0.0,0.0,6.7687,0.0
121762,-106.6867,-4.8475,-0.0795,0.0,-89.3578,0.0,-0.0,-0.0,0.0573,-0.0,0.0,6.7687,0.0
121778,-106.6867,-4.8475,-0.0795,0.0,-89.3578,0.0,-0.0,-0.0,0.0573,-0.0,0.0,6.7687,0.0
121794,-106.6867,-4.8475,-0.0795,0.0,-89.3578,0.0,-0.0,-0.0,0.0573,-0.0,0.0,6.7687,0.0
121810,-106.6867,-4.8475,-0.0795,0.0,-89.3578,0.0,-0.0,-0.0,0.0573,-0.0,0.0,6.7687,0.0
121826,-106.6867,-4.8475,-0.0795,0.0,-89.3578,0.0,-0.0,-0.0,0.0573,-0.0,0.0,6.7687,0.0
121842,-106.6867,-4.8475,-0.0795,0.0,-89.3578,0.0,-0.0,-0.0,0.0573,-0.0,0.0,6.7687,0.0
121858,-106.6867,-4.8475,-0.0795,0.0,-89.3578,0.0,-0.0,-0.0,0.0573,-0.0,0.0,6.7687,0.0
121874,-106.6867,-4.8475,-0.0795,0.0,-89.3578,0.0,-0.0,-0.0,0.0573,-0.0,0.0,6.7687,0.0
121890,-106.6867,-4.8475,-0.0795,0.0,-89.3578,0.0,-0.0,-0.0,0.0573,-0.0,0.0,6.7687,0.0
121906,-106.6867,-4.8457,-0.06,-0.0016,-89.3578,-0.0,-0.0005,0.0411,0.2358,-0.0018,0.1574,0.6825,0.0002
121922,-106.6867,-4.8457,-0.06,-0.0016,-89.3578,-0.0,-0.0005,0.0411,0.2358,-0.0018,0.1574,0.6825,0.0002
121938,-106.6867,-4.8457,-0.06,-0.0016,-89.3578,-0.0,-0.0005,0.0411,0.2358,-0.0018,0.1574,0.6825,0.0002
121954,-106.6867,-4.8457,-0.06,-0.0016,-89.3578,-0.0,-0.0005,0.0411,0.2358,-0.0018,0.1574,0.6825,0.0002
121970,-106.6867,-4.8457,-0.06,-0.0016,-89.3578,-0.0,-0.0005,0.0411,0.2358,-0.0018,0.1574,0.6825,0.0002
121986,-106.6867,-4.8457,-0.06,-0.0016,-89.3578,-0.0,-0.0005,0.0411,0.2358,-0.0018,0.1574,0.6825,0.0002
122004,-106.6868,-4.8408,-0.039,-0.0049,-89.3578,0.0,-0.0012,0.1037,0.177,-0.007,0.6242,-0.5865,0.0002
122018,-106.6868,-4.8408,-0.039,-0.0049,-89.3578,0.0,-0.0012,0.1037,0.177,-0.007,0.6242,-0.5865,0.0002
122034,-106.6868,-4.8408,-0.039,-0.0049,-89.3578,0.0,-0.0012,0.1037,0.177,-0.007,0.6242,-0.5865,0.0002
122050,-106.6868,-4.8408,-0.039,-0.0049,-89.3578,0.0,-0.0012,0.1037,0.177,-0.007,0.6242,-0.5865,0.0002
122066,-106.6868,-4.8408,-0.039,-0.0049,-89.3578,0.0,-0.0012,0.1037,0.177,-0.007,0.6242,-0.5865,0.0002
122082,-106.6868,-4.8408,-0.039,-0.0049,-89.3578,0.0,-0.0012,0.1037,0.177,-0.007,0.6242,-0.5865,0.0002
122098,-106.6872,-4.8069,-0.0262,-0.0284,-89.3578,0.0,-0.0066,0.591,0.1081,-0.0597,5.323,-0.7525,0.0082
122114,-106.6872,-4.8069,-0.0262,-0.0284,-89.3578,0.0,-0.0066,0.591,0.1081,-0.0597,5.323,-0.7525,0.0082
122130,-106.6872,-4.8069,-0.0262,-0.0284,-89.3578,0.0,-0.0066,0.591,0.1081,-0.0597,5.323,-0.7525,0.0082
122146,-106.6872,-4.8069,-0.0262,-0.0284,-89.3578,0.0,-0.0066,0.591,0.1081,-0.0597,5.323,-0.7525,0.0082
122162,-106.6872,-4.8069,-0.0262,-0.0284,-89.3578,0.0,-0.0066,0.591,0.1081,-0.0597,5.323,-0.7525,0.0082
122180,-106.688,-4.7323,-0.0188,-0.0491,-89.3573,0.0001,-0.0121,0.9994,0.0601,-0.0602,4.494,-0.5282,-0.2689
122194,-106.688,-4.7323,-0.0188,-0.0491,-89.3573,0.0001,-0.0121,0.9994,0.0601,-0.0602,4.494,-0.5282,-0.2689
122210,-106.688,-4.7323,-0.0188,-0.0491,-89.3573,0.0001,-0.0121,0.9994,0.0601,-0.0602,4.494,-0.5282,-0.2689
122226,-106.688,-4.7323,-0.0188,-0.0491,-89.3573,0.0001,-0.0121,0.9994,0.0601,-0.0602,4.494,-0.5282,-0.2689
122242,-106.688,-4.7323,-0.0188,-0.0491,-89.3573,0.0001,-0.0121,0.9994,0.0601,-0.0602,4.494,-0.5282,-0.2689
122258,-106.688,-4.7323,-0.0188,-0.0491,-89.3573,0.0001,-0.0121,0.9994,0.0601,-0.0602,4.494,-0.5282,-0.2689
122276,-106.6898,-4.6346,-0.0144,-0.0437,-89.2855,0.0005,-0.0149,1.1009,0.0333,-0.0296,1.0768,-0.2841,0.1388
122290,-106.6898,-4.6346,-0.0144,-0.0437,-89.2855,0.0005,-0.0149,1.1009,0.0333,-0.0296,1.0768,-0.2841,0.1388
122306,-106.6898,-4.6346,-0.0144,-0.0437,-89.2855,0.0005,-0.0149,1.1009,0.0333,-0.0296,1.0768,-0.2841,0.1388
122322,-106.6898,-4.6346,-0.0144,-0.0437,-89.2855,0.0005,-0.0149,1.1009,0.0333,-0.0296,1.0768,-0.2841,0.1388
122338,-106.6898,-4.6346,-0.0144,-0.0437,-89.2855,0.0005,-0.0149,1.1009,0.0333,-0.0296,1.0768,-0.2841,0.1388
122354,-106.6898,-4.6346,-0.0144,-0.0437,-89.2855,0.0005,-0.0149,1.1009,0.0333,-0.0296,1.0768,-0.2841,0.1388
122372,-106.6909,-4.5356,-0.0126,-0.0311,-89.3001,-0.0001,-0.0124,1.0683,0.0151,0.0275,-0.3639,-0.2034,0.0298
122386,-106.6909,-4.5356,-0.0126,-0.0311,-89.3001,-0.0001,-0.0124,1.0683,0.0151,0.0275,-0.3639,-0.2034,0.0298
122402,-106.6909,-4.5356,-0.0126,-0.0311,-89.3001,-0.0001,-0.0124,1.0683,0.0151,0.0275,-0.3639,-0.2034,0.0298
122418,-106.6909,-4.5356,-0.0126,-0.0311,-89.3001,-0.0001,-0.0124,1.0683,0.0151,0.0275,-0.3639,-0.2034,0.0298
122434,-106.6909,-4.5356,-0.0126,-0.0311,-89.3001,-0.0001,-0.0124,1.0683,0.0151,0.0275,-0.3639,-0.2034,0.0298
122450,-106.6909,-4.5356,-0.0126,-0.0311,-89.3001,-0.0001,-0.0124,1.0683,0.0151,0.0275,-0.3639,-0.2034,0.0298
122466,-106.6924,-4.4328,-0.0118,-0.0192,-89.2629,0.0003,-0.0141,1.0774,0.0067,-0.0187,0.0999,-0.0924,0.0491
122482,-106.6924,-4.4328,-0.0118,-0.0192,-89.2629,0.0003,-0.0141,1.0774,0.0067,-0.0187,0.0999,-0.0924,0.0491
122498,-106.6924,-4.4328,-0.0118,-0.0192,-89.2629,0.0003,-0.0141,1.0774,0.0067,-0.0187,0.0999,-0.0924,0.0491
122514,-106.6924,-4.4328,-0.0118,-0.0192,-89.2629,0.0003,-0.0141,1.0774,0.0067,-0.0187,0.0999,-0.0924,0.0491
122530,-106.6924,-4.4328,-0.0118,-0.0192,-89.2629,0.0003,-0.0141,1.0774,0.0067,-0.0187,0.0999,-0.0924,0.0491
122548,-106.6938,-4.3042,-0.0113,-0.0399,-89.28,0.0002,-0.0277,1.7657,0.0031,-0.149,7.5357,-0.0386,0.9491
122562,-106.6938,-4.3042,-0.0113,-0.0399,-89.28,0.0002,-0.0277,1.7657,0.0031,-0.149,7.5357,-0.0386,0.9491
122578,-106.6938,-4.3042,-0.0113,-0.0399,-89.28,0.0002,-0.0277,1.7657,0.0031,-0.149,7.5357,-0.0386,0.9491
122594,-106.6938,-4.3042,-0.0113,-0.0399,-89.28,0.0002,-0.0277,1.7657,0.0031,-0.149,7.5357,-0.0386,0.9491
122610,-106.6938,-4.3042,-0.0113,-0.0399,-89.28,0.0002,-0.0277,1.7657,0.0031,-0.149,7.5357,-0.0386,0.9491
122626,-106.6938,-4.3042,-0.0113,-0.0399,-89.28,0.0002,-0.0277,1.7657,0.0031,-0.149,7.5357,-0.0386,0.9491
122642,-106.696,-4.1185,-0.0108,-0.0683,-89.291,-0.0006,-0.025,2.2916,0.0015,0.0302,5.8053,-0.0177,-0.3039
122658,-106.696,-4.1185,-0.0108,-0.0683,-89.291,-0.0006,-0.025,2.2916,0.0015,0.0302,5.8053,-0.0177,-0.3039
122674,-106.696,-4.1185,-0.0108,-0.0683,-89.291,-0.0006,-0.025,2.2916,0.0015,0.0302,5.8053,-0.0177,-0.3039
122690,-106.696,-4.1185,-0.0108,-0.0683,-89.291,-0.0006,-0.025,2.2916,0.0015,0.0302,5.8053,-0.0177,-0.3039
122706,-106.696,-4.1185,-0.0108,-0.0683,-89.291,-0.0006,-0.025,2.2916,0.0015,0.0302,5.8053,-0.0177,-0.3039
122722,-106.696,-4.1185,-0.0108,-0.0683,-89.291,-0.0006,-0.025,2.2916,0.0015,0.0302,5.8053,-0.0177,-0.3039
122738,-106.6983,-3.8981,-0.0107,-0.0699,-89.3113,-0.0004,-0.0302,2.6853,0.0008,-0.0569,4.3445,-0.0085,2.5574
122754,-106.6983,-3.8981,-0.0107,-0.0699,-89.3113,-0.0004,-0.0302,2.6853,0.0008,-0.0569,4.3445,-0.0085,2.5574
122770,-106.6983,-3.8981,-0.0107,-0.0699,-89.3113,-0.0004,-0.0302,2.6853,0.0008,-0.0569,4.3445,-0.0085,2.5574
122786,-106.6983,-3.8981,-0.0107,-0.0699,-89.3113,-0.0004,-0.0302,2.6853,0.0008,-0.0569,4.3445,-0.0085,2.5574
122802,-106.6983,-3.8981,-0.0107,-0.0699,-89.3113,-0.0004,-0.0302,2.6853,0.0008,-0.0569,4.3445,-0.0085,2.5574
122819,-106.7017,-3.6233,-0.0106,-0.0775,-89.3261,0.0005,-0.0397,3.1412,0.0004,-0.1012,4.8368,-0.0039,-2.3721
122834,-106.7017,-3.6233,-0.0106,-0.0775,-89.3261,0.0005,-0.0397,3.1412,0.0004,-0.1012,4.8368,-0.0039,-2.3721
122850,-106.7017,-3.6233,-0.0106,-0.0775,-89.3261,0.0005,-0.0397,3.1412,0.0004,-0.1012,4.8368,-0.0039,-2.3721
122866,-106.7017,-3.6233,-0.0106,-0.0775,-89.3261,0.0005,-0.0397,3.1412,0.0004,-0.1012,4.8368,-0.0039,-2.3721
122882,-106.7017,-3.6233,-0.0106,-0.0775,-89.3261,0.0005,-0.0397,3.1412,0.0004,-0.1012,4.8368,-0.0039,-2.3721
122898,-106.7017,-3.6233,-0.0106,-0.0775,-89.3261,0.0005,-0.0397,3.1412,0.0004,-0.1012,4.8368,-0.0039,-2.3721
122916,-106.7059,-3.3067,-0.0106,-0.0818,-89.2839,0.0004,-0.0452,3.5776,0.0002,-0.0601,4.7381,-0.0022,0.535
122930,-106.7059,-3.3067,-0.0106,-0.0818,-89.2839,0.0004,-0.0452,3.5776,0.0002,-0.0601,4.7381,-0.0022,0.535
122946,-106.7059,-3.3067,-0.0106,-0.0818,-89.2839,0.0004,-0.0452,3.5776,0.0002,-0.0601,4.7381,-0.0022,0.535
122962,-106.7059,-3.3067,-0.0106,-0.0818,-89.2839,0.0004,-0.0452,3.5776,0.0002,-0.0601,4.7381,-0.0022,0.535
122978,-106.7059,-3.3067,-0.0106,-0.0818,-89.2839,0.0004,-0.0452,3.5776,0.0002,-0.0601,4.7381,-0.0022,0.535
122994,-106.7059,-3.3067,-0.0106,-0.0818,-89.2839,0.0004,-0.0452,3.5776,0.0002,-0.0601,4.7381,-0.0022,0.535
123012,-106.7111,-2.9447,-0.0105,-0.0863,-89.2215,0.0011,-0.0571,4.1487,0.0001,-0.13,6.2544,-0.001,0.4746
123026,-106.7111,-2.9447,-0.0105,-0.0863,-89.2215,0.0011,-0.0571,4.1487,0.0001,-0.13,6.2544,-0.001,0.4746
123042,-106.7111,-2.9447,-0.0105,-0.0863,-89.2215,0.0011,-0.0571,4.1487,0.0001,-0.13,6.2544,-0.001,0.4746
123058,-106.7111,-2.9447,-0.0105,-0.0863,-89.2215,0.0011,-0.0571,4.1487,0.0001,-0.13,6.2544,-0.001,0.4746
123074,-106.7111,-2.9447,-0.0105,-0.0863,-89.2215,0.0011,-0.0571,4.1487,0.0001,-0.13,6.2544,-0.001,0.4746
123090,-106.7111,-2.9447,-0.0105,-0.0863,-89.2215,0.0011,-0.0571,4.1487,0.0001,-0.13,6.2544,-0.001,0.4746
123108,-106.7174,-2.5069,-0.0105,-0.0887,-89.1987,0.0013,-0.0657,4.7046,0.0,-0.0884,5.7058,-0.0006,0.5899
123122,-106.7174,-2.5069,-0.0105,-0.0887,-89.1987,0.0013,-0.0657,4.7046,0.0,-0.0884,5.7058,-0.0006,0.5899
123138,-106.7174,-2.5069,-0.0105,-0.0887,-89.1987,0.0013,-0.0657,4.7046,0.0,-0.0884,5.7058,-0.0006,0.5899
123154,-106.7174,-2.5069,-0.0105,-0.0887,-89.1987,0.0013,-0.0657,4.7046,0.0,-0.0884,5.7058,-0.0006,0.5899
123170,-106.7174,-2.5069,-0.0105,-0.0887,-89.1987,0.0013,-0.0657,4.7046,0.0,-0.0884,5.7058,-0.0006,0.5899
123186,-106.7174,-2.5069,-0.0105,-0.0887,-89.1987,0.0013,-0.0657,4.7046,0.0,-0.0884,5.7058,-0.0006,0.5899
123204,-106.7244,-2.0335,-0.0104,-0.0977,-89.1692,0.0011,-0.0779,5.3727,0.0,-0.1316,7.2161,-0.0003,0.141
123218,-106.7244,-2.0335,-0.0104,-0.0977,-89.1692,0.0011,-0.0779,5.3727,0.0,-0.1316,7.2161,-0.0003,0.141
123234,-106.7244,-2.0335,-0.0104,-0.0977,-89.1692,0.0011,-0.0779,5.3727,0.0,-0.1316,7.2161,-0.0003,0.141
123250,-106.7244,-2.0335,-0.0104,-0.0977,-89.1692,0.0011,-0.0779,5.3727,0.0,-0.1316,7.2161,-0.0003,0.141
123266,-106.7244,-2.0335,-0.0104,-0.0977,-89.1692,0.0011,-0.0779,5.3727,0.0,-0.1316,7.2161,-0.0003,0.141
123282,-106.7319,-1.5088,-0.0104,-0.1094,-89.1751,0.0008,-0.088,6.1114,0.0,-0.1116,8.1728,-0.0001,-0.0985
123298,-106.7319,-1.5088,-0.0104,-0.1094,-89.1751,0.0008,-0.088,6.1114,0.0,-0.1116,8.1728,-0.0001,-0.0985
123314,-106.7319,-1.5088,-0.0104,-0.1094,-89.1751,0.0008,-0.088,6.1114,0.0,-0.1116,8.1728,-0.0001,-0.0985
123330,-106.7319,-1.5088,-0.0104,-0.1094,-89.1751,0.0008,-0.088,6.1114,0.0,-0.1116,8.1728,-0.0001,-0.0985
123346,-106.7319,-1.5088,-0.0104,-0.1094,-89.1751,0.0008,-0.088,6.1114,0.0,-0.1116,8.1728,-0.0001,-0.0985
123362,-106.7319,-1.5088,-0.0104,-0.1094,-89.1751,0.0008,-0.088,6.1114,0.0,-0.1116,8.1728,-0.0001,-0.0985
123380,-106.741,-0.8952,-0.0102,-0.1192,-89.1573,-0.0027,-0.0995,6.7982,0.0003,-0.1222,7.3102,0.0029,0.4434
123394,-106.741,-0.8952,-0.0102,-0.1192,-89.1573,-0.0027,-0.0995,6.7982,0.0003,-0.1222,7.3102,0.0029,0.4434
123410,-106.741,-0.8952,-0.0102,-0.1192,-89.1573,-0.0027,-0.0995,6.7982,0.0003,-0.1222,7.3102,0.0029,0.4434
123426,-106.741,-0.8952,-0.0102,-0.1192,-89.1573,-0.0027,-0.0995,6.7982,0.0003,-0.1222,7.3102,0.0029,0.4434
123442,-106.741,-0.8952,-0.0102,-0.1192,-89.1573,-0.0027,-0.0995,6.7982,0.0003,-0.1222,7.3102,0.0029,0.4434
123458,-106.741,-0.8952,-0.0102,-0.1192,-89.1573,-0.0027,-0.0995,6.7982,0.0003,-0.1222,7.3102,0.0029,0.4434
123476,-106.7509,-0.2073,-0.0102,-0.1183,-89.1687,-0.0021,-0.1087,7.4637,-0.0001,-0.0965,6.9651,-0.0043,-0.3863
123490,-106.7509,-0.2073,-0.0102,-0.1183,-89.1687,-0.0021,-0.1087,7.4637,-0.0001,-0.0965,6.9651,-0.0043,-0.3863
123506,-106.7509,-0.2073,-0.0102,-0.1183,-89.1687,-0.0021,-0.1087,7.4637,-0.0001,-0.0965,6.9651,-0.0043,-0.3863
123522,-106.7509,-0.2073,-0.0102,-0.1183,-89.1687,-0.0021,-0.1087,7.4637,-0.0001,-0.0965,6.9651,-0.0043,-0.3863
123538,-106.7509,-0.2073,-0.0102,-0.1183,-89.1687,-0.0021,-0.1087,7.4637,-0.0001,-0.0965,6.9651,-0.0043,-0.3863
123554,-106.7509,-0.2073,-0.0102,-0.1183,-89.1687,-0.0021,-0.1087,7.4637,-0.0001,-0.0965,6.9651,-0.0043,-0.3863
123572,-106.7618,0.5304,-0.0103,-0.1161,-89.1589,-0.0012,-0.1187,8.1174,-0.0001,-0.1069,6.9549,-0.0002,0.1855
123586,-106.7618,0.5304,-0.0103,-0.1161,-89.1589,-0.0012,-0.1187,8.1174,-0.0001,-0.1069,6.9549,-0.0002,0.1855
123602,-106.7618,0.5304,-0.0103,-0.1161,-89.1589,-0.0012,-0.1187,8.1174,-0.0001,-0.1069,6.9549,-0.0002,0.1855
123618,-106.7618,0.5304,-0.0103,-0.1161,-89.1589,-0.0012,-0.1187,8.1174,-0.0001,-0.1069,6.9549,-0.0002,0.1855
123634,-106.7618,0.5304,-0.0103,-0.1161,-89.1589,-0.0012,-0.1187,8.1174,-0.0001,-0.1069,6.9549,-0.0002,0.1855
123650,-106.7618,0.5304,-0.0103,-0.1161,-89.1589,-0.0012,-0.1187,8.1174,-0.0001,-0.1069,6.9549,-0.0002,0.1855
123668,-106.7732,1.3126,-0.0103,-0.1141,-89.1619,-0.0007,-0.1279,8.7468,-0.0001,-0.0993,6.8242,0.0005,-0.0046
123682,-106.7732,1.3126,-0.0103,-0.1141,-89.1619,-0.0007,-0.1279,8.7468,-0.0001,-0.0993,6.8242,0.0005,-0.0046
123698,-106.7732,1.3126,-0.0103,-0.1141,-89.1619,-0.0007,-0.1279,8.7468,-0.0001,-0.0993,6.8242,0.0005,-0.0046
123714,-106.7732,1.3126,-0.0103,-0.1141,-89.1619,-0.0007,-0.1279,8.7468,-0.0001,-0.0993,6.8242,0.0005,-0.0046
123730,-106.7732,1.3126,-0.0103,-0.1141,-89.1619,-0.0007,-0.1279,8.7468,-0.0001,-0.0993,6.8242,0.0005,-0.0046
123746,-106.7732,1.3126,-0.0103,-0.1141,-89.1619,-0.0007,-0.1279,8.7468,-0.0001,-0.0993,6.8242,0.0005,-0.0046
123762,-106.7852,2.1311,-0.0103,-0.1109,-89.1617,-0.0004,-0.1363,9.3174,-0.0001,-0.093,6.3281,0.0005,0.0002
123778,-106.7852,2.1311,-0.0103,-0.1109,-89.1617,-0.0004,-0.1363,9.3174,-0.0001,-0.093,6.3281,0.0005,0.0002
123794,-106.7852,2.1311,-0.0103,-0.1109,-89.1617,-0.0004,-0.1363,9.3174,-0.0001,-0.093,6.3281,0.0005,0.0002
123810,-106.7852,2.1311,-0.0103,-0.1109,-89.1617,-0.0004,-0.1363,9.3174,-0.0001,-0.093,6.3281,0.0005,0.0002
123826,-106.7852,2.1311,-0.0103,-0.1109,-89.1617,-0.0004,-0.1363,9.3174,-0.0001,-0.093,6.3281,0.0005,0.0002
123842,-106.7852,2.1311,-0.0103,-0.1109,-89.1617,-0.0004,-0.1363,9.3174,-0.0001,-0.093,6.3281,0.0005,0.0002
123858,-106.7985,3.0433,-0.0104,-0.102,-89.1617,-0.0002,-0.1433,9.7947,-0.0,-0.0737,5.0227,0.0003,-0.0
123874,-106.7985,3.0433,-0.0104,-0.102,-89.1617,-0.0002,-0.1433,9.7947,-0.0,-0.0737,5.0227,0.0003,-0.0
123890,-106.7985,3.0433,-0.0104,-0.102,-89.1617,-0.0002,-0.1433,9.7947,-0.0,-0.0737,5.0227,0.0003,-0.0
123906,-106.7985,3.0433,-0.0104,-0.102,-89.1617,-0.0002,-0.1433,9.7947,-0.0,-0.0737,5.0227,0.0003,-0.0
123922,-106.7985,3.0433,-0.0104,-0.102,-89.1617,-0.0002,-0.1433,9.7947,-0.0,-0.0737,5.0227,0.0003,-0.0
123938,-106.812,3.9687,-0.0105,-0.0931,-89.1617,-0.0002,-0.1499,10.2446,-0.0,-0.0716,4.8857,0.0001,-0.0
123954,-106.812,3.9687,-0.0105,-0.0931,-89.1617,-0.0002,-0.1499,10.2446,-0.0,-0.0716,4.8857,0.0001,-0.0
123970,-106.812,3.9687,-0.0105,-0.0931,-89.1617,-0.0002,-0.1499,10.2446,-0.0,-0.0716,4.8857,0.0001,-0.0
123986,-106.812,3.9687,-0.0105,-0.0931,-89.1617,-0.0002,-0.1499,10.2446,-0.0,-0.0716,4.8857,0.0001,-0.0
124002,-106.812,3.9687,-0.0105,-0.0931,-89.1617,-0.0002,-0.1499,10.2446,-0.0,-0.0716,4.8857,0.0001,-0.0
124018,-106.812,3.9687,-0.0105,-0.0931,-89.1617,-0.0002,-0.1499,10.2446,-0.0,-0.0716,4.8857,0.0001,-0.0
124036,-106.8261,4.9273,-0.0105,-0.0871,-89.1617,-0.0001,-0.1562,10.6752,-0.0,-0.069,4.7115,0.0001,-0.0
124050,-106.8261,4.9273,-0.0105,-0.0871,-89.1617,-0.0001,-0.1562,10.6752,-0.0,-0.069,4.7115,0.0001,-0.0
124066,-106.8261,4.9273,-0.0105,-0.0871,-89.1617,-0.0001,-0.1562,10.6752,-0.0,-0.069,4.7115,0.0001,-0.0
124082,-106.8261,4.9273,-0.0105,-0.0871,-89.1617,-0.0001,-0.1562,10.6752,-0.0,-0.069,4.7115,0.0001,-0.0
124098,-106.8261,4.9273,-0.0105,-0.0871,-89.1617,-0.0001,-0.1562,10.6752,-0.0,-0.069,4.7115,0.0001,-0.0
124114,-106.8261,4.9273,-0.0105,-0.0871,-89.1617,-0.0001,-0.1562,10.6752,-0.0,-0.069,4.7115,0.0001,-0.0
124130,-106.8406,5.9224,-0.0106,-0.0817,-89.1618,-0.0,-0.162,11.0738,0.0,-0.0639,4.3658,0.0001,0.0001
124146,-106.8406,5.9224,-0.0106,-0.0817,-89.1618,-0.0,-0.162,11.0738,0.0,-0.0639,4.3658,0.0001,0.0001
124162,-106.8406,5.9224,-0.0106,-0.0817,-89.1618,-0.0,-0.162,11.0738,0.0,-0.0639,4.3658,0.0001,0.0001
124178,-106.8406,5.9224,-0.0106,-0.0817,-89.1618,-0.0,-0.162,11.0738,0.0,-0.0639,4.3658,0.0001,0.0001
124194,-106.8406,5.9224,-0.0106,-0.0817,-89.1618,-0.0,-0.162,11.0738,0.0,-0.0639,4.3658,0.0001,0.0001
124210,-106.8559,6.9657,-0.0106,-0.0762,-89.1617,-0.0,-0.1674,11.4443,0.0,-0.0586,4.0065,-0.0,0.0001
124226,-106.8559,6.9657,-0.0106,-0.0762,-89.1617,-0.0,-0.1674,11.4443,0.0,-0.0586,4.0065,-0.0,0.0001
124242,-106.8559,6.9657,-0.0106,-0.0762,-89.1617,-0.0,-0.1674,11.4443,0.0,-0.0586,4.0065,-0.0,0.0001
124258,-106.8559,6.9657,-0.0106,-0.0762,-89.1617,-0.0,-0.1674,11.4443,0.0,-0.0586,4.0065,-0.0,0.0001
124274,-106.8559,6.9657,-0.0106,-0.0762,-89.1617,-0.0,-0.1674,11.4443,0.0,-0.0586,4.0065,-0.0,0.0001
124290,-106.8559,6.9657,-0.0106,-0.0762,-89.1617,-0.0,-0.1674,11.4443,0.0,-0.0586,4.0065,-0.0,0.0001
124306,-106.8721,8.0736,-0.0106,-0.0706,-89.1618,-0.0,-0.1726,11.7947,0.0,-0.0539,3.6818,0.0,0.0003
124322,-106.8721,8.0736,-0.0106,-0.0706,-89.1618,-0.0,-0.1726,11.7947,0.0,-0.0539,3.6818,0.0,0.0003
124338,-106.8721,8.0736,-0.0106,-0.0706,-89.1618,-0.0,-0.1726,11.7947,0.0,-0.0539,3.6818,0.0,0.0003
124354,-106.8721,8.0736,-0.0106,-0.0706,-89.1618,-0.0,-0.1726,11.7947,0.0,-0.0539,3.6818,0.0,0.0003
124370,-106.8721,8.0736,-0.0106,-0.0706,-89.1618,-0.0,-0.1726,11.7947,0.0,-0.0539,3.6818,0.0,0.0003
124386,-106.8721,8.0736,-0.0106,-0.0706,-89.1618,-0.0,-0.1726,11.7947,0.0,-0.0539,3.6818,0.0,0.0003
124404,-106.8883,9.1834,-0.0107,-0.0656,-89.1618,0.0,-0.1772,12.1125,-0.0,-0.0502,3.4283,-0.0001,0.0003
124418,-106.8883,9.1834,-0.0107,-0.0656,-89.1618,0.0,-0.1772,12.1125,-0.0,-0.0502,3.4283,-0.0001,0.0003
124434,-106.8883,9.1834,-0.0107,-0.0656,-89.1618,0.0,-0.1772,12.1125,-0.0,-0.0502,3.4283,-0.0001,0.0003
124450,-106.8883,9.1834,-0.0107,-0.0656,-89.1618,0.0,-0.1772,12.1125,-0.0,-0.0502,3.4283,-0.0001,0.0003
124466,-106.8883,9.1834,-0.0107,-0.0656,-89.1618,0.0,-0.1772,12.1125,-0.0,-0.0502,3.4283,-0.0001,0.0003
124482,-106.8883,9.1834,-0.0107,-0.0656,-89.1618,0.0,-0.1772,12.1125,-0.0,-0.0502,3.4283,-0.0001,0.0003
124498,-106.9047,10.2996,-0.0107,-0.0613,-89.1618,0.0,-0.1815,12.4038,0.0,-0.0469,3.2031,0.0001,0.0002
124514,-106.9047,10.2996,-0.0107,-0.0613,-89.1618,0.0,-0.1815,12.4038,0.0,-0.0469,3.2031,0.0001,0.0002
124530,-106.9047,10.2996,-0.0107,-0.0613,-89.1618,0.0,-0.1815,12.4038,0.0,-0.0469,3.2031,0.0001,0.0002
124546,-106.9047,10.2996,-0.0107,-0.0613,-89.1618,0.0,-0.1815,12.4038,0.0,-0.0469,3.2031,0.0001,0.0002
124562,-106.9047,10.2996,-0.0107,-0.0613,-89.1618,0.0,-0.1815,12.4038,0.0,-0.0469,3.2031,0.0001,0.0002
124578,-106.9047,10.2996,-0.0107,-0.0613,-89.1618,0.0,-0.1815,12.4038,0.0,-0.0469,3.2031,0.0001,0.0002
124595,-106.9224,11.516,-0.0107,-0.057,-89.1618,0.0,-0.1857,12.6908,0.0,-0.0434,2.9641,0.0,0.0003
124610,-106.9224,11.516,-0.0107,-0.057,-89.1618,0.0,-0.1857,12.6908,0.0,-0.0434,2.9641,0.0,0.0003
124626,-106.9224,11.516,-0.0107,-0.057,-89.1618,0.0,-0.1857,12.6908,0.0,-0.0434,2.9641,0.0,0.0003
124658,-106.9224,11.516,-0.0107,-0.057,-89.1618,0.0,-0.1857,12.6908,0.0,-0.0434,2.9641,0.0,0.0003
124674,-106.9224,11.516,-0.0107,-0.057,-89.1618,0.0,-0.1857,12.6908,0.0,-0.0434,2.9641,0.0,0.0003
124690,-106.9641,12.6867,-0.0108,-0.0439,-90.307,0.1083,-0.9346,12.7358,0.0009,-8.1543,0.4903,0.0098,-27.2818
124706,-106.9641,12.6867,-0.0108,-0.0439,-90.307,0.1083,-0.9346,12.7358,0.0009,-8.1543,0.4903,0.0098,-27.2818
124722,-106.9641,12.6867,-0.0108,-0.0439,-90.307,0.1083,-0.9346,12.7358,0.0009,-8.1543,0.4903,0.0098,-27.2818
124738,-106.9641,12.6867,-0.0108,-0.0439,-90.307,0.1083,-0.9346,12.7358,0.0009,-8.1543,0.4903,0.0098,-27.2818
124754,-106.9641,12.6867,-0.0108,-0.0439,-90.307,0.1083,-0.9346,12.7358,0.0009,-8.1543,0.4903,0.0098,-27.2818
124770,-107.0615,13.8284,-0.0109,-0.012,-94.8861,0.2437,-1.825,12.5198,0.0012,-9.8371,-2.3872,0.0032,-71.5425
124786,-107.0615,13.8284,-0.0109,-0.012,-94.8861,0.2437,-1.825,12.5198,0.0012,-9.8371,-2.3872,0.0032,-71.5425
124802,-107.0615,13.8284,-0.0109,-0.012,-94.8861,0.2437,-1.825,12.5198,0.0012,-9.8371,-2.3872,0.0032,-71.5425
124818,-107.0615,13.8284,-0.0109,-0.012,-94.8861,0.2437,-1.825,12.5198,0.0012,-9.8371,-2.3872,0.0032,-71.5425
124834,-107.0615,13.8284,-0.0109,-0.012,-94.8861,0.2437,-1.825,12.5198,0.0012,-9.8371,-2.3872,0.0032,-71.5425
124850,-107.0615,13.8284,-0.0109,-0.012,-94.8861,0.2437,-1.825,12.5198,0.0012,-9.8371,-2.3872,0.0032,-71.5425
124866,-107.0615,13.8284,-0.0109,-0.012,-94.8861,0.2437,-1.825,12.5198,0.0012,-9.8371,-2.3872,0.0032,-71.5425
124882,-107.2023,15.0281,-0.0111,0.0209,-104.9088,0.2659,-2.3663,12.2358,0.0002,-5.519,-2.8954,-0.0105,-128.2468
124898,-107.2023,15.0281,-0.0111,0.0209,-104.9088,0.2659,-2.3663,12.2358,0.0002,-5.519,-2.8954,-0.0105,-128.2468
124914,-107.2023,15.0281,-0.0111,0.0209,-104.9088,0.2659,-2.3663,12.2358,0.0002,-5.519,-2.8954,-0.0105,-128.2468
124930,-107.2023,15.0281,-0.0111,0.0209,-104.9088,0.2659,-2.3663,12.2358,0.0002,-5.519,-2.8954,-0.0105,-128.2468
124946,-107.2023,15.0281,-0.0111,0.0209,-104.9088,0.2659,-2.3663,12.2358,0.0002,-5.519,-2.8954,-0.0105,-128.2468
124963,-107.3164,16.1051,-0.0111,0.0169,-119.4135,0.1517,-2.1605,12.1042,-0.001,2.2387,-1.4313,-0.0125,-181.2109
124978,-107.3164,16.1051,-0.0111,0.0169,-119.4135,0.1517,-2.1605,12.1042,-0.001,2.2387,-1.4313,-0.0125,-181.2109
124994,-107.3164,16.1051,-0.0111,0.0169,-119.4135,0.1517,-2.1605,12.1042,-0.001,2.2387,-1.4313,-0.0125,-181.2109
125010,-107.3164,16.1051,-0.0111,0.0169,-119.4135,0.1517,-2.1605,12.1042,-0.001,2.2387,-1.4313,-0.0125,-181.2109
125026,-107.3164,16.1051,-0.0111,0.0169,-119.4135,0.1517,-2.1605,12.1042,-0.001,2.2387,-1.4313,-0.0125,-181.2109
125042,-107.3164,16.1051,-0.0111,0.0169,-119.4135,0.1517,-2.1605,12.1042,-0.001,2.2387,-1.4313,-0.0125,-181.2109
125060,-107.3403,17.1751,-0.0106,-0.0637,-138.3741,-0.0996,-0.5986,12.1091,-0.0,16.3611,0.0513,0.0099,-208.9056
125074,-107.3403,17.1751,-0.0106,-0.0637,-138.3741,-0.0996,-0.5986,12.1091,-0.0,16.3611,0.0513,0.0099,-208.9056
125090,-107.3403,17.1751,-0.0106,-0.0637,-138.3741,-0.0996,-0.5986,12.1091,-0.0,16.3611,0.0513,0.0099,-208.9056
125106,-107.3403,17.1751,-0.0106,-0.0637,-138.3741,-0.0996,-0.5986,12.1091,-0.0,16.3611,0.0513,0.0099,-208.9056
125122,-107.3403,17.1751,-0.0106,-0.0637,-138.3741,-0.0996,-0.5986,12.1091,-0.0,16.3611,0.0513,0.0099,-208.9056
125138,-107.3403,17.1751,-0.0106,-0.0637,-138.3741,-0.0996,-0.5986,12.1091,-0.0,16.3611,0.0513,0.0099,-208.9056
125156,-107.2159,18.1261,-0.0097,-0.1738,-157.8235,-0.344,1.4916,11.6158,0.002,23.167,-5.4671,0.023,-219.9605
125170,-107.2159,18.1261,-0.0097,-0.1738,-157.8235,-0.344,1.4916,11.6158,0.002,23.167,-5.4671,0.023,-219.9605
125186,-107.2159,18.1261,-0.0097,-0.1738,-157.8235,-0.344,1.4916,11.6158,0.002,23.167,-5.4671,0.023,-219.9605
125202,-107.2159,18.1261,-0.0097,-0.1738,-157.8235,-0.344,1.4916,11.6158,0.002,23.167,-5.4671,0.023,-219.9605
125218,-107.2159,18.1261,-0.0097,-0.1738,-157.8235,-0.344,1.4916,11.6158,0.002,23.167,-5.4671,0.023,-219.9605
125234,-107.2159,18.1261,-0.0097,-0.1738,-157.8235,-0.344,1.4916,11.6158,0.002,23.167,-5.4671,0.023,-219.9605
125266,-106.9393,18.9904,-0.0088,-0.2656,-178.5454,-0.5336,3.5799,10.381,0.0018,22.6438,-13.3895,-0.0028,-228.8771
125282,-106.9393,18.9904,-0.0088,-0.2656,-178.5454,-0.5336,3.5799,10.381,0.0018,22.6438,-13.3895,-0.0028,-228.8771
125298,-106.9393,18.9904,-0.0088,-0.2656,-178.5454,-0.5336,3.5799,10.381,0.0018,22.6438,-13.3895,-0.0028,-228.8771
125314,-106.9393,18.9904,-0.0088,-0.2656,-178.5454,-0.5336,3.5799,10.381,0.0018,22.6438,-13.3895,-0.0028,-228.8771
125332,-106.5808,19.6785,-0.0084,-0.3007,160.4028,-0.7233,4.4669,8.1658,0.0019,9.7269,-24.2925,0.0011,-231.2276
125346,-106.5808,19.6785,-0.0084,-0.3007,160.4028,-0.7233,4.4669,8.1658,0.0019,9.7269,-24.2925,0.0011,-231.2276
125362,-106.5808,19.6785,-0.0084,-0.3007,160.4028,-0.7233,4.4669,8.1658,0.0019,9.7269,-24.2925,0.0011,-231.2276
125378,-106.5808,19.6785,-0.0084,-0.3007,160.4028,-0.7233,4.4669,8.1658,0.0019,9.7269,-24.2925,0.0011,-231.2276
125394,-106.5808,19.6785,-0.0084,-0.3007,160.4028,-0.7233,4.4669,8.1658,0.0019,9.7269,-24.2925,0.0011,-231.2276
125410,-106.5808,19.6785,-0.0084,-0.3007,160.4028,-0.7233,4.4669,8.1658,0.0019,9.7269,-24.2925,0.0011,-231.2276
125426,-106.3179,20.1974,-0.009,-0.213,141.9104,-0.8553,2.9348,6.8776,0.0042,-17.6165,-14.8115,0.0262,-194.3902
125442,-106.3179,20.1974,-0.009,-0.213,141.9104,-0.8553,2.9348,6.8776,0.0042,-17.6165,-14.8115,0.0262,-194.3902
125458,-106.3179,20.1974,-0.009,-0.213,141.9104,-0.8553,2.9348,6.8776,0.0042,-17.6165,-14.8115,0.0262,-194.3902
125474,-106.3179,20.1974,-0.009,-0.213,141.9104,-0.8553,2.9348,6.8776,0.0042,-17.6165,-14.8115,0.0262,-194.3902
125490,-106.3179,20.1974,-0.009,-0.213,141.9104,-0.8553,2.9348,6.8776,0.0042,-17.6165,-14.8115,0.0262,-194.3902
125508,-106.2482,20.6966,-0.01,-0.055,126.9134,-0.9066,0.8183,6.8441,0.0008,-24.7504,-0.391,-0.0392,-154.6508
125522,-106.2482,20.6966,-0.01,-0.055,126.9134,-0.9066,0.8183,6.8441,0.0008,-24.7504,-0.391,-0.0392,-154.6508
125538,-106.2482,20.6966,-0.01,-0.055,126.9134,-0.9066,0.8183,6.8441,0.0008,-24.7504,-0.391,-0.0392,-154.6508
125554,-106.2482,20.6966,-0.01,-0.055,126.9134,-0.9066,0.8183,6.8441,0.0008,-24.7504,-0.391,-0.0392,-154.6508
125570,-106.2482,20.6966,-0.01,-0.055,126.9134,-0.9066,0.8183,6.8441,0.0008,-24.7504,-0.391,-0.0392,-154.6508
125586,-106.2482,20.6966,-0.01,-0.055,126.9134,-0.9066,0.8183,6.8441,0.0008,-24.7504,-0.391,-0.0392,-154.6508
125602,-106.3312,21.3007,-0.0112,0.0965,115.9756,-0.7883,-0.7198,7.7722,-0.001,-17.5126,10.5673,-0.0207,-104.0195
125618,-106.3312,21.3007,-0.0112,0.0965,115.9756,-0.7883,-0.7198,7.7722,-0.001,-17.5126,10.5673,-0.0207,-104.0195
125634,-106.3312,21.3007,-0.0112,0.0965,115.9756,-0.7883,-0.7198,7.7722,-0.001,-17.5126,10.5673,-0.0207,-104.0195
125650,-106.3312,21.3007,-0.0112,0.0965,115.9756,-0.7883,-0.7198,7.7722,-0.001,-17.5126,10.5673,-0.0207,-104.0195
125666,-106.3312,21.3007,-0.0112,0.0965,115.9756,-0.7883,-0.7198,7.7722,-0.001,-17.5126,10.5673,-0.0207,-104.0195
125683,-106.4457,21.9847,-0.0118,0.157,107.7837,-0.4646,-0.5305,8.5724,-0.0027,2.2168,9.3709,-0.0196,-93.4992
125698,-106.4457,21.9847,-0.0118,0.157,107.7837,-0.4646,-0.5305,8.5724,-0.0027,2.2168,9.3709,-0.0196,-93.4992
125714,-106.4457,21.9847,-0.0118,0.157,107.7837,-0.4646,-0.5305,8.5724,-0.0027,2.2168,9.3709,-0.0196,-93.4992
125730,-106.4457,21.9847,-0.0118,0.157,107.7837,-0.4646,-0.5305,8.5724,-0.0027,2.2168,9.3709,-0.0196,-93.4992
125746,-106.4457,21.9847,-0.0118,0.157,107.7837,-0.4646,-0.5305,8.5724,-0.0027,2.2168,9.3709,-0.0196,-93.4992
125778,-106.506,22.7516,-0.0121,0.1554,99.7032,-0.106,0.373,9.0742,-0.0033,10.2763,5.7088,-0.0072,-91.135
125794,-106.506,22.7516,-0.0121,0.1554,99.7032,-0.106,0.373,9.0742,-0.0033,10.2763,5.7088,-0.0072,-91.135
125810,-106.506,22.7516,-0.0121,0.1554,99.7032,-0.106,0.373,9.0742,-0.0033,10.2763,5.7088,-0.0072,-91.135
125826,-106.506,22.7516,-0.0121,0.1554,99.7032,-0.106,0.373,9.0742,-0.0033,10.2763,5.7088,-0.0072,-91.135
125842,-106.506,22.7516,-0.0121,0.1554,99.7032,-0.106,0.373,9.0742,-0.0033,10.2763,5.7088,-0.0072,-91.135
125860,-106.512,23.6192,-0.0122,0.1394,92.8484,-0.0011,0.2636,9.5627,-0.0014,-1.1729,5.2368,0.0201,-48.8942
125874,-106.512,23.6192,-0.0122,0.1394,92.8484,-0.0011,0.2636,9.5627,-0.0014,-1.1729,5.2368,0.0201,-48.8942
125890,-106.512,23.6192,-0.0122,0.1394,92.8484,-0.0011,0.2636,9.5627,-0.0014,-1.1729,5.2368,0.0201,-48.8942
125906,-106.512,23.6192,-0.0122,0.1394,92.8484,-0.0011,0.2636,9.5627,-0.0014,-1.1729,5.2368,0.0201,-48.8942
125922,-106.512,23.6192,-0.0122,0.1394,92.8484,-0.0011,0.2636,9.5627,-0.0014,-1.1729,5.2368,0.0201,-48.8942
125938,-106.512,23.6192,-0.0122,0.1394,92.8484,-0.0011,0.2636,9.5627,-0.0014,-1.1729,5.2368,0.0201,-48.8942
125956,-106.5276,24.5227,-0.012,0.1055,90.4365,-0.0663,-0.0521,9.7696,0.0005,-3.3828,2.2182,0.0206,-12.0545
125970,-106.5276,24.5227,-0.012,0.1055,90.4365,-0.0663,-0.0521,9.7696,0.0005,-3.3828,2.2182,0.0206,-12.0545
125986,-106.5276,24.5227,-0.012,0.1055,90.4365,-0.0663,-0.0521,9.7696,0.0005,-3.3828,2.2182,0.0206,-12.0545
126002,-106.5276,24.5227,-0.012,0.1055,90.4365,-0.0663,-0.0521,9.7696,0.0005,-3.3828,2.2182,0.0206,-12.0545
126018,-106.5276,24.5227,-0.012,0.1055,90.4365,-0.0663,-0.0521,9.7696,0.0005,-3.3828,2.2182,0.0206,-12.0545
126034,-106.5276,24.5227,-0.012,0.1055,90.4365,-0.0663,-0.0521,9.7696,0.0005,-3.3828,2.2182,0.0206,-12.0545
126051,-106.5358,25.4577,-0.0117,0.0715,89.8025,-0.0418,-0.0173,9.8765,0.0001,0.3652,1.1235,-0.0045,-2.6865
126066,-106.5358,25.4577,-0.0117,0.0715,89.8025,-0.0418,-0.0173,9.8765,0.0001,0.3652,1.1235,-0.0045,-2.6865
126082,-106.5358,25.4577,-0.0117,0.0715,89.8025,-0.0418,-0.0173,9.8765,0.0001,0.3652,1.1235,-0.0045,-2.6865
126098,-106.5358,25.4577,-0.0117,0.0715,89.8025,-0.0418,-0.0173,9.8765,0.0001,0.3652,1.1235,-0.0045,-2.6865
126114,-106.5358,25.4577,-0.0117,0.0715,89.8025,-0.0418,-0.0173,9.8765,0.0001,0.3652,1.1235,-0.0045,-2.6865
126130,-106.5358,25.4577,-0.0117,0.0715,89.8025,-0.0418,-0.0173,9.8765,0.0001,0.3652,1.1235,-0.0045,-2.6865
126148,-106.5359,26.3977,-0.0115,0.0472,89.6291,-0.0154,0.0306,9.9472,-0.0001,0.5058,0.7457,-0.0016,-0.2549
126162,-106.5359,26.3977,-0.0115,0.0472,89.6291,-0.0154,0.0306,9.9472,-0.0001,0.5058,0.7457,-0.0016,-0.2549
126178,-106.5359,26.3977,-0.0115,0.0472,89.6291,-0.0154,0.0306,9.9472,-0.0001,0.5058,0.7457,-0.0016,-0.2549
126194,-106.5359,26.3977,-0.0115,0.0472,89.6291,-0.0154,0.0306,9.9472,-0.0001,0.5058,0.7457,-0.0016,-0.2549
126210,-106.5359,26.3977,-0.0115,0.0472,89.6291,-0.0154,0.0306,9.9472,-0.0001,0.5058,0.7457,-0.0016,-0.2549
126226,-106.5359,26.3977,-0.0115,0.0472,89.6291,-0.0154,0.0306,9.9472,-0.0001,0.5058,0.7457,-0.0016,-0.2549
126242,-106.532,27.293,-0.0114,0.0317,89.5727,-0.0031,0.0562,9.9909,-0.0,0.2847,0.4869,0.0005,-1.1286
126258,-106.532,27.293,-0.0114,0.0317,89.5727,-0.0031,0.0562,9.9909,-0.0,0.2847,0.4869,0.0005,-1.1286
126274,-106.532,27.293,-0.0114,0.0317,89.5727,-0.0031,0.0562,9.9909,-0.0,0.2847,0.4869,0.0005,-1.1286
126290,-106.532,27.293,-0.0114,0.0317,89.5727,-0.0031,0.0562,9.9909,-0.0,0.2847,0.4869,0.0005,-1.1286
126306,-106.532,27.293,-0.0114,0.0317,89.5727,-0.0031,0.0562,9.9909,-0.0,0.2847,0.4869,0.0005,-1.1286
126322,-106.5262,28.2438,-0.0111,0.0339,89.5544,-0.0283,0.0717,10.051,-0.0047,0.1636,0.6338,-0.0487,-0.252
126338,-106.5262,28.2438,-0.0111,0.0339,89.5544,-0.0283,0.0717,10.051,-0.0047,0.1636,0.6338,-0.0487,-0.252
126354,-106.5262,28.2438,-0.0111,0.0339,89.5544,-0.0283,0.0717,10.051,-0.0047,0.1636,0.6338,-0.0487,-0.252
126370,-106.5262,28.2438,-0.0111,0.0339,89.5544,-0.0283,0.0717,10.051,-0.0047,0.1636,0.6338,-0.0487,-0.252
126386,-106.5262,28.2438,-0.0111,0.0339,89.5544,-0.0283,0.0717,10.051,-0.0047,0.1636,0.6338,-0.0487,-0.252
126402,-106.5262,28.2438,-0.0111,0.0339,89.5544,-0.0283,0.0717,10.051,-0.0047,0.1636,0.6338,-0.0487,-0.252
126420,-106.5192,29.1718,-0.0112,0.0196,89.5504,0.0002,0.0753,10.1166,-0.0014,0.0389,0.7133,0.0352,-0.6088
126434,-106.5192,29.1718,-0.0112,0.0196,89.5504,0.0002,0.0753,10.1166,-0.0014,0.0389,0.7133,0.0352,-0.6088
126450,-106.5192,29.1718,-0.0112,0.0196,89.5504,0.0002,0.0753,10.1166,-0.0014,0.0389,0.7133,0.0352,-0.6088
126466,-106.5192,29.1718,-0.0112,0.0196,89.5504,0.0002,0.0753,10.1166,-0.0014,0.0389,0.7133,0.0352,-0.6088
126482,-106.5192,29.1718,-0.0112,0.0196,89.5504,0.0002,0.0753,10.1166,-0.0014,0.0389,0.7133,0.0352,-0.6088
126498,-106.5192,29.1718,-0.0112,0.0196,89.5504,0.0002,0.0753,10.1166,-0.0014,0.0389,0.7133,0.0352,-0.6088
126516,-106.5121,30.1112,-0.0113,0.0146,89.5508,0.0016,0.078,10.1631,-0.0003,0.029,0.5021,0.0124,-0.6222
126530,-106.5121,30.1112,-0.0113,0.0146,89.5508,0.0016,0.078,10.1631,-0.0003,0.029,0.5021,0.0124,-0.6222
126546,-106.5121,30.1112,-0.0113,0.0146,89.5508,0.0016,0.078,10.1631,-0.0003,0.029,0.5021,0.0124,-0.6222
126562,-106.5121,30.1112,-0.0113,0.0146,89.5508,0.0016,0.078,10.1631,-0.0003,0.029,0.5021,0.0124,-0.6222
126578,-106.5121,30.1112,-0.0113,0.0146,89.5508,0.0016,0.078,10.1631,-0.0003,0.029,0.5021,0.0124,-0.6222
126594,-106.5121,30.1112,-0.0113,0.0146,89.5508,0.0016,0.078,10.1631,-0.0003,0.029,0.5021,0.0124,-0.6222
126610,-106.5048,31.0484,-0.0111,0.0058,89.5565,-0.0029,0.0792,10.2095,-0.0062,0.0139,0.5043,-0.0645,-0.5982
126626,-106.5048,31.0484,-0.0111,0.0058,89.5565,-0.0029,0.0792,10.2095,-0.0062,0.0139,0.5043,-0.0645,-0.5982
126642,-106.5048,31.0484,-0.0111,0.0058,89.5565,-0.0029,0.0792,10.2095,-0.0062,0.0139,0.5043,-0.0645,-0.5982
126658,-106.5048,31.0484,-0.0111,0.0058,89.5565,-0.0029,0.0792,10.2095,-0.0062,0.0139,0.5043,-0.0645,-0.5982
126674,-106.5048,31.0484,-0.0111,0.0058,89.5565,-0.0029,0.0792,10.2095,-0.0062,0.0139,0.5043,-0.0645,-0.5982
126690,-106.5048,31.0484,-0.0111,0.0058,89.5565,-0.0029,0.0792,10.2095,-0.0062,0.0139,0.5043,-0.0645,-0.5982
126708,-106.497,32.0477,-0.0114,0.0196,89.5648,0.011,0.0775,10.2416,-0.0004,-0.0174,0.3292,0.0591,-0.6797
126722,-106.497,32.0477,-0.0114,0.0196,89.5648,0.011,0.0775,10.2416,-0.0004,-0.0174,0.3292,0.0591,-0.6797
126738,-106.497,32.0477,-0.0114,0.0196,89.5648,0.011,0.0775,10.2416,-0.0004,-0.0174,0.3292,0.0591,-0.6797
126754,-106.497,32.0477,-0.0114,0.0196,89.5648,0.011,0.0775,10.2416,-0.0004,-0.0174,0.3292,0.0591,-0.6797
126770,-106.497,32.0477,-0.0114,0.0196,89.5648,0.011,0.0775,10.2416,-0.0004,-0.0174,0.3292,0.0591,-0.6797
126786,-106.497,32.0477,-0.0114,0.0196,89.5648,0.011,0.0775,10.2416,-0.0004,-0.0174,0.3292,0.0591,-0.6797
126802,-106.4899,32.9844,-0.0114,0.0167,89.5676,0.0072,0.0777,10.2921,0.0004,0.0019,0.553,0.0095,-0.5545
126818,-106.4899,32.9844,-0.0114,0.0167,89.5676,0.0072,0.0777,10.2921,0.0004,0.0019,0.553,0.0095,-0.5545
126834,-106.4899,32.9844,-0.0114,0.0167,89.5676,0.0072,0.0777,10.2921,0.0004,0.0019,0.553,0.0095,-0.5545
126850,-106.4899,32.9844,-0.0114,0.0167,89.5676,0.0072,0.0777,10.2921,0.0004,0.0019,0.553,0.0095,-0.5545
126866,-106.4899,32.9844,-0.0114,0.0167,89.5676,0.0072,0.0777,10.2921,0.0004,0.0019,0.553,0.0095,-0.5545
126884,-106.4828,33.9252,-0.0113,0.0137,89.5683,0.0043,0.0778,10.3384,0.0004,0.001,0.5087,-0.0004,-0.5548
126898,-106.4828,33.9252,-0.0113,0.0137,89.5683,0.0043,0.0778,10.3384,0.0004,0.001,0.5087,-0.0004,-0.5548
126914,-106.4828,33.9252,-0.0113,0.0137,89.5683,0.0043,0.0778,10.3384,0.0004,0.001,0.5087,-0.0004,-0.5548
126930,-106.4828,33.9252,-0.0113,0.0137,89.5683,0.0043,0.0778,10.3384,0.0004,0.001,0.5087,-0.0004,-0.5548
126946,-106.4828,33.9252,-0.0113,0.0137,89.5683,0.0043,0.0778,10.3384,0.0004,0.001,0.5087,-0.0004,-0.5548
