timestamp,x,y,z,pitch,yaw,roll,vx,vy,vz,ax,ay,az,yaw_rate
228847,-106.6867,-4.8475,-0.0545,0.0,-89.3578,0.0,0.0,0.0,0.2268,-0.0,0.0,0.2327,-0.0
228863,-106.6867,-4.8475,-0.0545,0.0,-89.3578,0.0,0.0,0.0,0.2268,-0.0,0.0,0.2327,-0.0
228879,-106.6867,-4.8475,-0.0545,0.0,-89.3578,0.0,0.0,0.0,0.2268,-0.0,0.0,0.2327,-0.0
228895,-106.6867,-4.8475,-0.0545,0.0,-89.3578,0.0,0.0,0.0,0.2268,-0.0,0.0,0.2327,-0.0
228911,-106.6867,-4.8475,-0.0545,0.0,-89.3578,0.0,0.0,0.0,0.2268,-0.0,0.0,0.2327,-0.0
228927,-106.6867,-4.8475,-0.0545,0.0,-89.3578,0.0,0.0,0.0,0.2268,-0.0,0.0,0.2327,-0.0
228943,-106.6867,-4.8475,-0.0545,0.0,-89.3578,0.0,0.0,0.0,0.2268,-0.0,0.0,0.2327,-0.0
228959,-106.6867,-4.8475,-0.0545,0.0,-89.3578,0.0,0.0,0.0,0.2268,-0.0,0.0,0.2327,-0.0
228975,-106.6867,-4.8456,-0.0353,-0.0016,-89.3578,-0.0,-0.0005,0.0405,0.1579,-0.0036,0.3198,-0.5438,-0.0001
228991,-106.6867,-4.8456,-0.0353,-0.0016,-89.3578,-0.0,-0.0005,0.0405,0.1579,-0.0036,0.3198,-0.5438,-0.0001
229007,-106.6867,-4.8456,-0.0353,-0.0016,-89.3578,-0.0,-0.0005,0.0405,0.1579,-0.0036,0.3198,-0.5438,-0.0001
229023,-106.6867,-4.8456,-0.0353,-0.0016,-89.3578,-0.0,-0.0005,0.0405,0.1579,-0.0036,0.3198,-0.5438,-0.0001
229039,-106.6867,-4.8456,-0.0353,-0.0016,-89.3578,-0.0,-0.0005,0.0405,0.1579,-0.0036,0.3198,-0.5438,-0.0001
229055,-106.6867,-4.8456,-0.0353,-0.0016,-89.3578,-0.0,-0.0005,0.0405,0.1579,-0.0036,0.3198,-0.5438,-0.0001
229071,-106.6867,-4.8456,-0.0353,-0.0016,-89.3578,-0.0,-0.0005,0.0405,0.1579,-0.0036,0.3198,-0.5438,-0.0001
229087,-106.6868,-4.8398,-0.0235,-0.0067,-89.3578,0.0,-0.0022,0.1969,0.0892,-0.0147,1.3069,-0.5747,0.0028
229103,-106.6868,-4.8398,-0.0235,-0.0067,-89.3578,0.0,-0.0022,0.1969,0.0892,-0.0147,1.3069,-0.5747,0.0028
229119,-106.6868,-4.8398,-0.0235,-0.0067,-89.3578,0.0,-0.0022,0.1969,0.0892,-0.0147,1.3069,-0.5747,0.0028
229135,-106.6868,-4.8398,-0.0235,-0.0067,-89.3578,0.0,-0.0022,0.1969,0.0892,-0.0147,1.3069,-0.5747,0.0028
229151,-106.6868,-4.8398,-0.0235,-0.0067,-89.3578,0.0,-0.0022,0.1969,0.0892,-0.0147,1.3069,-0.5747,0.0028
229167,-106.6868,-4.8398,-0.0235,-0.0067,-89.3578,0.0,-0.0022,0.1969,0.0892,-0.0147,1.3069,-0.5747,0.0028
229191,-106.6868,-4.8398,-0.0235,-0.0067,-89.3578,0.0,-0.0022,0.1969,0.0892,-0.0147,1.3069,-0.5747,0.0028
229199,-106.6873,-4.8002,-0.017,-0.0286,-89.3507,-0.0001,-0.0053,0.565,0.0457,-0.0278,3.3105,-0.3912,0.8995
229215,-106.6873,-4.8002,-0.017,-0.0286,-89.3507,-0.0001,-0.0053,0.565,0.0457,-0.0278,3.3105,-0.3912,0.8995
229231,-106.6873,-4.8002,-0.017,-0.0286,-89.3507,-0.0001,-0.0053,0.565,0.0457,-0.0278,3.3105,-0.3912,0.8995
229247,-106.6873,-4.8002,-0.017,-0.0286,-89.3507,-0.0001,-0.0053,0.565,0.0457,-0.0278,3.3105,-0.3912,0.8995
229263,-106.6873,-4.8002,-0.017,-0.0286,-89.3507,-0.0001,-0.0053,0.565,0.0457,-0.0278,3.3105,-0.3912,0.8995
229279,-106.6873,-4.8002,-0.017,-0.0286,-89.3507,-0.0001,-0.0053,0.565,0.0457,-0.0278,3.3105,-0.3912,0.8995
229295,-106.6873,-4.8002,-0.017,-0.0286,-89.3507,-0.0001,-0.0053,0.565,0.0457,-0.0278,3.3105,-0.3912,0.8995
229311,-106.6883,-4.719,-0.0137,-0.0473,-89.3444,0.0,-0.0104,0.9133,0.0322,-0.0527,3.5863,-0.1384,0.4332
229327,-106.6883,-4.719,-0.0137,-0.0473,-89.3444,0.0,-0.0104,0.9133,0.0322,-0.0527,3.5863,-0.1384,0.4332
229343,-106.6883,-4.719,-0.0137,-0.0473,-89.3444,0.0,-0.0104,0.9133,0.0322,-0.0527,3.5863,-0.1384,0.4332
229359,-106.6883,-4.719,-0.0137,-0.0473,-89.3444,0.0,-0.0104,0.9133,0.0322,-0.0527,3.5863,-0.1384,0.4332
229375,-106.6883,-4.719,-0.0137,-0.0473,-89.3444,0.0,-0.0104,0.9133,0.0322,-0.0527,3.5863,-0.1384,0.4332
229401,-106.6897,-4.6083,-0.0119,-0.0481,-89.3364,0.0004,-0.0141,1.1357,0.0122,-0.0348,2.1128,-0.1901,-1.3242
229407,-106.6897,-4.6083,-0.0119,-0.0481,-89.3364,0.0004,-0.0141,1.1357,0.0122,-0.0348,2.1128,-0.1901,-1.3242
229423,-106.6897,-4.6083,-0.0119,-0.0481,-89.3364,0.0004,-0.0141,1.1357,0.0122,-0.0348,2.1128,-0.1901,-1.3242
229439,-106.6897,-4.6083,-0.0119,-0.0481,-89.3364,0.0004,-0.0141,1.1357,0.0122,-0.0348,2.1128,-0.1901,-1.3242
229455,-106.6897,-4.6083,-0.0119,-0.0481,-89.3364,0.0004,-0.0141,1.1357,0.0122,-0.0348,2.1128,-0.1901,-1.3242
229471,-106.6897,-4.6083,-0.0119,-0.0481,-89.3364,0.0004,-0.0141,1.1357,0.0122,-0.0348,2.1128,-0.1901,-1.3242
229487,-106.6897,-4.6083,-0.0119,-0.0481,-89.3364,0.0004,-0.0141,1.1357,0.0122,-0.0348,2.1128,-0.1901,-1.3242
229503,-106.6897,-4.6083,-0.0119,-0.0481,-89.3364,0.0004,-0.0141,1.1357,0.0122,-0.0348,2.1128,-0.1901,-1.3242
229519,-106.6897,-4.6083,-0.0119,-0.0481,-89.3364,0.0004,-0.0141,1.1357,0.0122,-0.0348,2.1128,-0.1901,-1.3242
229535,-106.691,-4.4834,-0.0113,-0.0354,-89.3524,-0.0003,-0.0143,1.289,0.004,-0.0018,1.3092,-0.0704,-0.7401
229551,-106.691,-4.4834,-0.0113,-0.0354,-89.3524,-0.0003,-0.0143,1.289,0.004,-0.0018,1.3092,-0.0704,-0.7401
229567,-106.691,-4.4834,-0.0113,-0.0354,-89.3524,-0.0003,-0.0143,1.289,0.004,-0.0018,1.3092,-0.0704,-0.7401
229583,-106.691,-4.4834,-0.0113,-0.0354,-89.3524,-0.0003,-0.0143,1.289,0.004,-0.0018,1.3092,-0.0704,-0.7401
229599,-106.691,-4.4834,-0.0113,-0.0354,-89.3524,-0.0003,-0.0143,1.289,0.004,-0.0018,1.3092,-0.0704,-0.7401
229615,-106.691,-4.4834,-0.0113,-0.0354,-89.3524,-0.0003,-0.0143,1.289,0.004,-0.0018,1.3092,-0.0704,-0.7401
229631,-106.691,-4.4834,-0.0113,-0.0354,-89.3524,-0.0003,-0.0143,1.289,0.004,-0.0018,1.3092,-0.0704,-0.7401
229647,-106.6923,-4.3453,-0.0111,-0.031,-89.3765,0.0,-0.0177,1.4731,0.0014,-0.0279,1.4875,-0.0206,-0.5999
229663,-106.6923,-4.3453,-0.0111,-0.031,-89.3765,0.0,-0.0177,1.4731,0.0014,-0.0279,1.4875,-0.0206,-0.5999
229679,-106.6923,-4.3453,-0.0111,-0.031,-89.3765,0.0,-0.0177,1.4731,0.0014,-0.0279,1.4875,-0.0206,-0.5999
229695,-106.6923,-4.3453,-0.0111,-0.031,-89.3765,0.0,-0.0177,1.4731,0.0014,-0.0279,1.4875,-0.0206,-0.5999
229711,-106.6923,-4.3453,-0.0111,-0.031,-89.3765,0.0,-0.0177,1.4731,0.0014,-0.0279,1.4875,-0.0206,-0.5999
229727,-106.6923,-4.3453,-0.0111,-0.031,-89.3765,0.0,-0.0177,1.4731,0.0014,-0.0279,1.4875,-0.0206,-0.5999
229746,-106.6938,-4.1745,-0.0109,-0.0458,-89.4167,-0.0001,-0.0264,1.935,0.0006,-0.0801,4.296,-0.0081,2.0186
229759,-106.6938,-4.1745,-0.0109,-0.0458,-89.4167,-0.0001,-0.0264,1.935,0.0006,-0.0801,4.296,-0.0081,2.0186
229775,-106.6938,-4.1745,-0.0109,-0.0458,-89.4167,-0.0001,-0.0264,1.935,0.0006,-0.0801,4.296,-0.0081,2.0186
229791,-106.6938,-4.1745,-0.0109,-0.0458,-89.4167,-0.0001,-0.0264,1.935,0.0006,-0.0801,4.296,-0.0081,2.0186
229807,-106.6938,-4.1745,-0.0109,-0.0458,-89.4167,-0.0001,-0.0264,1.935,0.0006,-0.0801,4.296,-0.0081,2.0186
229823,-106.6938,-4.1745,-0.0109,-0.0458,-89.4167,-0.0001,-0.0264,1.935,0.0006,-0.0801,4.296,-0.0081,2.0186
229839,-106.6938,-4.1745,-0.0109,-0.0458,-89.4167,-0.0001,-0.0264,1.935,0.0006,-0.0801,4.296,-0.0081,2.0186
229858,-106.697,-3.9421,-0.0107,-0.0699,-89.3929,0.0006,-0.0319,2.652,0.0002,-0.0507,6.5454,-0.0029,0.4782
229871,-106.697,-3.9421,-0.0107,-0.0699,-89.3929,0.0006,-0.0319,2.652,0.0002,-0.0507,6.5454,-0.0029,0.4782
229887,-106.697,-3.9421,-0.0107,-0.0699,-89.3929,0.0006,-0.0319,2.652,0.0002,-0.0507,6.5454,-0.0029,0.4782
229903,-106.697,-3.9421,-0.0107,-0.0699,-89.3929,0.0006,-0.0319,2.652,0.0002,-0.0507,6.5454,-0.0029,0.4782
229919,-106.697,-3.9421,-0.0107,-0.0699,-89.3929,0.0006,-0.0319,2.652,0.0002,-0.0507,6.5454,-0.0029,0.4782
229935,-106.697,-3.9421,-0.0107,-0.0699,-89.3929,0.0006,-0.0319,2.652,0.0002,-0.0507,6.5454,-0.0029,0.4782
229951,-106.697,-3.9421,-0.0107,-0.0699,-89.3929,0.0006,-0.0319,2.652,0.0002,-0.0507,6.5454,-0.0029,0.4782
229975,-106.697,-3.9421,-0.0107,-0.0699,-89.3929,0.0006,-0.0319,2.652,0.0002,-0.0507,6.5454,-0.0029,0.4782
229983,-106.7008,-3.6557,-0.0106,-0.0814,-89.341,0.0007,-0.0391,3.2109,0.0001,-0.0584,4.5672,-0.0012,0.046
229999,-106.7008,-3.6557,-0.0106,-0.0814,-89.341,0.0007,-0.0391,3.2109,0.0001,-0.0584,4.5672,-0.0012,0.046
230015,-106.7008,-3.6557,-0.0106,-0.0814,-89.341,0.0007,-0.0391,3.2109,0.0001,-0.0584,4.5672,-0.0012,0.046
230031,-106.7008,-3.6557,-0.0106,-0.0814,-89.341,0.0007,-0.0391,3.2109,0.0001,-0.0584,4.5672,-0.0012,0.046
230047,-106.7008,-3.6557,-0.0106,-0.0814,-89.341,0.0007,-0.0391,3.2109,0.0001,-0.0584,4.5672,-0.0012,0.046
230063,-106.7008,-3.6557,-0.0106,-0.0814,-89.341,0.0007,-0.0391,3.2109,0.0001,-0.0584,4.5672,-0.0012,0.046
230086,-106.706,-3.3096,-0.0105,-0.0873,-89.2519,0.0015,-0.0493,3.7366,0.0001,-0.0988,5.0572,-0.0003,3.041
230095,-106.706,-3.3096,-0.0105,-0.0873,-89.2519,0.0015,-0.0493,3.7366,0.0001,-0.0988,5.0572,-0.0003,3.041
230111,-106.706,-3.3096,-0.0105,-0.0873,-89.2519,0.0015,-0.0493,3.7366,0.0001,-0.0988,5.0572,-0.0003,3.041
230127,-106.706,-3.3096,-0.0105,-0.0873,-89.2519,0.0015,-0.0493,3.7366,0.0001,-0.0988,5.0572,-0.0003,3.041
230143,-106.706,-3.3096,-0.0105,-0.0873,-89.2519,0.0015,-0.0493,3.7366,0.0001,-0.0988,5.0572,-0.0003,3.041
230159,-106.706,-3.3096,-0.0105,-0.0873,-89.2519,0.0015,-0.0493,3.7366,0.0001,-0.0988,5.0572,-0.0003,3.041
230175,-106.706,-3.3096,-0.0105,-0.0873,-89.2519,0.0015,-0.0493,3.7366,0.0001,-0.0988,5.0572,-0.0003,3.041
230195,-106.7129,-2.9156,-0.0105,-0.085,-89.0996,0.0027,-0.0655,4.2494,0.0,-0.1478,4.6967,-0.0003,0.0193
230207,-106.7129,-2.9156,-0.0105,-0.085,-89.0996,0.0027,-0.0655,4.2494,0.0,-0.1478,4.6967,-0.0003,0.0193
230223,-106.7129,-2.9156,-0.0105,-0.085,-89.0996,0.0027,-0.0655,4.2494,0.0,-0.1478,4.6967,-0.0003,0.0193
230239,-106.7129,-2.9156,-0.0105,-0.085,-89.0996,0.0027,-0.0655,4.2494,0.0,-0.1478,4.6967,-0.0003,0.0193
230255,-106.7129,-2.9156,-0.0105,-0.085,-89.0996,0.0027,-0.0655,4.2494,0.0,-0.1478,4.6967,-0.0003,0.0193
230271,-106.7129,-2.9156,-0.0105,-0.085,-89.0996,0.0027,-0.0655,4.2494,0.0,-0.1478,4.6967,-0.0003,0.0193
230287,-106.7129,-2.9156,-0.0105,-0.085,-89.0996,0.0027,-0.0655,4.2494,0.0,-0.1478,4.6967,-0.0003,0.0193
230306,-106.7202,-2.4645,-0.0105,-0.0865,-89.0686,0.0023,-0.0758,4.7846,0.0,-0.0885,4.5891,-0.0003,1.6399
230319,-106.7202,-2.4645,-0.0105,-0.0865,-89.0686,0.0023,-0.0758,4.7846,0.0,-0.0885,4.5891,-0.0003,1.6399
230335,-106.7202,-2.4645,-0.0105,-0.0865,-89.0686,0.0023,-0.0758,4.7846,0.0,-0.0885,4.5891,-0.0003,1.6399
230351,-106.7202,-2.4645,-0.0105,-0.0865,-89.0686,0.0023,-0.0758,4.7846,0.0,-0.0885,4.5891,-0.0003,1.6399
230367,-106.7202,-2.4645,-0.0105,-0.0865,-89.0686,0.0023,-0.0758,4.7846,0.0,-0.0885,4.5891,-0.0003,1.6399
230383,-106.7202,-2.4645,-0.0105,-0.0865,-89.0686,0.0023,-0.0758,4.7846,0.0,-0.0885,4.5891,-0.0003,1.6399
230399,-106.7202,-2.4645,-0.0105,-0.0865,-89.0686,0.0023,-0.0758,4.7846,0.0,-0.0885,4.5891,-0.0003,1.6399
230415,-106.728,-1.9636,-0.0105,-0.0853,-89.1036,0.0012,-0.0847,5.305,-0.0,-0.0888,5.173,-0.0003,-2.1005
230431,-106.728,-1.9636,-0.0105,-0.0853,-89.1036,0.0012,-0.0847,5.305,-0.0,-0.0888,5.173,-0.0003,-2.1005
230447,-106.728,-1.9636,-0.0105,-0.0853,-89.1036,0.0012,-0.0847,5.305,-0.0,-0.0888,5.173,-0.0003,-2.1005
230463,-106.728,-1.9636,-0.0105,-0.0853,-89.1036,0.0012,-0.0847,5.305,-0.0,-0.0888,5.173,-0.0003,-2.1005
230479,-106.728,-1.9636,-0.0105,-0.0853,-89.1036,0.0012,-0.0847,5.305,-0.0,-0.0888,5.173,-0.0003,-2.1005
230495,-106.728,-1.9636,-0.0105,-0.0853,-89.1036,0.0012,-0.0847,5.305,-0.0,-0.0888,5.173,-0.0003,-2.1005
230519,-106.728,-1.9636,-0.0105,-0.0853,-89.1036,0.0012,-0.0847,5.305,-0.0,-0.0888,5.173,-0.0003,-2.1005
230527,-106.7368,-1.4037,-0.0105,-0.0917,-89.0977,0.0004,-0.092,5.9368,-0.0,-0.0646,5.6194,0.0002,1.7919
230543,-106.7368,-1.4037,-0.0105,-0.0917,-89.0977,0.0004,-0.092,5.9368,-0.0,-0.0646,5.6194,0.0002,1.7919
230559,-106.7368,-1.4037,-0.0105,-0.0917,-89.0977,0.0004,-0.092,5.9368,-0.0,-0.0646,5.6194,0.0002,1.7919
230575,-106.7368,-1.4037,-0.0105,-0.0917,-89.0977,0.0004,-0.092,5.9368,-0.0,-0.0646,5.6194,0.0002,1.7919
230591,-106.7368,-1.4037,-0.0105,-0.0917,-89.0977,0.0004,-0.092,5.9368,-0.0,-0.0646,5.6194,0.0002,1.7919
230607,-106.7368,-1.4037,-0.0105,-0.0917,-89.0977,0.0004,-0.092,5.9368,-0.0,-0.0646,5.6194,0.0002,1.7919
230628,-106.7368,-1.4037,-0.0105,-0.0917,-89.0977,0.0004,-0.092,5.9368,-0.0,-0.0646,5.6194,0.0002,1.7919
230639,-106.7465,-0.7751,-0.0104,-0.102,-89.1155,0.0002,-0.1042,6.6532,0.0,-0.1175,6.8624,0.0001,-1.4924
230655,-106.7465,-0.7751,-0.0104,-0.102,-89.1155,0.0002,-0.1042,6.6532,0.0,-0.1175,6.8624,0.0001,-1.4924
230671,-106.7465,-0.7751,-0.0104,-0.102,-89.1155,0.0002,-0.1042,6.6532,0.0,-0.1175,6.8624,0.0001,-1.4924
230687,-106.7465,-0.7751,-0.0104,-0.102,-89.1155,0.0002,-0.1042,6.6532,0.0,-0.1175,6.8624,0.0001,-1.4924
230703,-106.7465,-0.7751,-0.0104,-0.102,-89.1155,0.0002,-0.1042,6.6532,0.0,-0.1175,6.8624,0.0001,-1.4924
230719,-106.7465,-0.7751,-0.0104,-0.102,-89.1155,0.0002,-0.1042,6.6532,0.0,-0.1175,6.8624,0.0001,-1.4924
230738,-106.7575,-0.0719,-0.0103,-0.1114,-89.1064,0.0001,-0.1146,7.401,-0.0,-0.0924,6.6502,-0.0,1.1143
230751,-106.7575,-0.0719,-0.0103,-0.1114,-89.1064,0.0001,-0.1146,7.401,-0.0,-0.0924,6.6502,-0.0,1.1143
230767,-106.7575,-0.0719,-0.0103,-0.1114,-89.1064,0.0001,-0.1146,7.401,-0.0,-0.0924,6.6502,-0.0,1.1143
230783,-106.7575,-0.0719,-0.0103,-0.1114,-89.1064,0.0001,-0.1146,7.401,-0.0,-0.0924,6.6502,-0.0,1.1143
230799,-106.7575,-0.0719,-0.0103,-0.1114,-89.1064,0.0001,-0.1146,7.401,-0.0,-0.0924,6.6502,-0.0,1.1143
230815,-106.7575,-0.0719,-0.0103,-0.1114,-89.1064,0.0001,-0.1146,7.401,-0.0,-0.0924,6.6502,-0.0,1.1143
230831,-106.7693,0.6877,-0.0103,-0.1164,-89.11,0.0,-0.1264,8.1148,0.0,-0.1208,7.3018,0.0001,-0.6775
230852,-106.7693,0.6877,-0.0103,-0.1164,-89.11,0.0,-0.1264,8.1148,0.0,-0.1208,7.3018,0.0001,-0.6775
230868,-106.7693,0.6877,-0.0103,-0.1164,-89.11,0.0,-0.1264,8.1148,0.0,-0.1208,7.3018,0.0001,-0.6775
230884,-106.7693,0.6877,-0.0103,-0.1164,-89.11,0.0,-0.1264,8.1148,0.0,-0.1208,7.3018,0.0001,-0.6775
230900,-106.7693,0.6877,-0.0103,-0.1164,-89.11,0.0,-0.1264,8.1148,0.0,-0.1208,7.3018,0.0001,-0.6775
230916,-106.7693,0.6877,-0.0103,-0.1164,-89.11,0.0,-0.1264,8.1148,0.0,-0.1208,7.3018,0.0001,-0.6775
230932,-106.7693,0.6877,-0.0103,-0.1164,-89.11,0.0,-0.1264,8.1148,0.0,-0.1208,7.3018,0.0001,-0.6775
230957,-106.7824,1.5306,-0.0103,-0.1119,-89.1056,0.0,-0.1356,8.7164,0.0,-0.0809,5.3425,-0.0,0.6265
230964,-106.7824,1.5306,-0.0103,-0.1119,-89.1056,0.0,-0.1356,8.7164,0.0,-0.0809,5.3425,-0.0,0.6265
230980,-106.7824,1.5306,-0.0103,-0.1119,-89.1056,0.0,-0.1356,8.7164,0.0,-0.0809,5.3425,-0.0,0.6265
230996,-106.7824,1.5306,-0.0103,-0.1119,-89.1056,0.0,-0.1356,8.7164,0.0,-0.0809,5.3425,-0.0,0.6265
231012,-106.7824,1.5306,-0.0103,-0.1119,-89.1056,0.0,-0.1356,8.7164,0.0,-0.0809,5.3425,-0.0,0.6265
231028,-106.7824,1.5306,-0.0103,-0.1119,-89.1056,0.0,-0.1356,8.7164,0.0,-0.0809,5.3425,-0.0,0.6265
231044,-106.7824,1.5306,-0.0103,-0.1119,-89.1056,0.0,-0.1356,8.7164,0.0,-0.0809,5.3425,-0.0,0.6265
231060,-106.7824,1.5306,-0.0103,-0.1119,-89.1056,0.0,-0.1356,8.7164,0.0,-0.0809,5.3425,-0.0,0.6265
231076,-106.7964,2.4308,-0.0104,-0.1041,-89.1078,0.0,-0.1445,9.2683,0.0,-0.0788,4.8747,0.0,-0.2687
231092,-106.7964,2.4308,-0.0104,-0.1041,-89.1078,0.0,-0.1445,9.2683,0.0,-0.0788,4.8747,0.0,-0.2687
231108,-106.7964,2.4308,-0.0104,-0.1041,-89.1078,0.0,-0.1445,9.2683,0.0,-0.0788,4.8747,0.0,-0.2687
231124,-106.7964,2.4308,-0.0104,-0.1041,-89.1078,0.0,-0.1445,9.2683,0.0,-0.0788,4.8747,0.0,-0.2687
231140,-106.7964,2.4308,-0.0104,-0.1041,-89.1078,0.0,-0.1445,9.2683,0.0,-0.0788,4.8747,0.0,-0.2687
231156,-106.7964,2.4308,-0.0104,-0.1041,-89.1078,0.0,-0.1445,9.2683,0.0,-0.0788,4.8747,0.0,-0.2687
231172,-106.8113,3.3843,-0.0104,-0.0966,-89.1071,0.0,-0.1524,9.7805,0.0,-0.0705,4.5595,-0.0,0.0356
231188,-106.8113,3.3843,-0.0104,-0.0966,-89.1071,0.0,-0.1524,9.7805,0.0,-0.0705,4.5595,-0.0,0.0356
231204,-106.8113,3.3843,-0.0104,-0.0966,-89.1071,0.0,-0.1524,9.7805,0.0,-0.0705,4.5595,-0.0,0.0356
231220,-106.8113,3.3843,-0.0104,-0.0966,-89.1071,0.0,-0.1524,9.7805,0.0,-0.0705,4.5595,-0.0,0.0356
231236,-106.8113,3.3843,-0.0104,-0.0966,-89.1071,0.0,-0.1524,9.7805,0.0,-0.0705,4.5595,-0.0,0.0356
231252,-106.8113,3.3843,-0.0104,-0.0966,-89.1071,0.0,-0.1524,9.7805,0.0,-0.0705,4.5595,-0.0,0.0356
231268,-106.8113,3.3843,-0.0104,-0.0966,-89.1071,0.0,-0.1524,9.7805,0.0,-0.0705,4.5595,-0.0,0.0356
231284,-106.8113,3.3843,-0.0104,-0.0966,-89.1071,0.0,-0.1524,9.7805,0.0,-0.0705,4.5595,-0.0,0.0356
231300,-106.8269,4.3884,-0.0105,-0.0908,-89.1071,0.0,-0.1602,10.2773,0.0,-0.0721,4.6108,-0.0,-0.0002
231316,-106.8269,4.3884,-0.0105,-0.0908,-89.1071,0.0,-0.1602,10.2773,0.0,-0.0721,4.6108,-0.0,-0.0002
231332,-106.8269,4.3884,-0.0105,-0.0908,-89.1071,0.0,-0.1602,10.2773,0.0,-0.0721,4.6108,-0.0,-0.0002
231348,-106.8269,4.3884,-0.0105,-0.0908,-89.1071,0.0,-0.1602,10.2773,0.0,-0.0721,4.6108,-0.0,-0.0002
231364,-106.8269,4.3884,-0.0105,-0.0908,-89.1071,0.0,-0.1602,10.2773,0.0,-0.0721,4.6108,-0.0,-0.0002
231380,-106.8269,4.3884,-0.0105,-0.0908,-89.1071,0.0,-0.1602,10.2773,0.0,-0.0721,4.6108,-0.0,-0.0002
231396,-106.8433,5.4411,-0.0105,-0.0858,-89.1071,-0.0,-0.1674,10.744,-0.0,-0.0673,4.3157,-0.0,-0.0002
231412,-106.8433,5.4411,-0.0105,-0.0858,-89.1071,-0.0,-0.1674,10.744,-0.0,-0.0673,4.3157,-0.0,-0.0002
231428,-106.8433,5.4411,-0.0105,-0.0858,-89.1071,-0.0,-0.1674,10.744,-0.0,-0.0673,4.3157,-0.0,-0.0002
231444,-106.8433,5.4411,-0.0105,-0.0858,-89.1071,-0.0,-0.1674,10.744,-0.0,-0.0673,4.3157,-0.0,-0.0002
231460,-106.8433,5.4411,-0.0105,-0.0858,-89.1071,-0.0,-0.1674,10.744,-0.0,-0.0673,4.3157,-0.0,-0.0002
231476,-106.8433,5.4411,-0.0105,-0.0858,-89.1071,-0.0,-0.1674,10.744,-0.0,-0.0673,4.3157,-0.0,-0.0002
231492,-106.8433,5.4411,-0.0105,-0.0858,-89.1071,-0.0,-0.1674,10.744,-0.0,-0.0673,4.3157,-0.0,-0.0002
231508,-106.8604,6.5381,-0.0106,-0.0801,-89.1071,0.0,-0.174,11.1672,0.0,-0.0591,3.7936,0.0001,0.0001
231524,-106.8604,6.5381,-0.0106,-0.0801,-89.1071,0.0,-0.174,11.1672,0.0,-0.0591,3.7936,0.0001,0.0001
231540,-106.8604,6.5381,-0.0106,-0.0801,-89.1071,0.0,-0.174,11.1672,0.0,-0.0591,3.7936,0.0001,0.0001
231556,-106.8604,6.5381,-0.0106,-0.0801,-89.1071,0.0,-0.174,11.1672,0.0,-0.0591,3.7936,0.0001,0.0001
231572,-106.8604,6.5381,-0.0106,-0.0801,-89.1071,0.0,-0.174,11.1672,0.0,-0.0591,3.7936,0.0001,0.0001
231588,-106.8604,6.5381,-0.0106,-0.0801,-89.1071,0.0,-0.174,11.1672,0.0,-0.0591,3.7936,0.0001,0.0001
231610,-106.8604,6.5381,-0.0106,-0.0801,-89.1071,0.0,-0.174,11.1672,0.0,-0.0591,3.7936,0.0001,0.0001
231620,-106.8781,7.6758,-0.0106,-0.0743,-89.1071,0.0,-0.1801,11.5575,0.0,-0.0544,3.4898,-0.0,0.0001
231636,-106.8781,7.6758,-0.0106,-0.0743,-89.1071,0.0,-0.1801,11.5575,0.0,-0.0544,3.4898,-0.0,0.0001
231652,-106.8781,7.6758,-0.0106,-0.0743,-89.1071,0.0,-0.1801,11.5575,0.0,-0.0544,3.4898,-0.0,0.0001
231668,-106.8781,7.6758,-0.0106,-0.0743,-89.1071,0.0,-0.1801,11.5575,0.0,-0.0544,3.4898,-0.0,0.0001
231684,-106.8781,7.6758,-0.0106,-0.0743,-89.1071,0.0,-0.1801,11.5575,0.0,-0.0544,3.4898,-0.0,0.0001
231700,-106.8781,7.6758,-0.0106,-0.0743,-89.1071,0.0,-0.1801,11.5575,0.0,-0.0544,3.4898,-0.0,0.0001
231716,-106.8781,7.6758,-0.0106,-0.0743,-89.1071,0.0,-0.1801,11.5575,0.0,-0.0544,3.4898,-0.0,0.0001
231732,-106.8964,8.8511,-0.0106,-0.069,-89.1071,0.0,-0.1858,11.9212,-0.0,-0.05,3.206,-0.0,-0.0001
231748,-106.8964,8.8511,-0.0106,-0.069,-89.1071,0.0,-0.1858,11.9212,-0.0,-0.05,3.206,-0.0,-0.0001
231764,-106.8964,8.8511,-0.0106,-0.069,-89.1071,0.0,-0.1858,11.9212,-0.0,-0.05,3.206,-0.0,-0.0001
231780,-106.8964,8.8511,-0.0106,-0.069,-89.1071,0.0,-0.1858,11.9212,-0.0,-0.05,3.206,-0.0,-0.0001
231796,-106.8964,8.8511,-0.0106,-0.069,-89.1071,0.0,-0.1858,11.9212,-0.0,-0.05,3.206,-0.0,-0.0001
231812,-106.8964,8.8511,-0.0106,-0.069,-89.1071,0.0,-0.1858,11.9212,-0.0,-0.05,3.206,-0.0,-0.0001
231844,-106.9151,10.0518,-0.0107,-0.0645,-89.1071,0.0,-0.1911,12.2607,0.0,-0.0533,3.4221,0.0,0.0
231860,-106.9151,10.0518,-0.0107,-0.0645,-89.1071,0.0,-0.1911,12.2607,0.0,-0.0533,3.4221,0.0,0.0
231876,-106.9151,10.0518,-0.0107,-0.0645,-89.1071,0.0,-0.1911,12.2607,0.0,-0.0533,3.4221,0.0,0.0
231892,-106.9151,10.0518,-0.0107,-0.0645,-89.1071,0.0,-0.1911,12.2607,0.0,-0.0533,3.4221,0.0,0.0
231908,-106.9151,10.0518,-0.0107,-0.0645,-89.1071,0.0,-0.1911,12.2607,0.0,-0.0533,3.4221,0.0,0.0
231924,-106.9151,10.0518,-0.0107,-0.0645,-89.1071,0.0,-0.1911,12.2607,0.0,-0.0533,3.4221,0.0,0.0
231940,-106.9649,11.2865,-0.0107,-0.0498,-90.5454,0.1275,-1.0537,12.3461,0.001,-8.0121,0.7938,0.0096,-31.7852
231956,-106.9649,11.2865,-0.0107,-0.0498,-90.5454,0.1275,-1.0537,12.3461,0.001,-8.0121,0.7938,0.0096,-31.7852
231972,-106.9649,11.2865,-0.0107,-0.0498,-90.5454,0.1275,-1.0537,12.3461,0.001,-8.0121,0.7938,0.0096,-31.7852
231988,-106.9649,11.2865,-0.0107,-0.0498,-90.5454,0.1275,-1.0537,12.3461,0.001,-8.0121,0.7938,0.0096,-31.7852
232004,-106.9649,11.2865,-0.0107,-0.0498,-90.5454,0.1275,-1.0537,12.3461,0.001,-8.0121,0.7938,0.0096,-31.7852
232020,-106.9649,11.2865,-0.0107,-0.0498,-90.5454,0.1275,-1.0537,12.3461,0.001,-8.0121,0.7938,0.0096,-31.7852
232042,-107.0846,12.5063,-0.0109,-0.0103,-96.5012,0.2714,-2.0485,12.0966,0.0011,-9.3143,-2.3362,0.0007,-84.5292
232052,-107.0846,12.5063,-0.0109,-0.0103,-96.5012,0.2714,-2.0485,12.0966,0.0011,-9.3143,-2.3362,0.0007,-84.5292
232068,-107.0846,12.5063,-0.0109,-0.0103,-96.5012,0.2714,-2.0485,12.0966,0.0011,-9.3143,-2.3362,0.0007,-84.5292
232084,-107.0846,12.5063,-0.0109,-0.0103,-96.5012,0.2714,-2.0485,12.0966,0.0011,-9.3143,-2.3362,0.0007,-84.5292
232100,-107.0846,12.5063,-0.0109,-0.0103,-96.5012,0.2714,-2.0485,12.0966,0.0011,-9.3143,-2.3362,0.0007,-84.5292
232116,-107.0846,12.5063,-0.0109,-0.0103,-96.5012,0.2714,-2.0485,12.0966,0.0011,-9.3143,-2.3362,0.0007,-84.5292
232132,-107.0846,12.5063,-0.0109,-0.0103,-96.5012,0.2714,-2.0485,12.0966,0.0011,-9.3143,-2.3362,0.0007,-84.5292
232148,-107.2361,13.682,-0.0111,0.0214,-108.2253,0.264,-2.5046,11.822,-0.0001,-4.4373,-2.6724,-0.0119,-145.0249
232164,-107.2361,13.682,-0.0111,0.0214,-108.2253,0.264,-2.5046,11.822,-0.0001,-4.4373,-2.6724,-0.0119,-145.0249
232180,-107.2361,13.682,-0.0111,0.0214,-108.2253,0.264,-2.5046,11.822,-0.0001,-4.4373,-2.6724,-0.0119,-145.0249
232196,-107.2361,13.682,-0.0111,0.0214,-108.2253,0.264,-2.5046,11.822,-0.0001,-4.4373,-2.6724,-0.0119,-145.0249
232212,-107.2361,13.682,-0.0111,0.0214,-108.2253,0.264,-2.5046,11.822,-0.0001,-4.4373,-2.6724,-0.0119,-145.0249
232228,-107.2361,13.682,-0.0111,0.0214,-108.2253,0.264,-2.5046,11.822,-0.0001,-4.4373,-2.6724,-0.0119,-145.0249
232247,-107.2361,13.682,-0.0111,0.0214,-108.2253,0.264,-2.5046,11.822,-0.0001,-4.4373,-2.6724,-0.0119,-145.0249
232260,-107.35,14.8022,-0.011,-0.0046,-125.6484,0.0897,-1.853,11.8048,-0.0014,5.9143,-0.1563,-0.0119,-193.243
232276,-107.35,14.8022,-0.011,-0.0046,-125.6484,0.0897,-1.853,11.8048,-0.0014,5.9143,-0.1563,-0.0119,-193.243
232292,-107.35,14.8022,-0.011,-0.0046,-125.6484,0.0897,-1.853,11.8048,-0.0014,5.9143,-0.1563,-0.0119,-193.243
232308,-107.35,14.8022,-0.011,-0.0046,-125.6484,0.0897,-1.853,11.8048,-0.0014,5.9143,-0.1563,-0.0119,-193.243
232324,-107.35,14.8022,-0.011,-0.0046,-125.6484,0.0897,-1.853,11.8048,-0.0014,5.9143,-0.1563,-0.0119,-193.243
232340,-107.35,14.8022,-0.011,-0.0046,-125.6484,0.0897,-1.853,11.8048,-0.0014,5.9143,-0.1563,-0.0119,-193.243
232363,-107.3239,15.8734,-0.0102,-0.1165,-146.1112,-0.2004,0.1776,11.7024,0.0013,19.2425,-0.9697,0.0255,-211.7344
232372,-107.3239,15.8734,-0.0102,-0.1165,-146.1112,-0.2004,0.1776,11.7024,0.0013,19.2425,-0.9697,0.0255,-211.7344
232388,-107.3239,15.8734,-0.0102,-0.1165,-146.1112,-0.2004,0.1776,11.7024,0.0013,19.2425,-0.9697,0.0255,-211.7344
232404,-107.3239,15.8734,-0.0102,-0.1165,-146.1112,-0.2004,0.1776,11.7024,0.0013,19.2425,-0.9697,0.0255,-211.7344
232420,-107.3239,15.8734,-0.0102,-0.1165,-146.1112,-0.2004,0.1776,11.7024,0.0013,19.2425,-0.9697,0.0255,-211.7344
232436,-107.3239,15.8734,-0.0102,-0.1165,-146.1112,-0.2004,0.1776,11.7024,0.0013,19.2425,-0.9697,0.0255,-211.7344
232478,-107.1131,16.8552,-0.0092,-0.2301,-167.8182,-0.4436,2.542,10.8289,0.0021,21.4639,-7.9294,0.0071,-221.0398
232484,-107.1131,16.8552,-0.0092,-0.2301,-167.8182,-0.4436,2.542,10.8289,0.0021,21.4639,-7.9294,0.0071,-221.0398
232500,-107.1131,16.8552,-0.0092,-0.2301,-167.8182,-0.4436,2.542,10.8289,0.0021,21.4639,-7.9294,0.0071,-221.0398
232516,-107.1131,16.8552,-0.0092,-0.2301,-167.8182,-0.4436,2.542,10.8289,0.0021,21.4639,-7.9294,0.0071,-221.0398
232532,-107.1131,16.8552,-0.0092,-0.2301,-167.8182,-0.4436,2.542,10.8289,0.0021,21.4639,-7.9294,0.0071,-221.0398
232548,-107.1131,16.8552,-0.0092,-0.2301,-167.8182,-0.4436,2.542,10.8289,0.0021,21.4639,-7.9294,0.0071,-221.0398
232564,-107.1131,16.8552,-0.0092,-0.2301,-167.8182,-0.4436,2.542,10.8289,0.0021,21.4639,-7.9294,0.0071,-221.0398
232586,-106.7706,17.6596,-0.0086,-0.2791,169.9421,-0.6906,3.8297,8.5717,0.0022,11.5918,-20.3205,0.0012,-221.9942
232596,-106.7706,17.6596,-0.0086,-0.2791,169.9421,-0.6906,3.8297,8.5717,0.0022,11.5918,-20.3205,0.0012,-221.9942
232612,-106.7706,17.6596,-0.0086,-0.2791,169.9421,-0.6906,3.8297,8.5717,0.0022,11.5918,-20.3205,0.0012,-221.9942
232628,-106.7706,17.6596,-0.0086,-0.2791,169.9421,-0.6906,3.8297,8.5717,0.0022,11.5918,-20.3205,0.0012,-221.9942
232644,-106.7706,17.6596,-0.0086,-0.2791,169.9421,-0.6906,3.8297,8.5717,0.0022,11.5918,-20.3205,0.0012,-221.9942
232660,-106.7706,17.6596,-0.0086,-0.2791,169.9421,-0.6906,3.8297,8.5717,0.0022,11.5918,-20.3205,0.0012,-221.9942
232679,-106.7706,17.6596,-0.0086,-0.2791,169.9421,-0.6906,3.8297,8.5717,0.0022,11.5918,-20.3205,0.0012,-221.9942
232692,-106.5116,18.2725,-0.0094,-0.1743,149.7037,-0.8532,2.1535,6.879,0.0051,-15.7002,-15.855,0.027,-185.0564
232708,-106.5116,18.2725,-0.0094,-0.1743,149.7037,-0.8532,2.1535,6.879,0.0051,-15.7002,-15.855,0.027,-185.0564
232724,-106.5116,18.2725,-0.0094,-0.1743,149.7037,-0.8532,2.1535,6.879,0.0051,-15.7002,-15.855,0.027,-185.0564
232740,-106.5116,18.2725,-0.0094,-0.1743,149.7037,-0.8532,2.1535,6.879,0.0051,-15.7002,-15.855,0.027,-185.0564
232756,-106.5116,18.2725,-0.0094,-0.1743,149.7037,-0.8532,2.1535,6.879,0.0051,-15.7002,-15.855,0.027,-185.0564
232772,-106.5116,18.2725,-0.0094,-0.1743,149.7037,-0.8532,2.1535,6.879,0.0051,-15.7002,-15.855,0.027,-185.0564
232791,-106.5133,18.8454,-0.0105,0.0157,133.2211,-0.8849,-0.3852,6.7773,0.0006,-24.564,-0.9847,-0.0437,-142.5508
232804,-106.5133,18.8454,-0.0105,0.0157,133.2211,-0.8849,-0.3852,6.7773,0.0006,-24.564,-0.9847,-0.0437,-142.5508
232820,-106.5133,18.8454,-0.0105,0.0157,133.2211,-0.8849,-0.3852,6.7773,0.0006,-24.564,-0.9847,-0.0437,-142.5508
232836,-106.5133,18.8454,-0.0105,0.0157,133.2211,-0.8849,-0.3852,6.7773,0.0006,-24.564,-0.9847,-0.0437,-142.5508
232852,-106.5133,18.8454,-0.0105,0.0157,133.2211,-0.8849,-0.3852,6.7773,0.0006,-24.564,-0.9847,-0.0437,-142.5508
232868,-106.5133,18.8454,-0.0105,0.0157,133.2211,-0.8849,-0.3852,6.7773,0.0006,-24.564,-0.9847,-0.0437,-142.5508
232892,-106.7063,19.4938,-0.0116,0.1549,122.1982,-0.7019,-1.8265,7.695,-0.0013,-15.049,9.5822,-0.0195,-98.2971
232900,-106.7063,19.4938,-0.0116,0.1549,122.1982,-0.7019,-1.8265,7.695,-0.0013,-15.049,9.5822,-0.0195,-98.2971
232916,-106.7063,19.4938,-0.0116,0.1549,122.1982,-0.7019,-1.8265,7.695,-0.0013,-15.049,9.5822,-0.0195,-98.2971
232932,-106.7063,19.4938,-0.0116,0.1549,122.1982,-0.7019,-1.8265,7.695,-0.0013,-15.049,9.5822,-0.0195,-98.2971
232948,-106.7063,19.4938,-0.0116,0.1549,122.1982,-0.7019,-1.8265,7.695,-0.0013,-15.049,9.5822,-0.0195,-98.2971
232980,-106.7063,19.4938,-0.0116,0.1549,122.1982,-0.7019,-1.8265,7.695,-0.0013,-15.049,9.5822,-0.0195,-98.2971
232996,-106.9343,20.2803,-0.0121,0.1816,112.9875,-0.3116,-1.4464,8.5335,-0.003,3.8145,8.4128,-0.0172,-91.0449
233012,-106.9343,20.2803,-0.0121,0.1816,112.9875,-0.3116,-1.4464,8.5335,-0.003,3.8145,8.4128,-0.0172,-91.0449
233028,-106.9343,20.2803,-0.0121,0.1816,112.9875,-0.3116,-1.4464,8.5335,-0.003,3.8145,8.4128,-0.0172,-91.0449
233044,-106.9343,20.2803,-0.0121,0.1816,112.9875,-0.3116,-1.4464,8.5335,-0.003,3.8145,8.4128,-0.0172,-91.0449
233060,-106.9343,20.2803,-0.0121,0.1816,112.9875,-0.3116,-1.4464,8.5335,-0.003,3.8145,8.4128,-0.0172,-91.0449
233076,-106.9343,20.2803,-0.0121,0.1816,112.9875,-0.3116,-1.4464,8.5335,-0.003,3.8145,8.4128,-0.0172,-91.0449
233092,-107.1348,21.1462,-0.0122,0.1602,106.1073,-0.1666,-1.8813,8.9562,-0.0017,-4.3533,4.2316,0.0135,-43.4232
233108,-107.1348,21.1462,-0.0122,0.1602,106.1073,-0.1666,-1.8813,8.9562,-0.0017,-4.3533,4.2316,0.0135,-43.4232
233124,-107.1348,21.1462,-0.0122,0.1602,106.1073,-0.1666,-1.8813,8.9562,-0.0017,-4.3533,4.2316,0.0135,-43.4232
233140,-107.1348,21.1462,-0.0122,0.1602,106.1073,-0.1666,-1.8813,8.9562,-0.0017,-4.3533,4.2316,0.0135,-43.4232
233156,-107.1348,21.1462,-0.0122,0.1602,106.1073,-0.1666,-1.8813,8.9562,-0.0017,-4.3533,4.2316,0.0135,-43.4232
233172,-107.1348,21.1462,-0.0122,0.1602,106.1073,-0.1666,-1.8813,8.9562,-0.0017,-4.3533,4.2316,0.0135,-43.4232
233188,-107.3581,22.0196,-0.0119,0.1154,103.9585,-0.1736,-2.2375,9.082,-0.0001,-3.6626,1.2924,0.0167,-12.0916
233204,-107.3581,22.0196,-0.0119,0.1154,103.9585,-0.1736,-2.2375,9.082,-0.0001,-3.6626,1.2924,0.0167,-12.0916
233220,-107.3581,22.0196,-0.0119,0.1154,103.9585,-0.1736,-2.2375,9.082,-0.0001,-3.6626,1.2924,0.0167,-12.0916
233236,-107.3581,22.0196,-0.0119,0.1154,103.9585,-0.1736,-2.2375,9.082,-0.0001,-3.6626,1.2924,0.0167,-12.0916
233252,-107.3581,22.0196,-0.0119,0.1154,103.9585,-0.1736,-2.2375,9.082,-0.0001,-3.6626,1.2924,0.0167,-12.0916
233268,-107.3581,22.0196,-0.0119,0.1154,103.9585,-0.1736,-2.2375,9.082,-0.0001,-3.6626,1.2924,0.0167,-12.0916
233287,-107.5863,22.9331,-0.0116,0.0752,103.379,-0.1036,-2.2389,9.196,-0.0004,-0.0132,1.0792,-0.0033,-3.9117
233300,-107.5863,22.9331,-0.0116,0.0752,103.379,-0.1036,-2.2389,9.196,-0.0004,-0.0132,1.0792,-0.0033,-3.9117
233316,-107.5863,22.9331,-0.0116,0.0752,103.379,-0.1036,-2.2389,9.196,-0.0004,-0.0132,1.0792,-0.0033,-3.9117
233332,-107.5863,22.9331,-0.0116,0.0752,103.379,-0.1036,-2.2389,9.196,-0.0004,-0.0132,1.0792,-0.0033,-3.9117
233348,-107.5863,22.9331,-0.0116,0.0752,103.379,-0.1036,-2.2389,9.196,-0.0004,-0.0132,1.0792,-0.0033,-3.9117
233364,-107.5863,22.9331,-0.0116,0.0752,103.379,-0.1036,-2.2389,9.196,-0.0004,-0.0132,1.0792,-0.0033,-3.9117
233380,-107.5863,22.9331,-0.0116,0.0752,103.379,-0.1036,-2.2389,9.196,-0.0004,-0.0132,1.0792,-0.0033,-3.9117
233396,-107.8095,23.8575,-0.0115,0.0487,103.2211,-0.051,-2.2153,9.2864,-0.0003,0.2189,0.8395,0.0006,-1.7218
233412,-107.8095,23.8575,-0.0115,0.0487,103.2211,-0.051,-2.2153,9.2864,-0.0003,0.2189,0.8395,0.0006,-1.7218
233428,-107.8095,23.8575,-0.0115,0.0487,103.2211,-0.051,-2.2153,9.2864,-0.0003,0.2189,0.8395,0.0006,-1.7218
233444,-107.8095,23.8575,-0.0115,0.0487,103.2211,-0.051,-2.2153,9.2864,-0.0003,0.2189,0.8395,0.0006,-1.7218
233460,-107.8095,23.8575,-0.0115,0.0487,103.2211,-0.051,-2.2153,9.2864,-0.0003,0.2189,0.8395,0.0006,-1.7218
233476,-107.8095,23.8575,-0.0115,0.0487,103.2211,-0.051,-2.2153,9.2864,-0.0003,0.2189,0.8395,0.0006,-1.7218
233501,-108.0203,24.7466,-0.0114,0.034,103.1791,-0.0246,-2.2105,9.3704,-0.0002,0.0509,0.8816,0.0017,-1.0095
233508,-108.0203,24.7466,-0.0114,0.034,103.1791,-0.0246,-2.2105,9.3704,-0.0002,0.0509,0.8816,0.0017,-1.0095
233524,-108.0203,24.7466,-0.0114,0.034,103.1791,-0.0246,-2.2105,9.3704,-0.0002,0.0509,0.8816,0.0017,-1.0095
233540,-108.0203,24.7466,-0.0114,0.034,103.1791,-0.0246,-2.2105,9.3704,-0.0002,0.0509,0.8816,0.0017,-1.0095
233556,-108.0203,24.7466,-0.0114,0.034,103.1791,-0.0246,-2.2105,9.3704,-0.0002,0.0509,0.8816,0.0017,-1.0095
233572,-108.0203,24.7466,-0.0114,0.034,103.1791,-0.0246,-2.2105,9.3704,-0.0002,0.0509,0.8816,0.0017,-1.0095
233588,-108.0203,24.7466,-0.0114,0.034,103.1791,-0.0246,-2.2105,9.3704,-0.0002,0.0509,0.8816,0.0017,-1.0095
233611,-108.0203,24.7466,-0.0114,0.034,103.1791,-0.0246,-2.2105,9.3704,-0.0002,0.0509,0.8816,0.0017,-1.0095
233620,-108.2414,25.6869,-0.0113,0.0237,103.1662,-0.0113,-2.2129,9.4282,-0.0,-0.0207,0.505,0.0012,-0.9346
233636,-108.2414,25.6869,-0.0113,0.0237,103.1662,-0.0113,-2.2129,9.4282,-0.0,-0.0207,0.505,0.0012,-0.9346
233652,-108.2414,25.6869,-0.0113,0.0237,103.1662,-0.0113,-2.2129,9.4282,-0.0,-0.0207,0.505,0.0012,-0.9346
233668,-108.2414,25.6869,-0.0113,0.0237,103.1662,-0.0113,-2.2129,9.4282,-0.0,-0.0207,0.505,0.0012,-0.9346
233684,-108.2414,25.6869,-0.0113,0.0237,103.1662,-0.0113,-2.2129,9.4282,-0.0,-0.0207,0.505,0.0012,-0.9346
233700,-108.2414,25.6869,-0.0113,0.0237,103.1662,-0.0113,-2.2129,9.4282,-0.0,-0.0207,0.505,0.0012,-0.9346
233726,-108.4631,26.6327,-0.0113,0.0175,103.1625,-0.0053,-2.2214,9.4842,0.0,-0.0771,0.5061,0.0004,-0.8782
233732,-108.4631,26.6327,-0.0113,0.0175,103.1625,-0.0053,-2.2214,9.4842,0.0,-0.0771,0.5061,0.0004,-0.8782
233748,-108.4631,26.6327,-0.0113,0.0175,103.1625,-0.0053,-2.2214,9.4842,0.0,-0.0771,0.5061,0.0004,-0.8782
233764,-108.4631,26.6327,-0.0113,0.0175,103.1625,-0.0053,-2.2214,9.4842,0.0,-0.0771,0.5061,0.0004,-0.8782
233780,-108.4631,26.6327,-0.0113,0.0175,103.1625,-0.0053,-2.2214,9.4842,0.0,-0.0771,0.5061,0.0004,-0.8782
233796,-108.4631,26.6327,-0.0113,0.0175,103.1625,-0.0053,-2.2214,9.4842,0.0,-0.0771,0.5061,0.0004,-0.8782
233812,-108.4631,26.6327,-0.0113,0.0175,103.1625,-0.0053,-2.2214,9.4842,0.0,-0.0771,0.5061,0.0004,-0.8782
233831,-108.6858,27.5841,-0.0113,0.0141,103.1615,-0.0026,-2.2324,9.5389,0.0,-0.0974,0.4842,0.0001,-0.8557
233844,-108.6858,27.5841,-0.0113,0.0141,103.1615,-0.0026,-2.2324,9.5389,0.0,-0.0974,0.4842,0.0001,-0.8557
233860,-108.6858,27.5841,-0.0113,0.0141,103.1615,-0.0026,-2.2324,9.5389,0.0,-0.0974,0.4842,0.0001,-0.8557
233876,-108.6858,27.5841,-0.0113,0.0141,103.1615,-0.0026,-2.2324,9.5389,0.0,-0.0974,0.4842,0.0001,-0.8557
233892,-108.6858,27.5841,-0.0113,0.0141,103.1615,-0.0026,-2.2324,9.5389,0.0,-0.0974,0.4842,0.0001,-0.8557
233908,-108.6858,27.5841,-0.0113,0.0141,103.1615,-0.0026,-2.2324,9.5389,0.0,-0.0974,0.4842,0.0001,-0.8557
233924,-108.6858,27.5841,-0.0113,0.0141,103.1615,-0.0026,-2.2324,9.5389,0.0,-0.0974,0.4842,0.0001,-0.8557
233940,-108.9097,28.541,-0.0112,0.0121,103.1612,-0.0013,-2.2442,9.5925,0.0,-0.1101,0.4981,-0.0001,-0.8433
233956,-108.9097,28.541,-0.0112,0.0121,103.1612,-0.0013,-2.2442,9.5925,0.0,-0.1101,0.4981,-0.0001,-0.8433
233972,-108.9097,28.541,-0.0112,0.0121,103.1612,-0.0013,-2.2442,9.5925,0.0,-0.1101,0.4981,-0.0001,-0.8433
233988,-108.9097,28.541,-0.0112,0.0121,103.1612,-0.0013,-2.2442,9.5925,0.0,-0.1101,0.4981,-0.0001,-0.8433
234004,-108.9097,28.541,-0.0112,0.0121,103.1612,-0.0013,-2.2442,9.5925,0.0,-0.1101,0.4981,-0.0001,-0.8433
234020,-108.9097,28.541,-0.0112,0.0121,103.1612,-0.0013,-2.2442,9.5925,0.0,-0.1101,0.4981,-0.0001,-0.8433
234045,-108.9097,28.541,-0.0112,0.0121,103.1612,-0.0013,-2.2442,9.5925,0.0,-0.1101,0.4981,-0.0001,-0.8433
234052,-109.1348,29.5031,-0.0112,0.011,103.1611,-0.0007,-2.2562,9.645,0.0,-0.1149,0.5023,0.0,-0.8342
234068,-109.1348,29.5031,-0.0112,0.011,103.1611,-0.0007,-2.2562,9.645,0.0,-0.1149,0.5023,0.0,-0.8342
234084,-109.1348,29.5031,-0.0112,0.011,103.1611,-0.0007,-2.2562,9.645,0.0,-0.1149,0.5023,0.0,-0.8342
234100,-109.1348,29.5031,-0.0112,0.011,103.1611,-0.0007,-2.2562,9.645,0.0,-0.1149,0.5023,0.0,-0.8342
234116,-109.1348,29.5031,-0.0112,0.011,103.1611,-0.0007,-2.2562,9.645,0.0,-0.1149,0.5023,0.0,-0.8342
234132,-109.1348,29.5031,-0.0112,0.011,103.1611,-0.0007,-2.2562,9.645,0.0,-0.1149,0.5023,0.0,-0.8342
234154,-109.3611,30.4704,-0.0112,0.0103,103.1611,-0.0003,-2.2681,9.6963,0.0,-0.1094,0.4718,0.0,-0.8261
