timestamp,x,y,z,pitch,yaw,roll,vx,vy,vz,ax,ay,az,yaw_rate
97696,-106.6867,-4.8475,-0.0792,0.0,-89.3578,0.0,-0.0,0.0,0.0805,-0.0,0.0,6.2772,0.0
97712,-106.6867,-4.8475,-0.0792,0.0,-89.3578,0.0,-0.0,0.0,0.0805,-0.0,0.0,6.2772,0.0
97728,-106.6867,-4.8475,-0.0792,0.0,-89.3578,0.0,-0.0,0.0,0.0805,-0.0,0.0,6.2772,0.0
97744,-106.6867,-4.8475,-0.0792,0.0,-89.3578,0.0,-0.0,0.0,0.0805,-0.0,0.0,6.2772,0.0
97760,-106.6867,-4.8475,-0.0792,0.0,-89.3578,0.0,-0.0,0.0,0.0805,-0.0,0.0,6.2772,0.0
97776,-106.6867,-4.8475,-0.0792,0.0,-89.3578,0.0,-0.0,0.0,0.0805,-0.0,0.0,6.2772,0.0
97792,-106.6867,-4.8475,-0.0792,0.0,-89.3578,0.0,-0.0,0.0,0.0805,-0.0,0.0,6.2772,0.0
97808,-106.6867,-4.8475,-0.0792,0.0,-89.3578,0.0,-0.0,0.0,0.0805,-0.0,0.0,6.2772,0.0
97824,-106.6867,-4.8475,-0.0792,0.0,-89.3578,0.0,-0.0,0.0,0.0805,-0.0,0.0,6.2772,0.0
97840,-106.6867,-4.8475,-0.0792,0.0,-89.3578,0.0,-0.0,0.0,0.0805,-0.0,0.0,6.2772,0.0
97856,-106.6867,-4.8475,-0.0792,0.0,-89.3578,0.0,-0.0,0.0,0.0805,-0.0,0.0,6.2772,0.0
97872,-106.6867,-4.8475,-0.0792,0.0,-89.3578,0.0,-0.0,0.0,0.0805,-0.0,0.0,6.2772,0.0
97888,-106.6867,-4.8475,-0.0792,0.0,-89.3578,0.0,-0.0,0.0,0.0805,-0.0,0.0,6.2772,0.0
97904,-106.6867,-4.8475,-0.0792,0.0,-89.3578,0.0,-0.0,0.0,0.0805,-0.0,0.0,6.2772,0.0
97920,-106.6867,-4.8475,-0.0792,0.0,-89.3578,0.0,-0.0,0.0,0.0805,-0.0,0.0,6.2772,0.0
97936,-106.6868,-4.8455,-0.059,-0.0017,-89.3578,0.0,-0.0005,0.0429,0.236,-0.0021,0.1888,0.6838,-0.0
97952,-106.6868,-4.8455,-0.059,-0.0017,-89.3578,0.0,-0.0005,0.0429,0.236,-0.0021,0.1888,0.6838,-0.0
97968,-106.6868,-4.8455,-0.059,-0.0017,-89.3578,0.0,-0.0005,0.0429,0.236,-0.0021,0.1888,0.6838,-0.0
97984,-106.6868,-4.8455,-0.059,-0.0017,-89.3578,0.0,-0.0005,0.0429,0.236,-0.0021,0.1888,0.6838,-0.0
98000,-106.6868,-4.8455,-0.059,-0.0017,-89.3578,0.0,-0.0005,0.0429,0.236,-0.0021,0.1888,0.6838,-0.0
98016,-106.6868,-4.8455,-0.059,-0.0017,-89.3578,0.0,-0.0005,0.0429,0.236,-0.0021,0.1888,0.6838,-0.0
98032,-106.6868,-4.8404,-0.0383,-0.0052,-89.3578,0.0,-0.0013,0.1146,0.1736,-0.0074,0.6631,-0.5779,-0.0046
98048,-106.6868,-4.8404,-0.0383,-0.0052,-89.3578,0.0,-0.0013,0.1146,0.1736,-0.0074,0.6631,-0.5779,-0.0046
98064,-106.6868,-4.8404,-0.0383,-0.0052,-89.3578,0.0,-0.0013,0.1146,0.1736,-0.0074,0.6631,-0.5779,-0.0046
98080,-106.6868,-4.8404,-0.0383,-0.0052,-89.3578,0.0,-0.0013,0.1146,0.1736,-0.0074,0.6631,-0.5779,-0.0046
98096,-106.6868,-4.8404,-0.0383,-0.0052,-89.3578,0.0,-0.0013,0.1146,0.1736,-0.0074,0.6631,-0.5779,-0.0046
98112,-106.6868,-4.8404,-0.0383,-0.0052,-89.3578,0.0,-0.0013,0.1146,0.1736,-0.0074,0.6631,-0.5779,-0.0046
98130,-106.6872,-4.8059,-0.0258,-0.0286,-89.3575,0.0,-0.0066,0.593,0.1053,-0.0582,5.2295,-0.746,0.0051
98144,-106.6872,-4.8059,-0.0258,-0.0286,-89.3575,0.0,-0.0066,0.593,0.1053,-0.0582,5.2295,-0.746,0.0051
98160,-106.6872,-4.8059,-0.0258,-0.0286,-89.3575,0.0,-0.0066,0.593,0.1053,-0.0582,5.2295,-0.746,0.0051
98176,-106.6872,-4.8059,-0.0258,-0.0286,-89.3575,0.0,-0.0066,0.593,0.1053,-0.0582,5.2295,-0.746,0.0051
98192,-106.6872,-4.8059,-0.0258,-0.0286,-89.3575,0.0,-0.0066,0.593,0.1053,-0.0582,5.2295,-0.746,0.0051
98208,-106.6872,-4.8059,-0.0258,-0.0286,-89.3575,0.0,-0.0066,0.593,0.1053,-0.0582,5.2295,-0.746,0.0051
98225,-106.688,-4.7316,-0.0185,-0.0464,-89.3555,0.0,-0.0105,0.9477,0.0577,-0.0419,3.8413,-0.5151,0.0456
98240,-106.688,-4.7316,-0.0185,-0.0464,-89.3555,0.0,-0.0105,0.9477,0.0577,-0.0419,3.8413,-0.5151,0.0456
98256,-106.688,-4.7316,-0.0185,-0.0464,-89.3555,0.0,-0.0105,0.9477,0.0577,-0.0419,3.8413,-0.5151,0.0456
98272,-106.688,-4.7316,-0.0185,-0.0464,-89.3555,0.0,-0.0105,0.9477,0.0577,-0.0419,3.8413,-0.5151,0.0456
98288,-106.688,-4.7316,-0.0185,-0.0464,-89.3555,0.0,-0.0105,0.9477,0.0577,-0.0419,3.8413,-0.5151,0.0456
98304,-106.688,-4.7316,-0.0185,-0.0464,-89.3555,0.0,-0.0105,0.9477,0.0577,-0.0419,3.8413,-0.5151,0.0456
98322,-106.6893,-4.6272,-0.0141,-0.0486,-89.3567,0.0003,-0.0141,1.1385,0.0312,-0.0377,1.9631,-0.2727,-0.5728
98336,-106.6893,-4.6272,-0.0141,-0.0486,-89.3567,0.0003,-0.0141,1.1385,0.0312,-0.0377,1.9631,-0.2727,-0.5728
98352,-106.6893,-4.6272,-0.0141,-0.0486,-89.3567,0.0003,-0.0141,1.1385,0.0312,-0.0377,1.9631,-0.2727,-0.5728
98368,-106.6893,-4.6272,-0.0141,-0.0486,-89.3567,0.0003,-0.0141,1.1385,0.0312,-0.0377,1.9631,-0.2727,-0.5728
98384,-106.6893,-4.6272,-0.0141,-0.0486,-89.3567,0.0003,-0.0141,1.1385,0.0312,-0.0377,1.9631,-0.2727,-0.5728
98400,-106.6893,-4.6272,-0.0141,-0.0486,-89.3567,0.0003,-0.0141,1.1385,0.0312,-0.0377,1.9631,-0.2727,-0.5728
98418,-106.6905,-4.5104,-0.0124,-0.0312,-89.3698,-0.0003,-0.0121,1.116,0.0123,0.0206,-0.226,-0.1902,0.1468
98432,-106.6905,-4.5104,-0.0124,-0.0312,-89.3698,-0.0003,-0.0121,1.116,0.0123,0.0206,-0.226,-0.1902,0.1468
98448,-106.6905,-4.5104,-0.0124,-0.0312,-89.3698,-0.0003,-0.0121,1.116,0.0123,0.0206,-0.226,-0.1902,0.1468
98464,-106.6905,-4.5104,-0.0124,-0.0312,-89.3698,-0.0003,-0.0121,1.116,0.0123,0.0206,-0.226,-0.1902,0.1468
98480,-106.6905,-4.5104,-0.0124,-0.0312,-89.3698,-0.0003,-0.0121,1.116,0.0123,0.0206,-0.226,-0.1902,0.1468
98496,-106.6905,-4.5104,-0.0124,-0.0312,-89.3698,-0.0003,-0.0121,1.116,0.0123,0.0206,-0.226,-0.1902,0.1468
98513,-106.6919,-4.391,-0.0116,-0.023,-89.3625,-0.0,-0.0138,1.23,0.0053,-0.0175,1.1565,-0.0713,-0.0327
98528,-106.6919,-4.391,-0.0116,-0.023,-89.3625,-0.0,-0.0138,1.23,0.0053,-0.0175,1.1565,-0.0713,-0.0327
98544,-106.6919,-4.391,-0.0116,-0.023,-89.3625,-0.0,-0.0138,1.23,0.0053,-0.0175,1.1565,-0.0713,-0.0327
98560,-106.6919,-4.391,-0.0116,-0.023,-89.3625,-0.0,-0.0138,1.23,0.0053,-0.0175,1.1565,-0.0713,-0.0327
98576,-106.6919,-4.391,-0.0116,-0.023,-89.3625,-0.0,-0.0138,1.23,0.0053,-0.0175,1.1565,-0.0713,-0.0327
98592,-106.6919,-4.391,-0.0116,-0.023,-89.3625,-0.0,-0.0138,1.23,0.0053,-0.0175,1.1565,-0.0713,-0.0327
98608,-106.6919,-4.391,-0.0116,-0.023,-89.3625,-0.0,-0.0138,1.23,0.0053,-0.0175,1.1565,-0.0713,-0.0327
98624,-106.6932,-4.2255,-0.0111,-0.0486,-89.4352,0.0001,-0.0255,1.8836,0.0024,-0.1181,6.5798,-0.0291,-4.6869
98640,-106.6932,-4.2255,-0.0111,-0.0486,-89.4352,0.0001,-0.0255,1.8836,0.0024,-0.1181,6.5798,-0.0291,-4.6869
98656,-106.6932,-4.2255,-0.0111,-0.0486,-89.4352,0.0001,-0.0255,1.8836,0.0024,-0.1181,6.5798,-0.0291,-4.6869
98672,-106.6932,-4.2255,-0.0111,-0.0486,-89.4352,0.0001,-0.0255,1.8836,0.0024,-0.1181,6.5798,-0.0291,-4.6869
98688,-106.6932,-4.2255,-0.0111,-0.0486,-89.4352,0.0001,-0.0255,1.8836,0.0024,-0.1181,6.5798,-0.0291,-4.6869
98705,-106.6945,-4.0186,-0.0108,-0.0707,-89.491,-0.0009,-0.0229,2.4878,0.0012,0.0292,6.5523,-0.0131,-3.3544
98720,-106.6945,-4.0186,-0.0108,-0.0707,-89.491,-0.0009,-0.0229,2.4878,0.0012,0.0292,6.5523,-0.0131,-3.3544
98736,-106.6945,-4.0186,-0.0108,-0.0707,-89.491,-0.0009,-0.0229,2.4878,0.0012,0.0292,6.5523,-0.0131,-3.3544
98752,-106.6945,-4.0186,-0.0108,-0.0707,-89.491,-0.0009,-0.0229,2.4878,0.0012,0.0292,6.5523,-0.0131,-3.3544
98768,-106.6945,-4.0186,-0.0108,-0.0707,-89.491,-0.0009,-0.0229,2.4878,0.0012,0.0292,6.5523,-0.0131,-3.3544
98784,-106.6945,-4.0186,-0.0108,-0.0707,-89.491,-0.0009,-0.0229,2.4878,0.0012,0.0292,6.5523,-0.0131,-3.3544
98800,-106.6977,-3.7626,-0.0107,-0.0677,-89.4622,0.0004,-0.0309,2.7895,0.0006,-0.0837,3.1289,-0.0063,-3.5968
98816,-106.6977,-3.7626,-0.0107,-0.0677,-89.4622,0.0004,-0.0309,2.7895,0.0006,-0.0837,3.1289,-0.0063,-3.5968
98832,-106.6977,-3.7626,-0.0107,-0.0677,-89.4622,0.0004,-0.0309,2.7895,0.0006,-0.0837,3.1289,-0.0063,-3.5968
98848,-106.6977,-3.7626,-0.0107,-0.0677,-89.4622,0.0004,-0.0309,2.7895,0.0006,-0.0837,3.1289,-0.0063,-3.5968
98864,-106.6977,-3.7626,-0.0107,-0.0677,-89.4622,0.0004,-0.0309,2.7895,0.0006,-0.0837,3.1289,-0.0063,-3.5968
98880,-106.6977,-3.7626,-0.0107,-0.0677,-89.4622,0.0004,-0.0309,2.7895,0.0006,-0.0837,3.1289,-0.0063,-3.5968
98896,-106.7002,-3.4681,-0.0106,-0.0775,-89.5004,-0.0009,-0.0296,3.3939,0.0003,0.0143,6.466,-0.003,-2.3096
98912,-106.7002,-3.4681,-0.0106,-0.0775,-89.5004,-0.0009,-0.0296,3.3939,0.0003,0.0143,6.466,-0.003,-2.3096
98928,-106.7002,-3.4681,-0.0106,-0.0775,-89.5004,-0.0009,-0.0296,3.3939,0.0003,0.0143,6.466,-0.003,-2.3096
98944,-106.7002,-3.4681,-0.0106,-0.0775,-89.5004,-0.0009,-0.0296,3.3939,0.0003,0.0143,6.466,-0.003,-2.3096
98960,-106.7002,-3.4681,-0.0106,-0.0775,-89.5004,-0.0009,-0.0296,3.3939,0.0003,0.0143,6.466,-0.003,-2.3096
98976,-106.7002,-3.4681,-0.0106,-0.0775,-89.5004,-0.0009,-0.0296,3.3939,0.0003,0.0143,6.466,-0.003,-2.3096
98994,-106.7031,-3.1281,-0.0105,-0.0854,-89.5124,-0.0009,-0.0341,3.8671,0.0002,-0.0496,5.1815,-0.0016,-0.1668
99008,-106.7031,-3.1281,-0.0105,-0.0854,-89.5124,-0.0009,-0.0341,3.8671,0.0002,-0.0496,5.1815,-0.0016,-0.1668
99024,-106.7031,-3.1281,-0.0105,-0.0854,-89.5124,-0.0009,-0.0341,3.8671,0.0002,-0.0496,5.1815,-0.0016,-0.1668
99040,-106.7031,-3.1281,-0.0105,-0.0854,-89.5124,-0.0009,-0.0341,3.8671,0.0002,-0.0496,5.1815,-0.0016,-0.1668
99056,-106.7031,-3.1281,-0.0105,-0.0854,-89.5124,-0.0009,-0.0341,3.8671,0.0002,-0.0496,5.1815,-0.0016,-0.1668
99072,-106.7031,-3.1281,-0.0105,-0.0854,-89.5124,-0.0009,-0.0341,3.8671,0.0002,-0.0496,5.1815,-0.0016,-0.1668
99088,-106.7074,-2.7238,-0.0105,-0.0907,-89.4423,0.0001,-0.0429,4.5215,0.0001,-0.0922,6.8753,-0.0008,0.478
99104,-106.7074,-2.7238,-0.0105,-0.0907,-89.4423,0.0001,-0.0429,4.5215,0.0001,-0.0922,6.8753,-0.0008,0.478
99120,-106.7074,-2.7238,-0.0105,-0.0907,-89.4423,0.0001,-0.0429,4.5215,0.0001,-0.0922,6.8753,-0.0008,0.478
99136,-106.7074,-2.7238,-0.0105,-0.0907,-89.4423,0.0001,-0.0429,4.5215,0.0001,-0.0922,6.8753,-0.0008,0.478
99152,-106.7074,-2.7238,-0.0105,-0.0907,-89.4423,0.0001,-0.0429,4.5215,0.0001,-0.0922,6.8753,-0.0008,0.478
99168,-106.7119,-2.2769,-0.0104,-0.0989,-89.4253,0.0005,-0.0507,5.1154,0.0,-0.0861,6.518,-0.0005,0.0175
99184,-106.7119,-2.2769,-0.0104,-0.0989,-89.4253,0.0005,-0.0507,5.1154,0.0,-0.0861,6.518,-0.0005,0.0175
99200,-106.7119,-2.2769,-0.0104,-0.0989,-89.4253,0.0005,-0.0507,5.1154,0.0,-0.0861,6.518,-0.0005,0.0175
99216,-106.7119,-2.2769,-0.0104,-0.0989,-89.4253,0.0005,-0.0507,5.1154,0.0,-0.0861,6.518,-0.0005,0.0175
99232,-106.7119,-2.2769,-0.0104,-0.0989,-89.4253,0.0005,-0.0507,5.1154,0.0,-0.0861,6.518,-0.0005,0.0175
99248,-106.7119,-2.2769,-0.0104,-0.0989,-89.4253,0.0005,-0.0507,5.1154,0.0,-0.0861,6.518,-0.0005,0.0175
99266,-106.7165,-1.7916,-0.0104,-0.0966,-89.4446,0.0003,-0.0565,5.6717,0.0,-0.0643,6.2114,-0.0001,-1.9743
99280,-106.7165,-1.7916,-0.0104,-0.0966,-89.4446,0.0003,-0.0565,5.6717,0.0,-0.0643,6.2114,-0.0001,-1.9743
99296,-106.7165,-1.7916,-0.0104,-0.0966,-89.4446,0.0003,-0.0565,5.6717,0.0,-0.0643,6.2114,-0.0001,-1.9743
99312,-106.7165,-1.7916,-0.0104,-0.0966,-89.4446,0.0003,-0.0565,5.6717,0.0,-0.0643,6.2114,-0.0001,-1.9743
99328,-106.7165,-1.7916,-0.0104,-0.0966,-89.4446,0.0003,-0.0565,5.6717,0.0,-0.0643,6.2114,-0.0001,-1.9743
99344,-106.7165,-1.7916,-0.0104,-0.0966,-89.4446,0.0003,-0.0565,5.6717,0.0,-0.0643,6.2114,-0.0001,-1.9743
99362,-106.7221,-1.233,-0.0104,-0.1012,-89.4326,0.0002,-0.0617,6.336,0.0,-0.0553,7.1146,-0.0001,1.2947
99376,-106.7221,-1.233,-0.0104,-0.1012,-89.4326,0.0002,-0.0617,6.336,0.0,-0.0553,7.1146,-0.0001,1.2947
99392,-106.7221,-1.233,-0.0104,-0.1012,-89.4326,0.0002,-0.0617,6.336,0.0,-0.0553,7.1146,-0.0001,1.2947
99408,-106.7221,-1.233,-0.0104,-0.1012,-89.4326,0.0002,-0.0617,6.336,0.0,-0.0553,7.1146,-0.0001,1.2947
99424,-106.7221,-1.233,-0.0104,-0.1012,-89.4326,0.0002,-0.0617,6.336,0.0,-0.0553,7.1146,-0.0001,1.2947
99440,-106.7221,-1.233,-0.0104,-0.1012,-89.4326,0.0002,-0.0617,6.336,0.0,-0.0553,7.1146,-0.0001,1.2947
99457,-106.7283,-0.5957,-0.0103,-0.1105,-89.44,0.0001,-0.0696,7.045,0.0,-0.0835,7.4518,0.0001,-1.0521
99472,-106.7283,-0.5957,-0.0103,-0.1105,-89.44,0.0001,-0.0696,7.045,0.0,-0.0835,7.4518,0.0001,-1.0521
99488,-106.7283,-0.5957,-0.0103,-0.1105,-89.44,0.0001,-0.0696,7.045,0.0,-0.0835,7.4518,0.0001,-1.0521
99504,-106.7283,-0.5957,-0.0103,-0.1105,-89.44,0.0001,-0.0696,7.045,0.0,-0.0835,7.4518,0.0001,-1.0521
99520,-106.7283,-0.5957,-0.0103,-0.1105,-89.44,0.0001,-0.0696,7.045,0.0,-0.0835,7.4518,0.0001,-1.0521
99536,-106.7283,-0.5957,-0.0103,-0.1105,-89.44,0.0001,-0.0696,7.045,0.0,-0.0835,7.4518,0.0001,-1.0521
99554,-106.7356,0.1413,-0.0103,-0.1106,-89.4324,0.0001,-0.0753,7.6854,0.0,-0.0569,6.3784,-0.0001,1.042
99568,-106.7356,0.1413,-0.0103,-0.1106,-89.4324,0.0001,-0.0753,7.6854,0.0,-0.0569,6.3784,-0.0001,1.042
99584,-106.7356,0.1413,-0.0103,-0.1106,-89.4324,0.0001,-0.0753,7.6854,0.0,-0.0569,6.3784,-0.0001,1.042
99600,-106.7356,0.1413,-0.0103,-0.1106,-89.4324,0.0001,-0.0753,7.6854,0.0,-0.0569,6.3784,-0.0001,1.042
99616,-106.7356,0.1413,-0.0103,-0.1106,-89.4324,0.0001,-0.0753,7.6854,0.0,-0.0569,6.3784,-0.0001,1.042
99632,-106.7356,0.1413,-0.0103,-0.1106,-89.4324,0.0001,-0.0753,7.6854,0.0,-0.0569,6.3784,-0.0001,1.042
99649,-106.7433,0.9253,-0.0104,-0.1092,-89.4365,0.0001,-0.0822,8.317,-0.0,-0.0705,6.451,-0.0002,-0.6827
99664,-106.7433,0.9253,-0.0104,-0.1092,-89.4365,0.0001,-0.0822,8.317,-0.0,-0.0705,6.451,-0.0002,-0.6827
99680,-106.7433,0.9253,-0.0104,-0.1092,-89.4365,0.0001,-0.0822,8.317,-0.0,-0.0705,6.451,-0.0002,-0.6827
99696,-106.7433,0.9253,-0.0104,-0.1092,-89.4365,0.0001,-0.0822,8.317,-0.0,-0.0705,6.451,-0.0002,-0.6827
99712,-106.7433,0.9253,-0.0104,-0.1092,-89.4365,0.0001,-0.0822,8.317,-0.0,-0.0705,6.451,-0.0002,-0.6827
99728,-106.7433,0.9253,-0.0104,-0.1092,-89.4365,0.0001,-0.0822,8.317,-0.0,-0.0705,6.451,-0.0002,-0.6827
99744,-106.7516,1.7717,-0.0104,-0.1057,-89.4336,0.0,-0.0877,8.8983,0.0,-0.0557,5.9193,0.0002,0.3772
99760,-106.7516,1.7717,-0.0104,-0.1057,-89.4336,0.0,-0.0877,8.8983,0.0,-0.0557,5.9193,0.0002,0.3772
99776,-106.7516,1.7717,-0.0104,-0.1057,-89.4336,0.0,-0.0877,8.8983,0.0,-0.0557,5.9193,0.0002,0.3772
99792,-106.7516,1.7717,-0.0104,-0.1057,-89.4336,0.0,-0.0877,8.8983,0.0,-0.0557,5.9193,0.0002,0.3772
99808,-106.7516,1.7717,-0.0104,-0.1057,-89.4336,0.0,-0.0877,8.8983,0.0,-0.0557,5.9193,0.0002,0.3772
99824,-106.7516,1.7717,-0.0104,-0.1057,-89.4336,0.0,-0.0877,8.8983,0.0,-0.0557,5.9193,0.0002,0.3772
99842,-106.7603,2.6493,-0.0104,-0.1028,-89.4345,0.0,-0.0934,9.4681,0.0,-0.0603,5.9694,0.0001,-0.0068
99856,-106.7603,2.6493,-0.0104,-0.1028,-89.4345,0.0,-0.0934,9.4681,0.0,-0.0603,5.9694,0.0001,-0.0068
99872,-106.7603,2.6493,-0.0104,-0.1028,-89.4345,0.0,-0.0934,9.4681,0.0,-0.0603,5.9694,0.0001,-0.0068
99888,-106.7603,2.6493,-0.0104,-0.1028,-89.4345,0.0,-0.0934,9.4681,0.0,-0.0603,5.9694,0.0001,-0.0068
99904,-106.7603,2.6493,-0.0104,-0.1028,-89.4345,0.0,-0.0934,9.4681,0.0,-0.0603,5.9694,0.0001,-0.0068
99920,-106.7603,2.6493,-0.0104,-0.1028,-89.4345,0.0,-0.0934,9.4681,0.0,-0.0603,5.9694,0.0001,-0.0068
99936,-106.7603,2.6493,-0.0104,-0.1028,-89.4345,0.0,-0.0934,9.4681,0.0,-0.0603,5.9694,0.0001,-0.0068
99952,-106.7698,3.6165,-0.0104,-0.0971,-89.4345,0.0,-0.0984,9.9702,-0.0,-0.05,5.0573,-0.0001,0.0001
99968,-106.7698,3.6165,-0.0104,-0.0971,-89.4345,0.0,-0.0984,9.9702,-0.0,-0.05,5.0573,-0.0001,0.0001
99984,-106.7698,3.6165,-0.0104,-0.0971,-89.4345,0.0,-0.0984,9.9702,-0.0,-0.05,5.0573,-0.0001,0.0001
100000,-106.7698,3.6165,-0.0104,-0.0971,-89.4345,0.0,-0.0984,9.9702,-0.0,-0.05,5.0573,-0.0001,0.0001
100016,-106.7698,3.6165,-0.0104,-0.0971,-89.4345,0.0,-0.0984,9.9702,-0.0,-0.05,5.0573,-0.0001,0.0001
100034,-106.7791,4.5591,-0.0105,-0.0915,-89.4345,0.0,-0.103,10.4389,-0.0,-0.0502,5.0799,0.0,0.0001
100048,-106.7791,4.5591,-0.0105,-0.0915,-89.4345,0.0,-0.103,10.4389,-0.0,-0.0502,5.0799,0.0,0.0001
100064,-106.7791,4.5591,-0.0105,-0.0915,-89.4345,0.0,-0.103,10.4389,-0.0,-0.0502,5.0799,0.0,0.0001
100080,-106.7791,4.5591,-0.0105,-0.0915,-89.4345,0.0,-0.103,10.4389,-0.0,-0.0502,5.0799,0.0,0.0001
100096,-106.7791,4.5591,-0.0105,-0.0915,-89.4345,0.0,-0.103,10.4389,-0.0,-0.0502,5.0799,0.0,0.0001
100112,-106.7791,4.5591,-0.0105,-0.0915,-89.4345,0.0,-0.103,10.4389,-0.0,-0.0502,5.0799,0.0,0.0001
100129,-106.789,5.5553,-0.0105,-0.0873,-89.4345,0.0,-0.1074,10.88,0.0,-0.0467,4.7293,0.0001,0.0
100144,-106.789,5.5553,-0.0105,-0.0873,-89.4345,0.0,-0.1074,10.88,0.0,-0.0467,4.7293,0.0001,0.0
100160,-106.789,5.5553,-0.0105,-0.0873,-89.4345,0.0,-0.1074,10.88,0.0,-0.0467,4.7293,0.0001,0.0
100176,-106.789,5.5553,-0.0105,-0.0873,-89.4345,0.0,-0.1074,10.88,0.0,-0.0467,4.7293,0.0001,0.0
100192,-106.789,5.5553,-0.0105,-0.0873,-89.4345,0.0,-0.1074,10.88,0.0,-0.0467,4.7293,0.0001,0.0
100208,-106.789,5.5553,-0.0105,-0.0873,-89.4345,0.0,-0.1074,10.88,0.0,-0.0467,4.7293,0.0001,0.0
100226,-106.7997,6.6486,-0.0106,-0.0803,-89.4345,0.0,-0.1114,11.2814,0.0,-0.0402,4.076,-0.0,0.0003
100240,-106.7997,6.6486,-0.0106,-0.0803,-89.4345,0.0,-0.1114,11.2814,0.0,-0.0402,4.076,-0.0,0.0003
100256,-106.7997,6.6486,-0.0106,-0.0803,-89.4345,0.0,-0.1114,11.2814,0.0,-0.0402,4.076,-0.0,0.0003
100272,-106.7997,6.6486,-0.0106,-0.0803,-89.4345,0.0,-0.1114,11.2814,0.0,-0.0402,4.076,-0.0,0.0003
100288,-106.7997,6.6486,-0.0106,-0.0803,-89.4345,0.0,-0.1114,11.2814,0.0,-0.0402,4.076,-0.0,0.0003
100304,-106.7997,6.6486,-0.0106,-0.0803,-89.4345,0.0,-0.1114,11.2814,0.0,-0.0402,4.076,-0.0,0.0003
100321,-106.8102,7.7118,-0.0106,-0.0737,-89.4345,0.0,-0.1148,11.6328,-0.0,-0.0374,3.7916,-0.0001,0.0001
100336,-106.8102,7.7118,-0.0106,-0.0737,-89.4345,0.0,-0.1148,11.6328,-0.0,-0.0374,3.7916,-0.0001,0.0001
100352,-106.8102,7.7118,-0.0106,-0.0737,-89.4345,0.0,-0.1148,11.6328,-0.0,-0.0374,3.7916,-0.0001,0.0001
100368,-106.8102,7.7118,-0.0106,-0.0737,-89.4345,0.0,-0.1148,11.6328,-0.0,-0.0374,3.7916,-0.0001,0.0001
100384,-106.8102,7.7118,-0.0106,-0.0737,-89.4345,0.0,-0.1148,11.6328,-0.0,-0.0374,3.7916,-0.0001,0.0001
100400,-106.8102,7.7118,-0.0106,-0.0737,-89.4345,0.0,-0.1148,11.6328,-0.0,-0.0374,3.7916,-0.0001,0.0001
100418,-106.8209,8.7919,-0.0106,-0.069,-89.4345,0.0,-0.1181,11.9646,0.0,-0.0358,3.6295,0.0001,0.0001
100432,-106.8209,8.7919,-0.0106,-0.069,-89.4345,0.0,-0.1181,11.9646,0.0,-0.0358,3.6295,0.0001,0.0001
100448,-106.8209,8.7919,-0.0106,-0.069,-89.4345,0.0,-0.1181,11.9646,0.0,-0.0358,3.6295,0.0001,0.0001
100464,-106.8209,8.7919,-0.0106,-0.069,-89.4345,0.0,-0.1181,11.9646,0.0,-0.0358,3.6295,0.0001,0.0001
100480,-106.8209,8.7919,-0.0106,-0.069,-89.4345,0.0,-0.1181,11.9646,0.0,-0.0358,3.6295,0.0001,0.0001
100496,-106.8209,8.7919,-0.0106,-0.069,-89.4345,0.0,-0.1181,11.9646,0.0,-0.0358,3.6295,0.0001,0.0001
100512,-106.8327,9.9866,-0.0107,-0.064,-89.4345,-0.0,-0.1213,12.2939,0.0,-0.033,3.3479,-0.0,0.0002
100528,-106.8327,9.9866,-0.0107,-0.064,-89.4345,-0.0,-0.1213,12.2939,0.0,-0.033,3.3479,-0.0,0.0002
100544,-106.8327,9.9866,-0.0107,-0.064,-89.4345,-0.0,-0.1213,12.2939,0.0,-0.033,3.3479,-0.0,0.0002
100560,-106.8327,9.9866,-0.0107,-0.064,-89.4345,-0.0,-0.1213,12.2939,0.0,-0.033,3.3479,-0.0,0.0002
100576,-106.8327,9.9866,-0.0107,-0.064,-89.4345,-0.0,-0.1213,12.2939,0.0,-0.033,3.3479,-0.0,0.0002
100592,-106.8327,9.9866,-0.0107,-0.064,-89.4345,-0.0,-0.1213,12.2939,0.0,-0.033,3.3479,-0.0,0.0002
100609,-106.8447,11.2053,-0.0107,-0.0593,-89.4345,0.0,-0.1243,12.5961,-0.0,-0.0305,3.0901,-0.0001,0.0004
100624,-106.8447,11.2053,-0.0107,-0.0593,-89.4345,0.0,-0.1243,12.5961,-0.0,-0.0305,3.0901,-0.0001,0.0004
100640,-106.8447,11.2053,-0.0107,-0.0593,-89.4345,0.0,-0.1243,12.5961,-0.0,-0.0305,3.0901,-0.0001,0.0004
100656,-106.8447,11.2053,-0.0107,-0.0593,-89.4345,0.0,-0.1243,12.5961,-0.0,-0.0305,3.0901,-0.0001,0.0004
100672,-106.8447,11.2053,-0.0107,-0.0593,-89.4345,0.0,-0.1243,12.5961,-0.0,-0.0305,3.0901,-0.0001,0.0004
100688,-106.8447,11.2053,-0.0107,-0.0593,-89.4345,0.0,-0.1243,12.5961,-0.0,-0.0305,3.0901,-0.0001,0.0004
100720,-106.8571,12.4648,-0.0108,-0.0535,-89.4345,0.0,-0.1268,12.8448,-0.0,-0.0248,2.5154,0.0,0.0009
100736,-106.8571,12.4648,-0.0108,-0.0535,-89.4345,0.0,-0.1268,12.8448,-0.0,-0.0248,2.5154,0.0,0.0009
100752,-106.8571,12.4648,-0.0108,-0.0535,-89.4345,0.0,-0.1268,12.8448,-0.0,-0.0248,2.5154,0.0,0.0009
100768,-106.8571,12.4648,-0.0108,-0.0535,-89.4345,0.0,-0.1268,12.8448,-0.0,-0.0248,2.5154,0.0,0.0009
100784,-106.8571,12.4648,-0.0108,-0.0535,-89.4345,0.0,-0.1268,12.8448,-0.0,-0.0248,2.5154,0.0,0.0009
100802,-106.8955,13.6814,-0.0108,-0.0377,-90.6698,0.114,-0.9065,12.8463,0.0009,-8.2507,0.0158,0.01,-28.5602
100816,-106.8955,13.6814,-0.0108,-0.0377,-90.6698,0.114,-0.9065,12.8463,0.0009,-8.2507,0.0158,0.01,-28.5602
100832,-106.8955,13.6814,-0.0108,-0.0377,-90.6698,0.114,-0.9065,12.8463,0.0009,-8.2507,0.0158,0.01,-28.5602
100848,-106.8955,13.6814,-0.0108,-0.0377,-90.6698,0.114,-0.9065,12.8463,0.0009,-8.2507,0.0158,0.01,-28.5602
100864,-106.8955,13.6814,-0.0108,-0.0377,-90.6698,0.114,-0.9065,12.8463,0.0009,-8.2507,0.0158,0.01,-28.5602
100880,-106.8955,13.6814,-0.0108,-0.0377,-90.6698,0.114,-0.9065,12.8463,0.0009,-8.2507,0.0158,0.01,-28.5602
100898,-106.9988,14.9193,-0.011,-0.0024,-95.9629,0.2546,-1.855,12.5835,0.0012,-9.7249,-2.6946,0.0023,-77.3846
100912,-106.9988,14.9193,-0.011,-0.0024,-95.9629,0.2546,-1.855,12.5835,0.0012,-9.7249,-2.6946,0.0023,-77.3846
100928,-106.9988,14.9193,-0.011,-0.0024,-95.9629,0.2546,-1.855,12.5835,0.0012,-9.7249,-2.6946,0.0023,-77.3846
100944,-106.9988,14.9193,-0.011,-0.0024,-95.9629,0.2546,-1.855,12.5835,0.0012,-9.7249,-2.6946,0.0023,-77.3846
100960,-106.9988,14.9193,-0.011,-0.0024,-95.9629,0.2546,-1.855,12.5835,0.0012,-9.7249,-2.6946,0.0023,-77.3846
100976,-106.9988,14.9193,-0.011,-0.0024,-95.9629,0.2546,-1.855,12.5835,0.0012,-9.7249,-2.6946,0.0023,-77.3846
100994,-107.1278,16.0646,-0.0111,0.0254,-105.9038,0.2608,-2.3102,12.3156,0.0001,-4.8833,-2.8733,-0.0117,-131.4198
101008,-107.1278,16.0646,-0.0111,0.0254,-105.9038,0.2608,-2.3102,12.3156,0.0001,-4.8833,-2.8733,-0.0117,-131.4198
101024,-107.1278,16.0646,-0.0111,0.0254,-105.9038,0.2608,-2.3102,12.3156,0.0001,-4.8833,-2.8733,-0.0117,-131.4198
101040,-107.1278,16.0646,-0.0111,0.0254,-105.9038,0.2608,-2.3102,12.3156,0.0001,-4.8833,-2.8733,-0.0117,-131.4198
101056,-107.1278,16.0646,-0.0111,0.0254,-105.9038,0.2608,-2.3102,12.3156,0.0001,-4.8833,-2.8733,-0.0117,-131.4198
101072,-107.1278,16.0646,-0.0111,0.0254,-105.9038,0.2608,-2.3102,12.3156,0.0001,-4.8833,-2.8733,-0.0117,-131.4198
101089,-107.2354,17.1758,-0.0111,0.0163,-121.1924,0.1337,-2.0217,12.1879,-0.0011,3.0523,-1.3506,-0.0122,-185.0455
101104,-107.2354,17.1758,-0.0111,0.0163,-121.1924,0.1337,-2.0217,12.1879,-0.0011,3.0523,-1.3506,-0.0122,-185.0455
101120,-107.2354,17.1758,-0.0111,0.0163,-121.1924,0.1337,-2.0217,12.1879,-0.0011,3.0523,-1.3506,-0.0122,-185.0455
101136,-107.2354,17.1758,-0.0111,0.0163,-121.1924,0.1337,-2.0217,12.1879,-0.0011,3.0523,-1.3506,-0.0122,-185.0455
101152,-107.2354,17.1758,-0.0111,0.0163,-121.1924,0.1337,-2.0217,12.1879,-0.0011,3.0523,-1.3506,-0.0122,-185.0455
101168,-107.2354,17.1758,-0.0111,0.0163,-121.1924,0.1337,-2.0217,12.1879,-0.0011,3.0523,-1.3506,-0.0122,-185.0455
101186,-107.2404,18.2664,-0.0106,-0.0736,-140.766,-0.1298,-0.3279,12.1522,0.0004,17.431,-0.3682,0.0153,-211.0965
101200,-107.2404,18.2664,-0.0106,-0.0736,-140.766,-0.1298,-0.3279,12.1522,0.0004,17.431,-0.3682,0.0153,-211.0965
101216,-107.2404,18.2664,-0.0106,-0.0736,-140.766,-0.1298,-0.3279,12.1522,0.0004,17.431,-0.3682,0.0153,-211.0965
101232,-107.2404,18.2664,-0.0106,-0.0736,-140.766,-0.1298,-0.3279,12.1522,0.0004,17.431,-0.3682,0.0153,-211.0965
101248,-107.2404,18.2664,-0.0106,-0.0736,-140.766,-0.1298,-0.3279,12.1522,0.0004,17.431,-0.3682,0.0153,-211.0965
101264,-107.2404,18.2664,-0.0106,-0.0736,-140.766,-0.1298,-0.3279,12.1522,0.0004,17.431,-0.3682,0.0153,-211.0965
101282,-107.0775,19.2787,-0.0095,-0.1921,-161.8593,-0.3857,1.9388,11.4988,0.0021,23.3947,-6.7436,0.0175,-222.1477
101296,-107.0775,19.2787,-0.0095,-0.1921,-161.8593,-0.3857,1.9388,11.4988,0.0021,23.3947,-6.7436,0.0175,-222.1477
101328,-107.0775,19.2787,-0.0095,-0.1921,-161.8593,-0.3857,1.9388,11.4988,0.0021,23.3947,-6.7436,0.0175,-222.1477
101344,-107.0775,19.2787,-0.0095,-0.1921,-161.8593,-0.3857,1.9388,11.4988,0.0021,23.3947,-6.7436,0.0175,-222.1477
101360,-107.0775,19.2787,-0.0095,-0.1921,-161.8593,-0.3857,1.9388,11.4988,0.0021,23.3947,-6.7436,0.0175,-222.1477
101377,-106.7974,20.0924,-0.0088,-0.2555,177.6845,-0.6307,3.3858,9.5876,0.0024,15.84,-20.9198,0.0036,-224.5995
101392,-106.7974,20.0924,-0.0088,-0.2555,177.6845,-0.6307,3.3858,9.5876,0.0024,15.84,-20.9198,0.0036,-224.5995
101408,-106.7974,20.0924,-0.0088,-0.2555,177.6845,-0.6307,3.3858,9.5876,0.0024,15.84,-20.9198,0.0036,-224.5995
101424,-106.7974,20.0924,-0.0088,-0.2555,177.6845,-0.6307,3.3858,9.5876,0.0024,15.84,-20.9198,0.0036,-224.5995
101440,-106.7974,20.0924,-0.0088,-0.2555,177.6845,-0.6307,3.3858,9.5876,0.0024,15.84,-20.9198,0.0036,-224.5995
101456,-106.5495,20.7046,-0.0091,-0.2099,158.559,-0.8349,2.5557,7.5748,-0.0028,-9.3026,-22.5547,-0.0592,-203.095
101472,-106.5495,20.7046,-0.0091,-0.2099,158.559,-0.8349,2.5557,7.5748,-0.0028,-9.3026,-22.5547,-0.0592,-203.095
101488,-106.5495,20.7046,-0.0091,-0.2099,158.559,-0.8349,2.5557,7.5748,-0.0028,-9.3026,-22.5547,-0.0592,-203.095
101504,-106.5495,20.7046,-0.0091,-0.2099,158.559,-0.8349,2.5557,7.5748,-0.0028,-9.3026,-22.5547,-0.0592,-203.095
101520,-106.5495,20.7046,-0.0091,-0.2099,158.559,-0.8349,2.5557,7.5748,-0.0028,-9.3026,-22.5547,-0.0592,-203.095
101536,-106.5495,20.7046,-0.0091,-0.2099,158.559,-0.8349,2.5557,7.5748,-0.0028,-9.3026,-22.5547,-0.0592,-203.095
101554,-106.4802,21.2033,-0.0098,-0.0839,141.7448,-0.9528,0.5984,6.5835,0.0022,-22.2479,-11.2683,0.057,-174.7162
101568,-106.4802,21.2033,-0.0098,-0.0839,141.7448,-0.9528,0.5984,6.5835,0.0022,-22.2479,-11.2683,0.057,-174.7162
101584,-106.4802,21.2033,-0.0098,-0.0839,141.7448,-0.9528,0.5984,6.5835,0.0022,-22.2479,-11.2683,0.057,-174.7162
101600,-106.4802,21.2033,-0.0098,-0.0839,141.7448,-0.9528,0.5984,6.5835,0.0022,-22.2479,-11.2683,0.057,-174.7162
101616,-106.4802,21.2033,-0.0098,-0.0839,141.7448,-0.9528,0.5984,6.5835,0.0022,-22.2479,-11.2683,0.057,-174.7162
101632,-106.5992,21.7365,-0.011,0.0768,128.9704,-0.8611,-1.4676,7.143,-0.0006,-23.5653,6.3816,-0.0318,-122.2495
101648,-106.5992,21.7365,-0.011,0.0768,128.9704,-0.8611,-1.4676,7.143,-0.0006,-23.5653,6.3816,-0.0318,-122.2495
101664,-106.5992,21.7365,-0.011,0.0768,128.9704,-0.8611,-1.4676,7.143,-0.0006,-23.5653,6.3816,-0.0318,-122.2495
101680,-106.5992,21.7365,-0.011,0.0768,128.9704,-0.8611,-1.4676,7.143,-0.0006,-23.5653,6.3816,-0.0318,-122.2495
101696,-106.5992,21.7365,-0.011,0.0768,128.9704,-0.8611,-1.4676,7.143,-0.0006,-23.5653,6.3816,-0.0318,-122.2495
101712,-106.5992,21.7365,-0.011,0.0768,128.9704,-0.8611,-1.4676,7.143,-0.0006,-23.5653,6.3816,-0.0318,-122.2495
101730,-106.8233,22.3727,-0.0118,0.1766,119.8816,-0.5904,-2.0566,8.1409,-0.0022,-6.7566,11.4481,-0.0179,-96.5106
101744,-106.8233,22.3727,-0.0118,0.1766,119.8816,-0.5904,-2.0566,8.1409,-0.0022,-6.7566,11.4481,-0.0179,-96.5106
101760,-106.8233,22.3727,-0.0118,0.1766,119.8816,-0.5904,-2.0566,8.1409,-0.0022,-6.7566,11.4481,-0.0179,-96.5106
101776,-106.8233,22.3727,-0.0118,0.1766,119.8816,-0.5904,-2.0566,8.1409,-0.0022,-6.7566,11.4481,-0.0179,-96.5106
101792,-106.8233,22.3727,-0.0118,0.1766,119.8816,-0.5904,-2.0566,8.1409,-0.0022,-6.7566,11.4481,-0.0179,-96.5106
101808,-107.0338,23.1185,-0.0122,0.1884,111.3924,-0.206,-1.4052,8.9486,-0.0034,7.2749,9.0208,-0.0133,-93.8101
101840,-107.0338,23.1185,-0.0122,0.1884,111.3924,-0.206,-1.4052,8.9486,-0.0034,7.2749,9.0208,-0.0133,-93.8101
101856,-107.0338,23.1185,-0.0122,0.1884,111.3924,-0.206,-1.4052,8.9486,-0.0034,7.2749,9.0208,-0.0133,-93.8101
101872,-107.0338,23.1185,-0.0122,0.1884,111.3924,-0.206,-1.4052,8.9486,-0.0034,7.2749,9.0208,-0.0133,-93.8101
101888,-107.0338,23.1185,-0.0122,0.1884,111.3924,-0.206,-1.4052,8.9486,-0.0034,7.2749,9.0208,-0.0133,-93.8101
101906,-107.2137,23.9723,-0.0123,0.168,104.3807,-0.0695,-1.6582,9.4345,-0.0018,-2.6974,5.1793,0.0164,-49.346
101920,-107.2137,23.9723,-0.0123,0.168,104.3807,-0.0695,-1.6582,9.4345,-0.0018,-2.6974,5.1793,0.0164,-49.346
101936,-107.2137,23.9723,-0.0123,0.168,104.3807,-0.0695,-1.6582,9.4345,-0.0018,-2.6974,5.1793,0.0164,-49.346
101952,-107.2137,23.9723,-0.0123,0.168,104.3807,-0.0695,-1.6582,9.4345,-0.0018,-2.6974,5.1793,0.0164,-49.346
101968,-107.2137,23.9723,-0.0123,0.168,104.3807,-0.0695,-1.6582,9.4345,-0.0018,-2.6974,5.1793,0.0164,-49.346
101984,-107.2137,23.9723,-0.0123,0.168,104.3807,-0.0695,-1.6582,9.4345,-0.0018,-2.6974,5.1793,0.0164,-49.346
102001,-107.4126,24.8678,-0.012,0.1239,101.9331,-0.1072,-2.0089,9.5858,0.0002,-3.71,1.6011,0.0213,-11.8803
102016,-107.4126,24.8678,-0.012,0.1239,101.9331,-0.1072,-2.0089,9.5858,0.0002,-3.71,1.6011,0.0213,-11.8803
102032,-107.4126,24.8678,-0.012,0.1239,101.9331,-0.1072,-2.0089,9.5858,0.0002,-3.71,1.6011,0.0213,-11.8803
102048,-107.4126,24.8678,-0.012,0.1239,101.9331,-0.1072,-2.0089,9.5858,0.0002,-3.71,1.6011,0.0213,-11.8803
102064,-107.4126,24.8678,-0.012,0.1239,101.9331,-0.1072,-2.0089,9.5858,0.0002,-3.71,1.6011,0.0213,-11.8803
102080,-107.4126,24.8678,-0.012,0.1239,101.9331,-0.1072,-2.0089,9.5858,0.0002,-3.71,1.6011,0.0213,-11.8803
102097,-107.6065,25.7798,-0.0117,0.083,101.3089,-0.0649,-1.9945,9.7059,-0.0001,0.1517,1.27,-0.0031,-2.634
102112,-107.6065,25.7798,-0.0117,0.083,101.3089,-0.0649,-1.9945,9.7059,-0.0001,0.1517,1.27,-0.0031,-2.634
102128,-107.6065,25.7798,-0.0117,0.083,101.3089,-0.0649,-1.9945,9.7059,-0.0001,0.1517,1.27,-0.0031,-2.634
102144,-107.6065,25.7798,-0.0117,0.083,101.3089,-0.0649,-1.9945,9.7059,-0.0001,0.1517,1.27,-0.0031,-2.634
102160,-107.6065,25.7798,-0.0117,0.083,101.3089,-0.0649,-1.9945,9.7059,-0.0001,0.1517,1.27,-0.0031,-2.634
102176,-107.6065,25.7798,-0.0117,0.083,101.3089,-0.0649,-1.9945,9.7059,-0.0001,0.1517,1.27,-0.0031,-2.634
102192,-107.7852,26.6561,-0.0115,0.0543,101.1335,-0.0302,-1.9613,9.7685,-0.0002,0.3696,0.6962,-0.0008,-1.8921
102208,-107.7852,26.6561,-0.0115,0.0543,101.1335,-0.0302,-1.9613,9.7685,-0.0002,0.3696,0.6962,-0.0008,-1.8921
102224,-107.7852,26.6561,-0.0115,0.0543,101.1335,-0.0302,-1.9613,9.7685,-0.0002,0.3696,0.6962,-0.0008,-1.8921
102240,-107.7852,26.6561,-0.0115,0.0543,101.1335,-0.0302,-1.9613,9.7685,-0.0002,0.3696,0.6962,-0.0008,-1.8921
102256,-107.7852,26.6561,-0.0115,0.0543,101.1335,-0.0302,-1.9613,9.7685,-0.0002,0.3696,0.6962,-0.0008,-1.8921
102273,-107.9651,27.559,-0.0114,0.0367,101.081,-0.0113,-1.947,9.8435,-0.0001,0.1553,0.8146,0.0012,-0.9471
102288,-107.9651,27.559,-0.0114,0.0367,101.081,-0.0113,-1.947,9.8435,-0.0001,0.1553,0.8146,0.0012,-0.9471
102304,-107.9651,27.559,-0.0114,0.0367,101.081,-0.0113,-1.947,9.8435,-0.0001,0.1553,0.8146,0.0012,-0.9471
102320,-107.9651,27.559,-0.0114,0.0367,101.081,-0.0113,-1.947,9.8435,-0.0001,0.1553,0.8146,0.0012,-0.9471
102336,-107.9651,27.559,-0.0114,0.0367,101.081,-0.0113,-1.947,9.8435,-0.0001,0.1553,0.8146,0.0012,-0.9471
102352,-107.9651,27.559,-0.0114,0.0367,101.081,-0.0113,-1.947,9.8435,-0.0001,0.1553,0.8146,0.0012,-0.9471
102368,-107.9651,27.559,-0.0114,0.0367,101.081,-0.0113,-1.947,9.8435,-0.0001,0.1553,0.8146,0.0012,-0.9471
102384,-108.1566,28.5309,-0.0113,0.0246,101.0644,-0.0031,-1.9427,9.8913,0.0,0.0439,0.4854,0.0008,-0.8617
102400,-108.1566,28.5309,-0.0113,0.0246,101.0644,-0.0031,-1.9427,9.8913,0.0,0.0439,0.4854,0.0008,-0.8617
102416,-108.1566,28.5309,-0.0113,0.0246,101.0644,-0.0031,-1.9427,9.8913,0.0,0.0439,0.4854,0.0008,-0.8617
102432,-108.1566,28.5309,-0.0113,0.0246,101.0644,-0.0031,-1.9427,9.8913,0.0,0.0439,0.4854,0.0008,-0.8617
102448,-108.1566,28.5309,-0.0113,0.0246,101.0644,-0.0031,-1.9427,9.8913,0.0,0.0439,0.4854,0.0008,-0.8617
102464,-108.1566,28.5309,-0.0113,0.0246,101.0644,-0.0031,-1.9427,9.8913,0.0,0.0439,0.4854,0.0008,-0.8617
102480,-108.3416,29.4747,-0.0113,0.018,101.0601,-0.0004,-1.9475,9.9445,0.0,-0.0513,0.5592,0.0004,-0.7167
102496,-108.3416,29.4747,-0.0113,0.018,101.0601,-0.0004,-1.9475,9.9445,0.0,-0.0513,0.5592,0.0004,-0.7167
102512,-108.3416,29.4747,-0.0113,0.018,101.0601,-0.0004,-1.9475,9.9445,0.0,-0.0513,0.5592,0.0004,-0.7167
102528,-108.3416,29.4747,-0.0113,0.018,101.0601,-0.0004,-1.9475,9.9445,0.0,-0.0513,0.5592,0.0004,-0.7167
102544,-108.3416,29.4747,-0.0113,0.018,101.0601,-0.0004,-1.9475,9.9445,0.0,-0.0513,0.5592,0.0004,-0.7167
102560,-108.3416,29.4747,-0.0113,0.018,101.0601,-0.0004,-1.9475,9.9445,0.0,-0.0513,0.5592,0.0004,-0.7167
102576,-108.5315,30.4452,-0.0113,0.0139,101.0586,0.0003,-1.9541,9.9893,0.0,-0.0677,0.4595,-0.0,-0.7404
102592,-108.5315,30.4452,-0.0113,0.0139,101.0586,0.0003,-1.9541,9.9893,0.0,-0.0677,0.4595,-0.0,-0.7404
102608,-108.5315,30.4452,-0.0113,0.0139,101.0586,0.0003,-1.9541,9.9893,0.0,-0.0677,0.4595,-0.0,-0.7404
102624,-108.5315,30.4452,-0.0113,0.0139,101.0586,0.0003,-1.9541,9.9893,0.0,-0.0677,0.4595,-0.0,-0.7404
102640,-108.5315,30.4452,-0.0113,0.0139,101.0586,0.0003,-1.9541,9.9893,0.0,-0.0677,0.4595,-0.0,-0.7404
102656,-108.5315,30.4452,-0.0113,0.0139,101.0586,0.0003,-1.9541,9.9893,0.0,-0.0677,0.4595,-0.0,-0.7404
102674,-108.7271,31.4453,-0.0112,0.011,101.058,0.0004,-1.961,10.0286,0.0,-0.0691,0.3935,-0.0002,-0.7871
102688,-108.7271,31.4453,-0.0112,0.011,101.058,0.0004,-1.961,10.0286,0.0,-0.0691,0.3935,-0.0002,-0.7871
102704,-108.7271,31.4453,-0.0112,0.011,101.058,0.0004,-1.961,10.0286,0.0,-0.0691,0.3935,-0.0002,-0.7871
102720,-108.7271,31.4453,-0.0112,0.011,101.058,0.0004,-1.961,10.0286,0.0,-0.0691,0.3935,-0.0002,-0.7871
102736,-108.7271,31.4453,-0.0112,0.011,101.058,0.0004,-1.961,10.0286,0.0,-0.0691,0.3935,-0.0002,-0.7871
102752,-108.7271,31.4453,-0.0112,0.011,101.058,0.0004,-1.961,10.0286,0.0,-0.0691,0.3935,-0.0002,-0.7871
102768,-108.9077,32.369,-0.0112,0.0105,101.0586,0.0003,-1.9718,10.0853,0.0,-0.117,0.6182,-0.0001,-0.5874
102784,-108.9077,32.369,-0.0112,0.0105,101.0586,0.0003,-1.9718,10.0853,0.0,-0.117,0.6182,-0.0001,-0.5874
102800,-108.9077,32.369,-0.0112,0.0105,101.0586,0.0003,-1.9718,10.0853,0.0,-0.117,0.6182,-0.0001,-0.5874
102816,-108.9077,32.369,-0.0112,0.0105,101.0586,0.0003,-1.9718,10.0853,0.0,-0.117,0.6182,-0.0001,-0.5874
102832,-108.9077,32.369,-0.0112,0.0105,101.0586,0.0003,-1.9718,10.0853,0.0,-0.117,0.6182,-0.0001,-0.5874
102849,-108.9077,32.369,-0.0112,0.0105,101.0586,0.0003,-1.9718,10.0853,0.0,-0.117,0.6182,-0.0001,-0.5874
102864,-109.0995,33.3499,-0.0112,0.0097,101.0582,0.0002,-1.9795,10.1255,0.0,-0.0801,0.4137,-0.0,-0.704
102880,-109.0995,33.3499,-0.0112,0.0097,101.0582,0.0002,-1.9795,10.1255,0.0,-0.0801,0.4137,-0.0,-0.704
102896,-109.0995,33.3499,-0.0112,0.0097,101.0582,0.0002,-1.9795,10.1255,0.0,-0.0801,0.4137,-0.0,-0.704
102912,-109.0995,33.3499,-0.0112,0.0097,101.0582,0.0002,-1.9795,10.1255,0.0,-0.0801,0.4137,-0.0,-0.704
102928,-109.0995,33.3499,-0.0112,0.0097,101.0582,0.0002,-1.9795,10.1255,0.0,-0.0801,0.4137,-0.0,-0.704
102944,-109.0995,33.3499,-0.0112,0.0097,101.0582,0.0002,-1.9795,10.1255,0.0,-0.0801,0.4137,-0.0,-0.704
102961,-109.2957,34.3534,-0.0112,0.0086,101.0581,0.0001,-1.9867,10.1624,0.0,-0.0728,0.3728,-0.0001,-0.741
102976,-109.2957,34.3534,-0.0112,0.0086,101.0581,0.0001,-1.9867,10.1624,0.0,-0.0728,0.3728,-0.0001,-0.741
102992,-109.2957,34.3534,-0.0112,0.0086,101.0581,0.0001,-1.9867,10.1624,0.0,-0.0728,0.3728,-0.0001,-0.741
103008,-109.2957,34.3534,-0.0112,0.0086,101.0581,0.0001,-1.9867,10.1624,0.0,-0.0728,0.3728,-0.0001,-0.741
