timestamp,x,y,z,pitch,yaw,roll,vx,vy,vz,ax,ay,az,yaw_rate
72393,-106.6867,-4.8475,-0.0796,0.0,-89.3578,0.0,-0.0,-0.0,0.0596,-0.0,-0.0,6.7318,0.0
72409,-106.6867,-4.8475,-0.0796,0.0,-89.3578,0.0,-0.0,-0.0,0.0596,-0.0,-0.0,6.7318,0.0
72425,-106.6867,-4.8475,-0.0796,0.0,-89.3578,0.0,-0.0,-0.0,0.0596,-0.0,-0.0,6.7318,0.0
72441,-106.6867,-4.8475,-0.0796,0.0,-89.3578,0.0,-0.0,-0.0,0.0596,-0.0,-0.0,6.7318,0.0
72457,-106.6867,-4.8475,-0.0796,0.0,-89.3578,0.0,-0.0,-0.0,0.0596,-0.0,-0.0,6.7318,0.0
72473,-106.6867,-4.8475,-0.0796,0.0,-89.3578,0.0,-0.0,-0.0,0.0596,-0.0,-0.0,6.7318,0.0
72489,-106.6867,-4.8475,-0.0796,0.0,-89.3578,0.0,-0.0,-0.0,0.0596,-0.0,-0.0,6.7318,0.0
72505,-106.6867,-4.8475,-0.0796,0.0,-89.3578,0.0,-0.0,-0.0,0.0596,-0.0,-0.0,6.7318,0.0
72521,-106.6867,-4.8475,-0.0796,0.0,-89.3578,0.0,-0.0,-0.0,0.0596,-0.0,-0.0,6.7318,0.0
72537,-106.6867,-4.8475,-0.0796,0.0,-89.3578,0.0,-0.0,-0.0,0.0596,-0.0,-0.0,6.7318,0.0
72553,-106.6867,-4.8475,-0.0796,0.0,-89.3578,0.0,-0.0,-0.0,0.0596,-0.0,-0.0,6.7318,0.0
72569,-106.6867,-4.8456,-0.06,-0.0017,-89.3578,0.0,-0.0005,0.0415,0.2364,-0.0026,0.2318,0.9884,0.0001
72585,-106.6867,-4.8456,-0.06,-0.0017,-89.3578,0.0,-0.0005,0.0415,0.2364,-0.0026,0.2318,0.9884,0.0001
72601,-106.6867,-4.8456,-0.06,-0.0017,-89.3578,0.0,-0.0005,0.0415,0.2364,-0.0026,0.2318,0.9884,0.0001
72617,-106.6867,-4.8456,-0.06,-0.0017,-89.3578,0.0,-0.0005,0.0415,0.2364,-0.0026,0.2318,0.9884,0.0001
72633,-106.6867,-4.8456,-0.06,-0.0017,-89.3578,0.0,-0.0005,0.0415,0.2364,-0.0026,0.2318,0.9884,0.0001
72649,-106.6867,-4.8456,-0.06,-0.0017,-89.3578,0.0,-0.0005,0.0415,0.2364,-0.0026,0.2318,0.9884,0.0001
72665,-106.6867,-4.8456,-0.06,-0.0017,-89.3578,0.0,-0.0005,0.0415,0.2364,-0.0026,0.2318,0.9884,0.0001
72681,-106.6867,-4.8456,-0.06,-0.0017,-89.3578,0.0,-0.0005,0.0415,0.2364,-0.0026,0.2318,0.9884,0.0001
72698,-106.6868,-4.8408,-0.039,-0.005,-89.3577,0.0,-0.0012,0.1059,0.1772,-0.0053,0.4698,-0.4321,0.0044
72713,-106.6868,-4.8408,-0.039,-0.005,-89.3577,0.0,-0.0012,0.1059,0.1772,-0.0053,0.4698,-0.4321,0.0044
72729,-106.6868,-4.8408,-0.039,-0.005,-89.3577,0.0,-0.0012,0.1059,0.1772,-0.0053,0.4698,-0.4321,0.0044
72745,-106.6868,-4.8408,-0.039,-0.005,-89.3577,0.0,-0.0012,0.1059,0.1772,-0.0053,0.4698,-0.4321,0.0044
72761,-106.6868,-4.8408,-0.039,-0.005,-89.3577,0.0,-0.0012,0.1059,0.1772,-0.0053,0.4698,-0.4321,0.0044
72777,-106.6868,-4.8408,-0.039,-0.005,-89.3577,0.0,-0.0012,0.1059,0.1772,-0.0053,0.4698,-0.4321,0.0044
72795,-106.6872,-4.8039,-0.0258,-0.0301,-89.3584,0.0,-0.0069,0.6139,0.1054,-0.0597,5.3,-0.7486,-0.0432
72809,-106.6872,-4.8039,-0.0258,-0.0301,-89.3584,0.0,-0.0069,0.6139,0.1054,-0.0597,5.3,-0.7486,-0.0432
72825,-106.6872,-4.8039,-0.0258,-0.0301,-89.3584,0.0,-0.0069,0.6139,0.1054,-0.0597,5.3,-0.7486,-0.0432
72841,-106.6872,-4.8039,-0.0258,-0.0301,-89.3584,0.0,-0.0069,0.6139,0.1054,-0.0597,5.3,-0.7486,-0.0432
72857,-106.6872,-4.8039,-0.0258,-0.0301,-89.3584,0.0,-0.0069,0.6139,0.1054,-0.0597,5.3,-0.7486,-0.0432
72873,-106.6872,-4.8039,-0.0258,-0.0301,-89.3584,0.0,-0.0069,0.6139,0.1054,-0.0597,5.3,-0.7486,-0.0432
72890,-106.688,-4.7283,-0.0185,-0.0465,-89.3607,0.0,-0.0104,0.9222,0.0578,-0.0378,3.3344,-0.5145,0.079
72905,-106.688,-4.7283,-0.0185,-0.0465,-89.3607,0.0,-0.0104,0.9222,0.0578,-0.0378,3.3344,-0.5145,0.079
72921,-106.688,-4.7283,-0.0185,-0.0465,-89.3607,0.0,-0.0104,0.9222,0.0578,-0.0378,3.3344,-0.5145,0.079
72937,-106.688,-4.7283,-0.0185,-0.0465,-89.3607,0.0,-0.0104,0.9222,0.0578,-0.0378,3.3344,-0.5145,0.079
72953,-106.688,-4.7283,-0.0185,-0.0465,-89.3607,0.0,-0.0104,0.9222,0.0578,-0.0378,3.3344,-0.5145,0.079
72969,-106.688,-4.7283,-0.0185,-0.0465,-89.3607,0.0,-0.0104,0.9222,0.0578,-0.0378,3.3344,-0.5145,0.079
72987,-106.689,-4.6294,-0.0143,-0.0448,-89.3859,0.0003,-0.0173,1.2141,0.034,-0.0726,3.0784,-0.2509,2.2343
73001,-106.689,-4.6294,-0.0143,-0.0448,-89.3859,0.0003,-0.0173,1.2141,0.034,-0.0726,3.0784,-0.2509,2.2343
73017,-106.689,-4.6294,-0.0143,-0.0448,-89.3859,0.0003,-0.0173,1.2141,0.034,-0.0726,3.0784,-0.2509,2.2343
73033,-106.689,-4.6294,-0.0143,-0.0448,-89.3859,0.0003,-0.0173,1.2141,0.034,-0.0726,3.0784,-0.2509,2.2343
73049,-106.689,-4.6294,-0.0143,-0.0448,-89.3859,0.0003,-0.0173,1.2141,0.034,-0.0726,3.0784,-0.2509,2.2343
73065,-106.689,-4.6294,-0.0143,-0.0448,-89.3859,0.0003,-0.0173,1.2141,0.034,-0.0726,3.0784,-0.2509,2.2343
73083,-106.691,-4.5162,-0.0124,-0.0312,-89.318,0.0002,-0.0147,1.1862,0.013,0.0265,-0.283,-0.213,0.0833
73097,-106.691,-4.5162,-0.0124,-0.0312,-89.318,0.0002,-0.0147,1.1862,0.013,0.0265,-0.283,-0.213,0.0833
73113,-106.691,-4.5162,-0.0124,-0.0312,-89.318,0.0002,-0.0147,1.1862,0.013,0.0265,-0.283,-0.213,0.0833
73129,-106.691,-4.5162,-0.0124,-0.0312,-89.318,0.0002,-0.0147,1.1862,0.013,0.0265,-0.283,-0.213,0.0833
73145,-106.691,-4.5162,-0.0124,-0.0312,-89.318,0.0002,-0.0147,1.1862,0.013,0.0265,-0.283,-0.213,0.0833
73161,-106.691,-4.5162,-0.0124,-0.0312,-89.318,0.0002,-0.0147,1.1862,0.013,0.0265,-0.283,-0.213,0.0833
73179,-106.6921,-4.4001,-0.0116,-0.0244,-89.3338,-0.0007,-0.0128,1.429,0.0054,0.0185,2.466,-0.0773,0.8848
73193,-106.6921,-4.4001,-0.0116,-0.0244,-89.3338,-0.0007,-0.0128,1.429,0.0054,0.0185,2.466,-0.0773,0.8848
73209,-106.6921,-4.4001,-0.0116,-0.0244,-89.3338,-0.0007,-0.0128,1.429,0.0054,0.0185,2.466,-0.0773,0.8848
73225,-106.6921,-4.4001,-0.0116,-0.0244,-89.3338,-0.0007,-0.0128,1.429,0.0054,0.0185,2.466,-0.0773,0.8848
73241,-106.6921,-4.4001,-0.0116,-0.0244,-89.3338,-0.0007,-0.0128,1.429,0.0054,0.0185,2.466,-0.0773,0.8848
73257,-106.6921,-4.4001,-0.0116,-0.0244,-89.3338,-0.0007,-0.0128,1.429,0.0054,0.0185,2.466,-0.0773,0.8848
73275,-106.6941,-4.2527,-0.0112,-0.0379,-89.291,0.0,-0.0208,1.7742,0.0024,-0.0811,3.5215,-0.0306,0.0734
73289,-106.6941,-4.2527,-0.0112,-0.0379,-89.291,0.0,-0.0208,1.7742,0.0024,-0.0811,3.5215,-0.0306,0.0734
73305,-106.6941,-4.2527,-0.0112,-0.0379,-89.291,0.0,-0.0208,1.7742,0.0024,-0.0811,3.5215,-0.0306,0.0734
73321,-106.6941,-4.2527,-0.0112,-0.0379,-89.291,0.0,-0.0208,1.7742,0.0024,-0.0811,3.5215,-0.0306,0.0734
73337,-106.6941,-4.2527,-0.0112,-0.0379,-89.291,0.0,-0.0208,1.7742,0.0024,-0.0811,3.5215,-0.0306,0.0734
73353,-106.6941,-4.2527,-0.0112,-0.0379,-89.291,0.0,-0.0208,1.7742,0.0024,-0.0811,3.5215,-0.0306,0.0734
73370,-106.6962,-4.0757,-0.0109,-0.0496,-89.295,0.0003,-0.0259,2.1091,0.0011,-0.054,3.5504,-0.0131,0.2288
73385,-106.6962,-4.0757,-0.0109,-0.0496,-89.295,0.0003,-0.0259,2.1091,0.0011,-0.054,3.5504,-0.0131,0.2288
73401,-106.6962,-4.0757,-0.0109,-0.0496,-89.295,0.0003,-0.0259,2.1091,0.0011,-0.054,3.5504,-0.0131,0.2288
73417,-106.6962,-4.0757,-0.0109,-0.0496,-89.295,0.0003,-0.0259,2.1091,0.0011,-0.054,3.5504,-0.0131,0.2288
73433,-106.6962,-4.0757,-0.0109,-0.0496,-89.295,0.0003,-0.0259,2.1091,0.0011,-0.054,3.5504,-0.0131,0.2288
73449,-106.6962,-4.0757,-0.0109,-0.0496,-89.295,0.0003,-0.0259,2.1091,0.0011,-0.054,3.5504,-0.0131,0.2288
73467,-106.6985,-3.8531,-0.0107,-0.0706,-89.3182,-0.0009,-0.0253,2.6496,0.0006,0.0064,5.8812,-0.0063,2.6602
73481,-106.6985,-3.8531,-0.0107,-0.0706,-89.3182,-0.0009,-0.0253,2.6496,0.0006,0.0064,5.8812,-0.0063,2.6602
73497,-106.6985,-3.8531,-0.0107,-0.0706,-89.3182,-0.0009,-0.0253,2.6496,0.0006,0.0064,5.8812,-0.0063,2.6602
73513,-106.6985,-3.8531,-0.0107,-0.0706,-89.3182,-0.0009,-0.0253,2.6496,0.0006,0.0064,5.8812,-0.0063,2.6602
73529,-106.6985,-3.8531,-0.0107,-0.0706,-89.3182,-0.0009,-0.0253,2.6496,0.0006,0.0064,5.8812,-0.0063,2.6602
73545,-106.6985,-3.8531,-0.0107,-0.0706,-89.3182,-0.0009,-0.0253,2.6496,0.0006,0.0064,5.8812,-0.0063,2.6602
73561,-106.7023,-3.5643,-0.0105,-0.0905,-89.2618,0.0007,-0.0436,3.3473,0.0003,-0.1965,7.4795,-0.003,0.2298
73577,-106.7023,-3.5643,-0.0105,-0.0905,-89.2618,0.0007,-0.0436,3.3473,0.0003,-0.1965,7.4795,-0.003,0.2298
73593,-106.7023,-3.5643,-0.0105,-0.0905,-89.2618,0.0007,-0.0436,3.3473,0.0003,-0.1965,7.4795,-0.003,0.2298
73609,-106.7023,-3.5643,-0.0105,-0.0905,-89.2618,0.0007,-0.0436,3.3473,0.0003,-0.1965,7.4795,-0.003,0.2298
73625,-106.7023,-3.5643,-0.0105,-0.0905,-89.2618,0.0007,-0.0436,3.3473,0.0003,-0.1965,7.4795,-0.003,0.2298
73641,-106.7023,-3.5643,-0.0105,-0.0905,-89.2618,0.0007,-0.0436,3.3473,0.0003,-0.1965,7.4795,-0.003,0.2298
73659,-106.7073,-3.1961,-0.0105,-0.0935,-89.2394,0.0011,-0.0506,3.8644,0.0001,-0.0703,5.2077,-0.0015,0.0472
73673,-106.7073,-3.1961,-0.0105,-0.0935,-89.2394,0.0011,-0.0506,3.8644,0.0001,-0.0703,5.2077,-0.0015,0.0472
73689,-106.7073,-3.1961,-0.0105,-0.0935,-89.2394,0.0011,-0.0506,3.8644,0.0001,-0.0703,5.2077,-0.0015,0.0472
73705,-106.7073,-3.1961,-0.0105,-0.0935,-89.2394,0.0011,-0.0506,3.8644,0.0001,-0.0703,5.2077,-0.0015,0.0472
73721,-106.7073,-3.1961,-0.0105,-0.0935,-89.2394,0.0011,-0.0506,3.8644,0.0001,-0.0703,5.2077,-0.0015,0.0472
73737,-106.7073,-3.1961,-0.0105,-0.0935,-89.2394,0.0011,-0.0506,3.8644,0.0001,-0.0703,5.2077,-0.0015,0.0472
73754,-106.7124,-2.7957,-0.0105,-0.0949,-89.2669,0.0005,-0.0584,4.4725,0.0001,-0.0832,6.4637,-0.0009,-2.173
73769,-106.7124,-2.7957,-0.0105,-0.0949,-89.2669,0.0005,-0.0584,4.4725,0.0001,-0.0832,6.4637,-0.0009,-2.173
73785,-106.7124,-2.7957,-0.0105,-0.0949,-89.2669,0.0005,-0.0584,4.4725,0.0001,-0.0832,6.4637,-0.0009,-2.173
73801,-106.7124,-2.7957,-0.0105,-0.0949,-89.2669,0.0005,-0.0584,4.4725,0.0001,-0.0832,6.4637,-0.0009,-2.173
73817,-106.7124,-2.7957,-0.0105,-0.0949,-89.2669,0.0005,-0.0584,4.4725,0.0001,-0.0832,6.4637,-0.0009,-2.173
73833,-106.7124,-2.7957,-0.0105,-0.0949,-89.2669,0.0005,-0.0584,4.4725,0.0001,-0.0832,6.4637,-0.0009,-2.173
73849,-106.718,-2.3565,-0.0104,-0.0978,-89.269,-0.0001,-0.0636,5.0628,0.0,-0.0568,6.4997,-0.0003,1.5045
73865,-106.718,-2.3565,-0.0104,-0.0978,-89.269,-0.0001,-0.0636,5.0628,0.0,-0.0568,6.4997,-0.0003,1.5045
73881,-106.718,-2.3565,-0.0104,-0.0978,-89.269,-0.0001,-0.0636,5.0628,0.0,-0.0568,6.4997,-0.0003,1.5045
73897,-106.718,-2.3565,-0.0104,-0.0978,-89.269,-0.0001,-0.0636,5.0628,0.0,-0.0568,6.4997,-0.0003,1.5045
73913,-106.718,-2.3565,-0.0104,-0.0978,-89.269,-0.0001,-0.0636,5.0628,0.0,-0.0568,6.4997,-0.0003,1.5045
73929,-106.7241,-1.8404,-0.0104,-0.0997,-89.3071,-0.0005,-0.0698,5.6536,0.0,-0.0648,6.2079,-0.0001,-1.6509
73945,-106.7241,-1.8404,-0.0104,-0.0997,-89.3071,-0.0005,-0.0698,5.6536,0.0,-0.0648,6.2079,-0.0001,-1.6509
73961,-106.7241,-1.8404,-0.0104,-0.0997,-89.3071,-0.0005,-0.0698,5.6536,0.0,-0.0648,6.2079,-0.0001,-1.6509
73977,-106.7241,-1.8404,-0.0104,-0.0997,-89.3071,-0.0005,-0.0698,5.6536,0.0,-0.0648,6.2079,-0.0001,-1.6509
73993,-106.7241,-1.8404,-0.0104,-0.0997,-89.3071,-0.0005,-0.0698,5.6536,0.0,-0.0648,6.2079,-0.0001,-1.6509
74009,-106.7241,-1.8404,-0.0104,-0.0997,-89.3071,-0.0005,-0.0698,5.6536,0.0,-0.0648,6.2079,-0.0001,-1.6509
74026,-106.7316,-1.246,-0.0104,-0.1011,-89.285,-0.0003,-0.0775,6.275,0.0,-0.078,6.3065,-0.0001,0.9933
74041,-106.7316,-1.246,-0.0104,-0.1011,-89.285,-0.0003,-0.0775,6.275,0.0,-0.078,6.3065,-0.0001,0.9933
74057,-106.7316,-1.246,-0.0104,-0.1011,-89.285,-0.0003,-0.0775,6.275,0.0,-0.078,6.3065,-0.0001,0.9933
74073,-106.7316,-1.246,-0.0104,-0.1011,-89.285,-0.0003,-0.0775,6.275,0.0,-0.078,6.3065,-0.0001,0.9933
74089,-106.7316,-1.246,-0.0104,-0.1011,-89.285,-0.0003,-0.0775,6.275,0.0,-0.078,6.3065,-0.0001,0.9933
74105,-106.7316,-1.246,-0.0104,-0.1011,-89.285,-0.0003,-0.0775,6.275,0.0,-0.078,6.3065,-0.0001,0.9933
74121,-106.7316,-1.246,-0.0104,-0.1011,-89.285,-0.0003,-0.0775,6.275,0.0,-0.078,6.3065,-0.0001,0.9933
74137,-106.7394,-0.6018,-0.0104,-0.1083,-89.3034,-0.0003,-0.0858,7.0165,-0.0,-0.0874,7.7248,-0.0001,-0.4679
74153,-106.7394,-0.6018,-0.0104,-0.1083,-89.3034,-0.0003,-0.0858,7.0165,-0.0,-0.0874,7.7248,-0.0001,-0.4679
74169,-106.7394,-0.6018,-0.0104,-0.1083,-89.3034,-0.0003,-0.0858,7.0165,-0.0,-0.0874,7.7248,-0.0001,-0.4679
74185,-106.7394,-0.6018,-0.0104,-0.1083,-89.3034,-0.0003,-0.0858,7.0165,-0.0,-0.0874,7.7248,-0.0001,-0.4679
74201,-106.7394,-0.6018,-0.0104,-0.1083,-89.3034,-0.0003,-0.0858,7.0165,-0.0,-0.0874,7.7248,-0.0001,-0.4679
74217,-106.7394,-0.6018,-0.0104,-0.1083,-89.3034,-0.0003,-0.0858,7.0165,-0.0,-0.0874,7.7248,-0.0001,-0.4679
74235,-106.7486,0.1385,-0.0103,-0.1115,-89.2896,-0.0001,-0.0947,7.691,0.0,-0.0891,6.7652,0.0,0.4154
74249,-106.7486,0.1385,-0.0103,-0.1115,-89.2896,-0.0001,-0.0947,7.691,0.0,-0.0891,6.7652,0.0,0.4154
74265,-106.7486,0.1385,-0.0103,-0.1115,-89.2896,-0.0001,-0.0947,7.691,0.0,-0.0891,6.7652,0.0,0.4154
74281,-106.7486,0.1385,-0.0103,-0.1115,-89.2896,-0.0001,-0.0947,7.691,0.0,-0.0891,6.7652,0.0,0.4154
74297,-106.7486,0.1385,-0.0103,-0.1115,-89.2896,-0.0001,-0.0947,7.691,0.0,-0.0891,6.7652,0.0,0.4154
74313,-106.7486,0.1385,-0.0103,-0.1115,-89.2896,-0.0001,-0.0947,7.691,0.0,-0.0891,6.7652,0.0,0.4154
74329,-106.7579,0.9008,-0.0103,-0.1154,-89.2972,-0.0001,-0.1034,8.4269,-0.0,-0.0928,7.8316,-0.0001,-0.0202
74345,-106.7579,0.9008,-0.0103,-0.1154,-89.2972,-0.0001,-0.1034,8.4269,-0.0,-0.0928,7.8316,-0.0001,-0.0202
74361,-106.7579,0.9008,-0.0103,-0.1154,-89.2972,-0.0001,-0.1034,8.4269,-0.0,-0.0928,7.8316,-0.0001,-0.0202
74377,-106.7579,0.9008,-0.0103,-0.1154,-89.2972,-0.0001,-0.1034,8.4269,-0.0,-0.0928,7.8316,-0.0001,-0.0202
74393,-106.7579,0.9008,-0.0103,-0.1154,-89.2972,-0.0001,-0.1034,8.4269,-0.0,-0.0928,7.8316,-0.0001,-0.0202
74409,-106.7579,0.9008,-0.0103,-0.1154,-89.2972,-0.0001,-0.1034,8.4269,-0.0,-0.0928,7.8316,-0.0001,-0.0202
74426,-106.7686,1.7712,-0.0103,-0.11,-89.2972,-0.0001,-0.11,8.9636,-0.0,-0.0658,5.4053,0.0,-0.0002
74441,-106.7686,1.7712,-0.0103,-0.11,-89.2972,-0.0001,-0.11,8.9636,-0.0,-0.0658,5.4053,0.0,-0.0002
74457,-106.7686,1.7712,-0.0103,-0.11,-89.2972,-0.0001,-0.11,8.9636,-0.0,-0.0658,5.4053,0.0,-0.0002
74473,-106.7686,1.7712,-0.0103,-0.11,-89.2972,-0.0001,-0.11,8.9636,-0.0,-0.0658,5.4053,0.0,-0.0002
74489,-106.7686,1.7712,-0.0103,-0.11,-89.2972,-0.0001,-0.11,8.9636,-0.0,-0.0658,5.4053,0.0,-0.0002
74505,-106.7686,1.7712,-0.0103,-0.11,-89.2972,-0.0001,-0.11,8.9636,-0.0,-0.0658,5.4053,0.0,-0.0002
74522,-106.7796,2.6712,-0.0104,-0.099,-89.2973,-0.0001,-0.1162,9.4736,0.0,-0.0641,5.2459,0.0001,-0.0005
74537,-106.7796,2.6712,-0.0104,-0.099,-89.2973,-0.0001,-0.1162,9.4736,0.0,-0.0641,5.2459,0.0001,-0.0005
74553,-106.7796,2.6712,-0.0104,-0.099,-89.2973,-0.0001,-0.1162,9.4736,0.0,-0.0641,5.2459,0.0001,-0.0005
74569,-106.7796,2.6712,-0.0104,-0.099,-89.2973,-0.0001,-0.1162,9.4736,0.0,-0.0641,5.2459,0.0001,-0.0005
74585,-106.7796,2.6712,-0.0104,-0.099,-89.2973,-0.0001,-0.1162,9.4736,0.0,-0.0641,5.2459,0.0001,-0.0005
74601,-106.7796,2.6712,-0.0104,-0.099,-89.2973,-0.0001,-0.1162,9.4736,0.0,-0.0641,5.2459,0.0001,-0.0005
74618,-106.7907,3.5793,-0.0104,-0.0964,-89.2973,-0.0,-0.1229,10.0196,0.0,-0.0721,5.8826,0.0,-0.0002
74633,-106.7907,3.5793,-0.0104,-0.0964,-89.2973,-0.0,-0.1229,10.0196,0.0,-0.0721,5.8826,0.0,-0.0002
74649,-106.7907,3.5793,-0.0104,-0.0964,-89.2973,-0.0,-0.1229,10.0196,0.0,-0.0721,5.8826,0.0,-0.0002
74665,-106.7907,3.5793,-0.0104,-0.0964,-89.2973,-0.0,-0.1229,10.0196,0.0,-0.0721,5.8826,0.0,-0.0002
74681,-106.7907,3.5793,-0.0104,-0.0964,-89.2973,-0.0,-0.1229,10.0196,0.0,-0.0721,5.8826,0.0,-0.0002
74697,-106.7907,3.5793,-0.0104,-0.0964,-89.2973,-0.0,-0.1229,10.0196,0.0,-0.0721,5.8826,0.0,-0.0002
74713,-106.8025,4.5353,-0.0105,-0.0933,-89.2973,-0.0,-0.1288,10.5006,-0.0,-0.0635,5.1803,-0.0001,-0.0001
74729,-106.8025,4.5353,-0.0105,-0.0933,-89.2973,-0.0,-0.1288,10.5006,-0.0,-0.0635,5.1803,-0.0001,-0.0001
74745,-106.8025,4.5353,-0.0105,-0.0933,-89.2973,-0.0,-0.1288,10.5006,-0.0,-0.0635,5.1803,-0.0001,-0.0001
74761,-106.8025,4.5353,-0.0105,-0.0933,-89.2973,-0.0,-0.1288,10.5006,-0.0,-0.0635,5.1803,-0.0001,-0.0001
74777,-106.8025,4.5353,-0.0105,-0.0933,-89.2973,-0.0,-0.1288,10.5006,-0.0,-0.0635,5.1803,-0.0001,-0.0001
74793,-106.8025,4.5353,-0.0105,-0.0933,-89.2973,-0.0,-0.1288,10.5006,-0.0,-0.0635,5.1803,-0.0001,-0.0001
74809,-106.8152,5.5756,-0.0105,-0.0861,-89.2973,-0.0,-0.1339,10.9203,0.0,-0.0532,4.3345,0.0002,-0.0001
74825,-106.8152,5.5756,-0.0105,-0.0861,-89.2973,-0.0,-0.1339,10.9203,0.0,-0.0532,4.3345,0.0002,-0.0001
74841,-106.8152,5.5756,-0.0105,-0.0861,-89.2973,-0.0,-0.1339,10.9203,0.0,-0.0532,4.3345,0.0002,-0.0001
74857,-106.8152,5.5756,-0.0105,-0.0861,-89.2973,-0.0,-0.1339,10.9203,0.0,-0.0532,4.3345,0.0002,-0.0001
74873,-106.8152,5.5756,-0.0105,-0.0861,-89.2973,-0.0,-0.1339,10.9203,0.0,-0.0532,4.3345,0.0002,-0.0001
74889,-106.8152,5.5756,-0.0105,-0.0861,-89.2973,-0.0,-0.1339,10.9203,0.0,-0.0532,4.3345,0.0002,-0.0001
74905,-106.8286,6.6677,-0.0106,-0.0773,-89.2973,0.0,-0.1385,11.2952,0.0,-0.0469,3.8217,-0.0001,-0.0001
74921,-106.8286,6.6677,-0.0106,-0.0773,-89.2973,0.0,-0.1385,11.2952,0.0,-0.0469,3.8217,-0.0001,-0.0001
74937,-106.8286,6.6677,-0.0106,-0.0773,-89.2973,0.0,-0.1385,11.2952,0.0,-0.0469,3.8217,-0.0001,-0.0001
74953,-106.8286,6.6677,-0.0106,-0.0773,-89.2973,0.0,-0.1385,11.2952,0.0,-0.0469,3.8217,-0.0001,-0.0001
74969,-106.8286,6.6677,-0.0106,-0.0773,-89.2973,0.0,-0.1385,11.2952,0.0,-0.0469,3.8217,-0.0001,-0.0001
74985,-106.8286,6.6677,-0.0106,-0.0773,-89.2973,0.0,-0.1385,11.2952,0.0,-0.0469,3.8217,-0.0001,-0.0001
75002,-106.8423,7.7856,-0.0106,-0.0709,-89.2973,0.0,-0.143,11.6589,-0.0,-0.0459,3.7421,-0.0001,-0.0
75017,-106.8423,7.7856,-0.0106,-0.0709,-89.2973,0.0,-0.143,11.6589,-0.0,-0.0459,3.7421,-0.0001,-0.0
75033,-106.8423,7.7856,-0.0106,-0.0709,-89.2973,0.0,-0.143,11.6589,-0.0,-0.0459,3.7421,-0.0001,-0.0
75049,-106.8423,7.7856,-0.0106,-0.0709,-89.2973,0.0,-0.143,11.6589,-0.0,-0.0459,3.7421,-0.0001,-0.0
75065,-106.8423,7.7856,-0.0106,-0.0709,-89.2973,0.0,-0.143,11.6589,-0.0,-0.0459,3.7421,-0.0001,-0.0
75081,-106.8423,7.7856,-0.0106,-0.0709,-89.2973,0.0,-0.143,11.6589,-0.0,-0.0459,3.7421,-0.0001,-0.0
75097,-106.8556,8.8684,-0.0107,-0.0672,-89.2973,0.0,-0.1472,12.0001,0.0,-0.0458,3.7336,0.0,-0.0
75113,-106.8556,8.8684,-0.0107,-0.0672,-89.2973,0.0,-0.1472,12.0001,0.0,-0.0458,3.7336,0.0,-0.0
75129,-106.8556,8.8684,-0.0107,-0.0672,-89.2973,0.0,-0.1472,12.0001,0.0,-0.0458,3.7336,0.0,-0.0
75145,-106.8556,8.8684,-0.0107,-0.0672,-89.2973,0.0,-0.1472,12.0001,0.0,-0.0458,3.7336,0.0,-0.0
75161,-106.8556,8.8684,-0.0107,-0.0672,-89.2973,0.0,-0.1472,12.0001,0.0,-0.0458,3.7336,0.0,-0.0
75179,-106.8692,9.9821,-0.0107,-0.0637,-89.2973,0.0,-0.151,12.3123,0.0,-0.0419,3.4132,0.0,-0.0
75193,-106.8692,9.9821,-0.0107,-0.0637,-89.2973,0.0,-0.151,12.3123,0.0,-0.0419,3.4132,0.0,-0.0
75209,-106.8692,9.9821,-0.0107,-0.0637,-89.2973,0.0,-0.151,12.3123,0.0,-0.0419,3.4132,0.0,-0.0
75225,-106.8692,9.9821,-0.0107,-0.0637,-89.2973,0.0,-0.151,12.3123,0.0,-0.0419,3.4132,0.0,-0.0
75241,-106.8692,9.9821,-0.0107,-0.0637,-89.2973,0.0,-0.151,12.3123,0.0,-0.0419,3.4132,0.0,-0.0
75257,-106.8692,9.9821,-0.0107,-0.0637,-89.2973,0.0,-0.151,12.3123,0.0,-0.0419,3.4132,0.0,-0.0
75275,-106.8832,11.1165,-0.0107,-0.0598,-89.2973,0.0,-0.1545,12.5965,0.0,-0.0383,3.1247,-0.0,-0.0
75289,-106.8832,11.1165,-0.0107,-0.0598,-89.2973,0.0,-0.1545,12.5965,0.0,-0.0383,3.1247,-0.0,-0.0
75305,-106.8832,11.1165,-0.0107,-0.0598,-89.2973,0.0,-0.1545,12.5965,0.0,-0.0383,3.1247,-0.0,-0.0
75321,-106.8832,11.1165,-0.0107,-0.0598,-89.2973,0.0,-0.1545,12.5965,0.0,-0.0383,3.1247,-0.0,-0.0
75337,-106.8832,11.1165,-0.0107,-0.0598,-89.2973,0.0,-0.1545,12.5965,0.0,-0.0383,3.1247,-0.0,-0.0
75353,-106.8832,11.1165,-0.0107,-0.0598,-89.2973,0.0,-0.1545,12.5965,0.0,-0.0383,3.1247,-0.0,-0.0
75370,-106.8979,12.3183,-0.0108,-0.0542,-89.2973,0.0,-0.1574,12.8354,0.0,-0.031,2.5314,0.0,-0.0
75401,-106.8979,12.3183,-0.0108,-0.0542,-89.2973,0.0,-0.1574,12.8354,0.0,-0.031,2.5314,0.0,-0.0
75417,-106.8979,12.3183,-0.0108,-0.0542,-89.2973,0.0,-0.1574,12.8354,0.0,-0.031,2.5314,0.0,-0.0
75433,-106.8979,12.3183,-0.0108,-0.0542,-89.2973,0.0,-0.1574,12.8354,0.0,-0.031,2.5314,0.0,-0.0
75449,-106.8979,12.3183,-0.0108,-0.0542,-89.2973,0.0,-0.1574,12.8354,0.0,-0.031,2.5314,0.0,-0.0
75467,-106.9405,13.5536,-0.0108,-0.0378,-90.5865,0.1174,-0.9555,12.8345,0.001,-8.311,-0.0098,0.0102,-29.3022
75481,-106.9405,13.5536,-0.0108,-0.0378,-90.5865,0.1174,-0.9555,12.8345,0.001,-8.311,-0.0098,0.0102,-29.3022
75497,-106.9405,13.5536,-0.0108,-0.0378,-90.5865,0.1174,-0.9555,12.8345,0.001,-8.311,-0.0098,0.0102,-29.3022
75513,-106.9405,13.5536,-0.0108,-0.0378,-90.5865,0.1174,-0.9555,12.8345,0.001,-8.311,-0.0098,0.0102,-29.3022
75529,-106.9405,13.5536,-0.0108,-0.0378,-90.5865,0.1174,-0.9555,12.8345,0.001,-8.311,-0.0098,0.0102,-29.3022
75545,-106.9405,13.5536,-0.0108,-0.0378,-90.5865,0.1174,-0.9555,12.8345,0.001,-8.311,-0.0098,0.0102,-29.3022
75563,-107.0475,14.7894,-0.011,-0.0023,-95.9559,0.2557,-1.8965,12.5693,0.0012,-9.6547,-2.7205,0.0017,-78.2364
75577,-107.0475,14.7894,-0.011,-0.0023,-95.9559,0.2557,-1.8965,12.5693,0.0012,-9.6547,-2.7205,0.0017,-78.2364
75593,-107.0475,14.7894,-0.011,-0.0023,-95.9559,0.2557,-1.8965,12.5693,0.0012,-9.6547,-2.7205,0.0017,-78.2364
75609,-107.0475,14.7894,-0.011,-0.0023,-95.9559,0.2557,-1.8965,12.5693,0.0012,-9.6547,-2.7205,0.0017,-78.2364
75625,-107.0475,14.7894,-0.011,-0.0023,-95.9559,0.2557,-1.8965,12.5693,0.0012,-9.6547,-2.7205,0.0017,-78.2364
75641,-107.0475,14.7894,-0.011,-0.0023,-95.9559,0.2557,-1.8965,12.5693,0.0012,-9.6547,-2.7205,0.0017,-78.2364
75657,-107.1746,15.895,-0.0111,0.0244,-105.5348,0.261,-2.331,12.3126,0.0001,-4.8253,-2.8516,-0.0118,-130.2413
75673,-107.1746,15.895,-0.0111,0.0244,-105.5348,0.261,-2.331,12.3126,0.0001,-4.8253,-2.8516,-0.0118,-130.2413
75689,-107.1746,15.895,-0.0111,0.0244,-105.5348,0.261,-2.331,12.3126,0.0001,-4.8253,-2.8516,-0.0118,-130.2413
75705,-107.1746,15.895,-0.0111,0.0244,-105.5348,0.261,-2.331,12.3126,0.0001,-4.8253,-2.8516,-0.0118,-130.2413
75721,-107.1746,15.895,-0.0111,0.0244,-105.5348,0.261,-2.331,12.3126,0.0001,-4.8253,-2.8516,-0.0118,-130.2413
75737,-107.1746,15.895,-0.0111,0.0244,-105.5348,0.261,-2.331,12.3126,0.0001,-4.8253,-2.8516,-0.0118,-130.2413
75755,-107.2898,17.0654,-0.0111,0.0145,-121.7108,0.126,-2.0166,12.1801,-0.0011,3.1545,-1.3291,-0.0119,-186.5496
75769,-107.2898,17.0654,-0.0111,0.0145,-121.7108,0.126,-2.0166,12.1801,-0.0011,3.1545,-1.3291,-0.0119,-186.5496
75785,-107.2898,17.0654,-0.0111,0.0145,-121.7108,0.126,-2.0166,12.1801,-0.0011,3.1545,-1.3291,-0.0119,-186.5496
75801,-107.2898,17.0654,-0.0111,0.0145,-121.7108,0.126,-2.0166,12.1801,-0.0011,3.1545,-1.3291,-0.0119,-186.5496
75817,-107.2898,17.0654,-0.0111,0.0145,-121.7108,0.126,-2.0166,12.1801,-0.0011,3.1545,-1.3291,-0.0119,-186.5496
75833,-107.2898,17.0654,-0.0111,0.0145,-121.7108,0.126,-2.0166,12.1801,-0.0011,3.1545,-1.3291,-0.0119,-186.5496
75850,-107.2924,18.151,-0.0105,-0.0775,-141.3212,-0.1386,-0.2873,12.1383,0.0005,17.8403,-0.4312,0.0169,-211.6179
75865,-107.2924,18.151,-0.0105,-0.0775,-141.3212,-0.1386,-0.2873,12.1383,0.0005,17.8403,-0.4312,0.0169,-211.6179
75881,-107.2924,18.151,-0.0105,-0.0775,-141.3212,-0.1386,-0.2873,12.1383,0.0005,17.8403,-0.4312,0.0169,-211.6179
75897,-107.2924,18.151,-0.0105,-0.0775,-141.3212,-0.1386,-0.2873,12.1383,0.0005,17.8403,-0.4312,0.0169,-211.6179
75913,-107.2924,18.151,-0.0105,-0.0775,-141.3212,-0.1386,-0.2873,12.1383,0.0005,17.8403,-0.4312,0.0169,-211.6179
75929,-107.2924,18.151,-0.0105,-0.0775,-141.3212,-0.1386,-0.2873,12.1383,0.0005,17.8403,-0.4312,0.0169,-211.6179
75947,-107.1314,19.1416,-0.0095,-0.1934,-162.0307,-0.3882,1.9423,11.4838,0.0021,23.4647,-6.8885,0.0166,-222.2601
75961,-107.1314,19.1416,-0.0095,-0.1934,-162.0307,-0.3882,1.9423,11.4838,0.0021,23.4647,-6.8885,0.0166,-222.2601
75977,-107.1314,19.1416,-0.0095,-0.1934,-162.0307,-0.3882,1.9423,11.4838,0.0021,23.4647,-6.8885,0.0166,-222.2601
76009,-107.1314,19.1416,-0.0095,-0.1934,-162.0307,-0.3882,1.9423,11.4838,0.0021,23.4647,-6.8885,0.0166,-222.2601
76025,-107.1314,19.1416,-0.0095,-0.1934,-162.0307,-0.3882,1.9423,11.4838,0.0021,23.4647,-6.8885,0.0166,-222.2601
76043,-106.8327,19.9958,-0.0088,-0.2582,176.2632,-0.6502,3.4265,9.4226,0.0024,15.3156,-21.2698,0.0033,-224.5063
76057,-106.8327,19.9958,-0.0088,-0.2582,176.2632,-0.6502,3.4265,9.4226,0.0024,15.3156,-21.2698,0.0033,-224.5063
76073,-106.8327,19.9958,-0.0088,-0.2582,176.2632,-0.6502,3.4265,9.4226,0.0024,15.3156,-21.2698,0.0033,-224.5063
76089,-106.8327,19.9958,-0.0088,-0.2582,176.2632,-0.6502,3.4265,9.4226,0.0024,15.3156,-21.2698,0.0033,-224.5063
76105,-106.8327,19.9958,-0.0088,-0.2582,176.2632,-0.6502,3.4265,9.4226,0.0024,15.3156,-21.2698,0.0033,-224.5063
76121,-106.5872,20.598,-0.0091,-0.2087,157.0275,-0.8474,2.5019,7.443,-0.0022,-10.3022,-22.0577,-0.0521,-203.0428
76137,-106.5872,20.598,-0.0091,-0.2087,157.0275,-0.8474,2.5019,7.443,-0.0022,-10.3022,-22.0577,-0.0521,-203.0428
76153,-106.5872,20.598,-0.0091,-0.2087,157.0275,-0.8474,2.5019,7.443,-0.0022,-10.3022,-22.0577,-0.0521,-203.0428
76169,-106.5872,20.598,-0.0091,-0.2087,157.0275,-0.8474,2.5019,7.443,-0.0022,-10.3022,-22.0577,-0.0521,-203.0428
76185,-106.5872,20.598,-0.0091,-0.2087,157.0275,-0.8474,2.5019,7.443,-0.0022,-10.3022,-22.0577,-0.0521,-203.0428
76201,-106.5872,20.598,-0.0091,-0.2087,157.0275,-0.8474,2.5019,7.443,-0.0022,-10.3022,-22.0577,-0.0521,-203.0428
76219,-106.5282,21.0999,-0.0099,-0.0761,140.0967,-0.9503,0.5049,6.5731,0.0022,-22.4118,-9.7632,0.0499,-172.0791
76233,-106.5282,21.0999,-0.0099,-0.0761,140.0967,-0.9503,0.5049,6.5731,0.0022,-22.4118,-9.7632,0.0499,-172.0791
76249,-106.5282,21.0999,-0.0099,-0.0761,140.0967,-0.9503,0.5049,6.5731,0.0022,-22.4118,-9.7632,0.0499,-172.0791
76265,-106.5282,21.0999,-0.0099,-0.0761,140.0967,-0.9503,0.5049,6.5731,0.0022,-22.4118,-9.7632,0.0499,-172.0791
76281,-106.5282,21.0999,-0.0099,-0.0761,140.0967,-0.9503,0.5049,6.5731,0.0022,-22.4118,-9.7632,0.0499,-172.0791
76297,-106.5282,21.0999,-0.0099,-0.0761,140.0967,-0.9503,0.5049,6.5731,0.0022,-22.4118,-9.7632,0.0499,-172.0791
76313,-106.6604,21.6629,-0.0111,0.0889,127.166,-0.837,-1.5408,7.2922,-0.0008,-22.4983,7.9084,-0.0328,-118.5401
76329,-106.6604,21.6629,-0.0111,0.0889,127.166,-0.837,-1.5408,7.2922,-0.0008,-22.4983,7.9084,-0.0328,-118.5401
76345,-106.6604,21.6629,-0.0111,0.0889,127.166,-0.837,-1.5408,7.2922,-0.0008,-22.4983,7.9084,-0.0328,-118.5401
76361,-106.6604,21.6629,-0.0111,0.0889,127.166,-0.837,-1.5408,7.2922,-0.0008,-22.4983,7.9084,-0.0328,-118.5401
76377,-106.6604,21.6629,-0.0111,0.0889,127.166,-0.837,-1.5408,7.2922,-0.0008,-22.4983,7.9084,-0.0328,-118.5401
76393,-106.6604,21.6629,-0.0111,0.0889,127.166,-0.837,-1.5408,7.2922,-0.0008,-22.4983,7.9084,-0.0328,-118.5401
76409,-106.8941,22.3601,-0.0119,0.1838,117.6385,-0.5204,-1.9013,8.3644,-0.0024,-3.889,11.5686,-0.0181,-96.5446
76425,-106.8941,22.3601,-0.0119,0.1838,117.6385,-0.5204,-1.9013,8.3644,-0.0024,-3.889,11.5686,-0.0181,-96.5446
76441,-106.8941,22.3601,-0.0119,0.1838,117.6385,-0.5204,-1.9013,8.3644,-0.0024,-3.889,11.5686,-0.0181,-96.5446
76457,-106.8941,22.3601,-0.0119,0.1838,117.6385,-0.5204,-1.9013,8.3644,-0.0024,-3.889,11.5686,-0.0181,-96.5446
76473,-106.8941,22.3601,-0.0119,0.1838,117.6385,-0.5204,-1.9013,8.3644,-0.0024,-3.889,11.5686,-0.0181,-96.5446
76490,-107.0819,23.1087,-0.0122,0.1876,109.2871,-0.1484,-1.1512,9.1101,-0.0034,8.5577,8.5072,-0.0107,-94.2977
76521,-107.0819,23.1087,-0.0122,0.1876,109.2871,-0.1484,-1.1512,9.1101,-0.0034,8.5577,8.5072,-0.0107,-94.2977
76537,-107.0819,23.1087,-0.0122,0.1876,109.2871,-0.1484,-1.1512,9.1101,-0.0034,8.5577,8.5072,-0.0107,-94.2977
76553,-107.0819,23.1087,-0.0122,0.1876,109.2871,-0.1484,-1.1512,9.1101,-0.0034,8.5577,8.5072,-0.0107,-94.2977
76569,-107.0819,23.1087,-0.0122,0.1876,109.2871,-0.1484,-1.1512,9.1101,-0.0034,8.5577,8.5072,-0.0107,-94.2977
76585,-107.2262,23.9276,-0.0124,0.1666,102.4736,-0.0201,-1.289,9.5886,-0.0019,-1.5588,5.412,0.0164,-55.4533
76601,-107.2262,23.9276,-0.0124,0.1666,102.4736,-0.0201,-1.289,9.5886,-0.0019,-1.5588,5.412,0.0164,-55.4533
76617,-107.2262,23.9276,-0.0124,0.1666,102.4736,-0.0201,-1.289,9.5886,-0.0019,-1.5588,5.412,0.0164,-55.4533
76633,-107.2262,23.9276,-0.0124,0.1666,102.4736,-0.0201,-1.289,9.5886,-0.0019,-1.5588,5.412,0.0164,-55.4533
76649,-107.2262,23.9276,-0.0124,0.1666,102.4736,-0.0201,-1.289,9.5886,-0.0019,-1.5588,5.412,0.0164,-55.4533
76665,-107.2262,23.9276,-0.0124,0.1666,102.4736,-0.0201,-1.289,9.5886,-0.0019,-1.5588,5.412,0.0164,-55.4533
76681,-107.3963,24.8542,-0.0121,0.1231,99.7391,-0.0752,-1.6614,9.7711,0.0003,-3.8772,1.9001,0.0235,-15.4573
76697,-107.3963,24.8542,-0.0121,0.1231,99.7391,-0.0752,-1.6614,9.7711,0.0003,-3.8772,1.9001,0.0235,-15.4573
76713,-107.3963,24.8542,-0.0121,0.1231,99.7391,-0.0752,-1.6614,9.7711,0.0003,-3.8772,1.9001,0.0235,-15.4573
76729,-107.3963,24.8542,-0.0121,0.1231,99.7391,-0.0752,-1.6614,9.7711,0.0003,-3.8772,1.9001,0.0235,-15.4573
76745,-107.3963,24.8542,-0.0121,0.1231,99.7391,-0.0752,-1.6614,9.7711,0.0003,-3.8772,1.9001,0.0235,-15.4573
76763,-107.5559,25.7754,-0.0118,0.0833,99.0588,-0.0454,-1.6362,9.8896,0.0,0.2684,1.2639,-0.0033,-4.437
76777,-107.5559,25.7754,-0.0118,0.0833,99.0588,-0.0454,-1.6362,9.8896,0.0,0.2684,1.2639,-0.0033,-4.437
76793,-107.5559,25.7754,-0.0118,0.0833,99.0588,-0.0454,-1.6362,9.8896,0.0,0.2684,1.2639,-0.0033,-4.437
76809,-107.5559,25.7754,-0.0118,0.0833,99.0588,-0.0454,-1.6362,9.8896,0.0,0.2684,1.2639,-0.0033,-4.437
76825,-107.5559,25.7754,-0.0118,0.0833,99.0588,-0.0454,-1.6362,9.8896,0.0,0.2684,1.2639,-0.0033,-4.437
76841,-107.5559,25.7754,-0.0118,0.0833,99.0588,-0.0454,-1.6362,9.8896,0.0,0.2684,1.2639,-0.0033,-4.437
76857,-107.5559,25.7754,-0.0118,0.0833,99.0588,-0.0454,-1.6362,9.8896,0.0,0.2684,1.2639,-0.0033,-4.437
76873,-107.7167,26.7591,-0.0115,0.0526,98.8647,-0.0153,-1.5928,9.9603,-0.0001,0.4379,0.7134,-0.0014,-1.8294
76889,-107.7167,26.7591,-0.0115,0.0526,98.8647,-0.0153,-1.5928,9.9603,-0.0001,0.4379,0.7134,-0.0014,-1.8294
76905,-107.7167,26.7591,-0.0115,0.0526,98.8647,-0.0153,-1.5928,9.9603,-0.0001,0.4379,0.7134,-0.0014,-1.8294
76921,-107.7167,26.7591,-0.0115,0.0526,98.8647,-0.0153,-1.5928,9.9603,-0.0001,0.4379,0.7134,-0.0014,-1.8294
76937,-107.7167,26.7591,-0.0115,0.0526,98.8647,-0.0153,-1.5928,9.9603,-0.0001,0.4379,0.7134,-0.0014,-1.8294
76953,-107.7167,26.7591,-0.0115,0.0526,98.8647,-0.0153,-1.5928,9.9603,-0.0001,0.4379,0.7134,-0.0014,-1.8294
76969,-107.8717,27.7381,-0.0114,0.0339,98.8103,-0.0019,-1.572,10.0203,-0.0,0.2131,0.6124,0.0009,-1.0538
76985,-107.8717,27.7381,-0.0114,0.0339,98.8103,-0.0019,-1.572,10.0203,-0.0,0.2131,0.6124,0.0009,-1.0538
77001,-107.8717,27.7381,-0.0114,0.0339,98.8103,-0.0019,-1.572,10.0203,-0.0,0.2131,0.6124,0.0009,-1.0538
77017,-107.8717,27.7381,-0.0114,0.0339,98.8103,-0.0019,-1.572,10.0203,-0.0,0.2131,0.6124,0.0009,-1.0538
77033,-107.8717,27.7381,-0.0114,0.0339,98.8103,-0.0019,-1.572,10.0203,-0.0,0.2131,0.6124,0.0009,-1.0538
77049,-108.0147,28.6541,-0.0113,0.0245,98.7961,0.0022,-1.5687,10.0847,0.0001,0.0364,0.7071,0.0011,-0.6696
77065,-108.0147,28.6541,-0.0113,0.0245,98.7961,0.0022,-1.5687,10.0847,0.0001,0.0364,0.7071,0.0011,-0.6696
77081,-108.0147,28.6541,-0.0113,0.0245,98.7961,0.0022,-1.5687,10.0847,0.0001,0.0364,0.7071,0.0011,-0.6696
77097,-108.0147,28.6541,-0.0113,0.0245,98.7961,0.0022,-1.5687,10.0847,0.0001,0.0364,0.7071,0.0011,-0.6696
77113,-108.0147,28.6541,-0.0113,0.0245,98.7961,0.0022,-1.5687,10.0847,0.0001,0.0364,0.7071,0.0011,-0.6696
77129,-108.0147,28.6541,-0.0113,0.0245,98.7961,0.0022,-1.5687,10.0847,0.0001,0.0364,0.7071,0.0011,-0.6696
77146,-108.1613,29.5979,-0.0113,0.0183,98.7916,0.0028,-1.5708,10.1342,0.0001,-0.0231,0.5311,0.0001,-0.652
77161,-108.1613,29.5979,-0.0113,0.0183,98.7916,0.0028,-1.5708,10.1342,0.0001,-0.0231,0.5311,0.0001,-0.652
77177,-108.1613,29.5979,-0.0113,0.0183,98.7916,0.0028,-1.5708,10.1342,0.0001,-0.0231,0.5311,0.0001,-0.652
77193,-108.1613,29.5979,-0.0113,0.0183,98.7916,0.0028,-1.5708,10.1342,0.0001,-0.0231,0.5311,0.0001,-0.652
77209,-108.1613,29.5979,-0.0113,0.0183,98.7916,0.0028,-1.5708,10.1342,0.0001,-0.0231,0.5311,0.0001,-0.652
77225,-108.1613,29.5979,-0.0113,0.0183,98.7916,0.0028,-1.5708,10.1342,0.0001,-0.0231,0.5311,0.0001,-0.652
77243,-108.302,30.5069,-0.0113,0.0137,98.7975,0.0022,-1.5735,10.1647,0.0,-0.0299,0.3403,-0.0005,0.7564
77257,-108.302,30.5069,-0.0113,0.0137,98.7975,0.0022,-1.5735,10.1647,0.0,-0.0299,0.3403,-0.0005,0.7564
77273,-108.302,30.5069,-0.0113,0.0137,98.7975,0.0022,-1.5735,10.1647,0.0,-0.0299,0.3403,-0.0005,0.7564
77289,-108.302,30.5069,-0.0113,0.0137,98.7975,0.0022,-1.5735,10.1647,0.0,-0.0299,0.3403,-0.0005,0.7564
77305,-108.302,30.5069,-0.0113,0.0137,98.7975,0.0022,-1.5735,10.1647,0.0,-0.0299,0.3403,-0.0005,0.7564
77321,-108.302,30.5069,-0.0113,0.0137,98.7975,0.0022,-1.5735,10.1647,0.0,-0.0299,0.3403,-0.0005,0.7564
77337,-108.448,31.4501,-0.0112,0.0116,98.7965,0.0016,-1.5806,10.2156,0.0,-0.077,0.5494,-0.0001,0.5911
77353,-108.448,31.4501,-0.0112,0.0116,98.7965,0.0016,-1.5806,10.2156,0.0,-0.077,0.5494,-0.0001,0.5911
77369,-108.448,31.4501,-0.0112,0.0116,98.7965,0.0016,-1.5806,10.2156,0.0,-0.077,0.5494,-0.0001,0.5911
77385,-108.448,31.4501,-0.0112,0.0116,98.7965,0.0016,-1.5806,10.2156,0.0,-0.077,0.5494,-0.0001,0.5911
77401,-108.448,31.4501,-0.0112,0.0116,98.7965,0.0016,-1.5806,10.2156,0.0,-0.077,0.5494,-0.0001,0.5911
77419,-108.5916,32.3782,-0.0112,0.0108,98.7962,0.001,-1.5879,10.2641,0.0,-0.08,0.5356,-0.0001,0.5359
77433,-108.5916,32.3782,-0.0112,0.0108,98.7962,0.001,-1.5879,10.2641,0.0,-0.08,0.5356,-0.0001,0.5359
77449,-108.5916,32.3782,-0.0112,0.0108,98.7962,0.001,-1.5879,10.2641,0.0,-0.08,0.5356,-0.0001,0.5359
77465,-108.5916,32.3782,-0.0112,0.0108,98.7962,0.001,-1.5879,10.2641,0.0,-0.08,0.5356,-0.0001,0.5359
77481,-108.5916,32.3782,-0.0112,0.0108,98.7962,0.001,-1.5879,10.2641,0.0,-0.08,0.5356,-0.0001,0.5359
77497,-108.5916,32.3782,-0.0112,0.0108,98.7962,0.001,-1.5879,10.2641,0.0,-0.08,0.5356,-0.0001,0.5359
77514,-108.7419,33.35,-0.0112,0.0096,98.7964,0.0006,-1.5936,10.3021,0.0,-0.061,0.4022,0.0,0.625
77529,-108.7419,33.35,-0.0112,0.0096,98.7964,0.0006,-1.5936,10.3021,0.0,-0.061,0.4022,0.0,0.625
77545,-108.7419,33.35,-0.0112,0.0096,98.7964,0.0006,-1.5936,10.3021,0.0,-0.061,0.4022,0.0,0.625
77561,-108.7419,33.35,-0.0112,0.0096,98.7964,0.0006,-1.5936,10.3021,0.0,-0.061,0.4022,0.0,0.625
77577,-108.7419,33.35,-0.0112,0.0096,98.7964,0.0006,-1.5936,10.3021,0.0,-0.061,0.4022,0.0,0.625
77593,-108.7419,33.35,-0.0112,0.0096,98.7964,0.0006,-1.5936,10.3021,0.0,-0.061,0.4022,0.0,0.625
77611,-108.8965,34.3494,-0.0112,0.0084,98.7966,0.0004,-1.5989,10.3364,0.0,-0.0543,0.3547,-0.0,0.6763
77625,-108.8965,34.3494,-0.0112,0.0084,98.7966,0.0004,-1.5989,10.3364,0.0,-0.0543,0.3547,-0.0,0.6763
77641,-108.8965,34.3494,-0.0112,0.0084,98.7966,0.0004,-1.5989,10.3364,0.0,-0.0543,0.3547,-0.0,0.6763
77657,-108.8965,34.3494,-0.0112,0.0084,98.7966,0.0004,-1.5989,10.3364,0.0,-0.0543,0.3547,-0.0,0.6763
77673,-108.8965,34.3494,-0.0112,0.0084,98.7966,0.0004,-1.5989,10.3364,0.0,-0.0543,0.3547,-0.0,0.6763
77689,-108.8965,34.3494,-0.0112,0.0084,98.7966,0.0004,-1.5989,10.3364,0.0,-0.0543,0.3547,-0.0,0.6763
