timestamp,x,y,z,pitch,yaw,roll,vx,vy,vz,ax,ay,az,yaw_rate
241665,-106.6867,-4.8475,-0.0798,0.0,-89.3578,0.0,-0.0,0.0,0.0552,-0.0,0.0,6.8079,-0.0
241681,-106.6867,-4.8475,-0.0798,0.0,-89.3578,0.0,-0.0,0.0,0.0552,-0.0,0.0,6.8079,-0.0
241697,-106.6867,-4.8475,-0.0798,0.0,-89.3578,0.0,-0.0,0.0,0.0552,-0.0,0.0,6.8079,-0.0
241713,-106.6867,-4.8475,-0.0798,0.0,-89.3578,0.0,-0.0,0.0,0.0552,-0.0,0.0,6.8079,-0.0
241729,-106.6867,-4.8475,-0.0798,0.0,-89.3578,0.0,-0.0,0.0,0.0552,-0.0,0.0,6.8079,-0.0
241745,-106.6867,-4.8475,-0.0798,0.0,-89.3578,0.0,-0.0,0.0,0.0552,-0.0,0.0,6.8079,-0.0
241761,-106.6867,-4.8475,-0.0798,0.0,-89.3578,0.0,-0.0,0.0,0.0552,-0.0,0.0,6.8079,-0.0
241777,-106.6867,-4.8475,-0.0798,0.0,-89.3578,0.0,-0.0,0.0,0.0552,-0.0,0.0,6.8079,-0.0
241793,-106.6867,-4.8475,-0.0798,0.0,-89.3578,0.0,-0.0,0.0,0.0552,-0.0,0.0,6.8079,-0.0
241809,-106.6867,-4.8475,-0.0798,0.0,-89.3578,0.0,-0.0,0.0,0.0552,-0.0,0.0,6.8079,-0.0
241825,-106.6867,-4.8475,-0.0798,0.0,-89.3578,0.0,-0.0,0.0,0.0552,-0.0,0.0,6.8079,-0.0
241841,-106.6867,-4.8475,-0.0798,0.0,-89.3578,0.0,-0.0,0.0,0.0552,-0.0,0.0,6.8079,-0.0
241857,-106.6867,-4.8475,-0.0798,0.0,-89.3578,0.0,-0.0,0.0,0.0552,-0.0,0.0,6.8079,-0.0
241873,-106.6867,-4.8475,-0.0798,0.0,-89.3578,0.0,-0.0,0.0,0.0552,-0.0,0.0,6.8079,-0.0
241889,-106.6867,-4.8475,-0.0798,0.0,-89.3578,0.0,-0.0,0.0,0.0552,-0.0,0.0,6.8079,-0.0
241905,-106.6867,-4.8475,-0.0798,0.0,-89.3578,0.0,-0.0,0.0,0.0552,-0.0,0.0,6.8079,-0.0
241921,-106.6867,-4.8475,-0.0798,0.0,-89.3578,0.0,-0.0,0.0,0.0552,-0.0,0.0,6.8079,-0.0
241937,-106.6867,-4.8475,-0.0798,0.0,-89.3578,0.0,-0.0,0.0,0.0552,-0.0,0.0,6.8079,-0.0
241953,-106.6867,-4.8475,-0.0798,0.0,-89.3578,0.0,-0.0,0.0,0.0552,-0.0,0.0,6.8079,-0.0
241969,-106.6867,-4.8475,-0.0798,0.0,-89.3578,0.0,-0.0,0.0,0.0552,-0.0,0.0,6.8079,-0.0
241985,-106.6867,-4.8475,-0.0798,0.0,-89.3578,0.0,-0.0,0.0,0.0552,-0.0,0.0,6.8079,-0.0
242001,-106.6867,-4.8475,-0.0798,0.0,-89.3578,0.0,-0.0,0.0,0.0552,-0.0,0.0,6.8079,-0.0
242017,-106.6867,-4.8475,-0.0798,0.0,-89.3578,0.0,-0.0,0.0,0.0552,-0.0,0.0,6.8079,-0.0
242033,-106.6867,-4.8475,-0.0798,0.0,-89.3578,0.0,-0.0,0.0,0.0552,-0.0,0.0,6.8079,-0.0
242049,-106.6867,-4.8457,-0.0603,-0.0016,-89.3578,0.0,-0.0005,0.0407,0.2368,-0.0012,0.1037,0.4626,-0.0001
242065,-106.6867,-4.8457,-0.0603,-0.0016,-89.3578,0.0,-0.0005,0.0407,0.2368,-0.0012,0.1037,0.4626,-0.0001
242081,-106.6867,-4.8457,-0.0603,-0.0016,-89.3578,0.0,-0.0005,0.0407,0.2368,-0.0012,0.1037,0.4626,-0.0001
242097,-106.6867,-4.8457,-0.0603,-0.0016,-89.3578,0.0,-0.0005,0.0407,0.2368,-0.0012,0.1037,0.4626,-0.0001
242113,-106.6867,-4.8457,-0.0603,-0.0016,-89.3578,0.0,-0.0005,0.0407,0.2368,-0.0012,0.1037,0.4626,-0.0001
242129,-106.6867,-4.8457,-0.0603,-0.0016,-89.3578,0.0,-0.0005,0.0407,0.2368,-0.0012,0.1037,0.4626,-0.0001
242145,-106.6867,-4.8457,-0.0603,-0.0016,-89.3578,0.0,-0.0005,0.0407,0.2368,-0.0012,0.1037,0.4626,-0.0001
242161,-106.6868,-4.8409,-0.0392,-0.0049,-89.3578,0.0,-0.0011,0.1021,0.1782,-0.0065,0.5768,-0.5508,0.0001
242177,-106.6868,-4.8409,-0.0392,-0.0049,-89.3578,0.0,-0.0011,0.1021,0.1782,-0.0065,0.5768,-0.5508,0.0001
242193,-106.6868,-4.8409,-0.0392,-0.0049,-89.3578,0.0,-0.0011,0.1021,0.1782,-0.0065,0.5768,-0.5508,0.0001
242209,-106.6868,-4.8409,-0.0392,-0.0049,-89.3578,0.0,-0.0011,0.1021,0.1782,-0.0065,0.5768,-0.5508,0.0001
242225,-106.6868,-4.8409,-0.0392,-0.0049,-89.3578,0.0,-0.0011,0.1021,0.1782,-0.0065,0.5768,-0.5508,0.0001
242241,-106.6868,-4.8409,-0.0392,-0.0049,-89.3578,0.0,-0.0011,0.1021,0.1782,-0.0065,0.5768,-0.5508,0.0001
242260,-106.6872,-4.8042,-0.0255,-0.0299,-89.3576,0.0,-0.0069,0.6148,0.1035,-0.053,4.7435,-0.6904,-0.0078
242273,-106.6872,-4.8042,-0.0255,-0.0299,-89.3576,0.0,-0.0069,0.6148,0.1035,-0.053,4.7435,-0.6904,-0.0078
242289,-106.6872,-4.8042,-0.0255,-0.0299,-89.3576,0.0,-0.0069,0.6148,0.1035,-0.053,4.7435,-0.6904,-0.0078
242305,-106.6872,-4.8042,-0.0255,-0.0299,-89.3576,0.0,-0.0069,0.6148,0.1035,-0.053,4.7435,-0.6904,-0.0078
242321,-106.6872,-4.8042,-0.0255,-0.0299,-89.3576,0.0,-0.0069,0.6148,0.1035,-0.053,4.7435,-0.6904,-0.0078
242337,-106.6872,-4.8042,-0.0255,-0.0299,-89.3576,0.0,-0.0069,0.6148,0.1035,-0.053,4.7435,-0.6904,-0.0078
242356,-106.6872,-4.8042,-0.0255,-0.0299,-89.3576,0.0,-0.0069,0.6148,0.1035,-0.053,4.7435,-0.6904,-0.0078
242369,-106.6881,-4.7239,-0.0182,-0.0482,-89.3578,0.0,-0.0111,0.9879,0.0555,-0.0439,3.9046,-0.5024,0.0001
242385,-106.6881,-4.7239,-0.0182,-0.0482,-89.3578,0.0,-0.0111,0.9879,0.0555,-0.0439,3.9046,-0.5024,0.0001
242401,-106.6881,-4.7239,-0.0182,-0.0482,-89.3578,0.0,-0.0111,0.9879,0.0555,-0.0439,3.9046,-0.5024,0.0001
242417,-106.6881,-4.7239,-0.0182,-0.0482,-89.3578,0.0,-0.0111,0.9879,0.0555,-0.0439,3.9046,-0.5024,0.0001
242433,-106.6881,-4.7239,-0.0182,-0.0482,-89.3578,0.0,-0.0111,0.9879,0.0555,-0.0439,3.9046,-0.5024,0.0001
242449,-106.6881,-4.7239,-0.0182,-0.0482,-89.3578,0.0,-0.0111,0.9879,0.0555,-0.0439,3.9046,-0.5024,0.0001
242465,-106.6892,-4.6222,-0.0141,-0.0399,-89.3536,0.0,-0.0129,1.1129,0.0322,-0.0179,1.2121,-0.2261,0.2321
242481,-106.6892,-4.6222,-0.0141,-0.0399,-89.3536,0.0,-0.0129,1.1129,0.0322,-0.0179,1.2121,-0.2261,0.2321
242497,-106.6892,-4.6222,-0.0141,-0.0399,-89.3536,0.0,-0.0129,1.1129,0.0322,-0.0179,1.2121,-0.2261,0.2321
242513,-106.6892,-4.6222,-0.0141,-0.0399,-89.3536,0.0,-0.0129,1.1129,0.0322,-0.0179,1.2121,-0.2261,0.2321
242529,-106.6892,-4.6222,-0.0141,-0.0399,-89.3536,0.0,-0.0129,1.1129,0.0322,-0.0179,1.2121,-0.2261,0.2321
242545,-106.6892,-4.6222,-0.0141,-0.0399,-89.3536,0.0,-0.0129,1.1129,0.0322,-0.0179,1.2121,-0.2261,0.2321
242573,-106.6892,-4.6222,-0.0141,-0.0399,-89.3536,0.0,-0.0129,1.1129,0.0322,-0.0179,1.2121,-0.2261,0.2321
242577,-106.6904,-4.5121,-0.0123,-0.0326,-89.3694,-0.0002,-0.0122,1.3234,0.013,0.0067,1.8724,-0.1712,-0.7445
242593,-106.6904,-4.5121,-0.0123,-0.0326,-89.3694,-0.0002,-0.0122,1.3234,0.013,0.0067,1.8724,-0.1712,-0.7445
242609,-106.6904,-4.5121,-0.0123,-0.0326,-89.3694,-0.0002,-0.0122,1.3234,0.013,0.0067,1.8724,-0.1712,-0.7445
242625,-106.6904,-4.5121,-0.0123,-0.0326,-89.3694,-0.0002,-0.0122,1.3234,0.013,0.0067,1.8724,-0.1712,-0.7445
242641,-106.6904,-4.5121,-0.0123,-0.0326,-89.3694,-0.0002,-0.0122,1.3234,0.013,0.0067,1.8724,-0.1712,-0.7445
242657,-106.6904,-4.5121,-0.0123,-0.0326,-89.3694,-0.0002,-0.0122,1.3234,0.013,0.0067,1.8724,-0.1712,-0.7445
242676,-106.6917,-4.3723,-0.0114,-0.0399,-89.3865,-0.0001,-0.0169,1.5789,0.005,-0.0443,2.404,-0.0755,0.0035
242689,-106.6917,-4.3723,-0.0114,-0.0399,-89.3865,-0.0001,-0.0169,1.5789,0.005,-0.0443,2.404,-0.0755,0.0035
242705,-106.6917,-4.3723,-0.0114,-0.0399,-89.3865,-0.0001,-0.0169,1.5789,0.005,-0.0443,2.404,-0.0755,0.0035
242721,-106.6917,-4.3723,-0.0114,-0.0399,-89.3865,-0.0001,-0.0169,1.5789,0.005,-0.0443,2.404,-0.0755,0.0035
242737,-106.6917,-4.3723,-0.0114,-0.0399,-89.3865,-0.0001,-0.0169,1.5789,0.005,-0.0443,2.404,-0.0755,0.0035
242753,-106.6917,-4.3723,-0.0114,-0.0399,-89.3865,-0.0001,-0.0169,1.5789,0.005,-0.0443,2.404,-0.0755,0.0035
242772,-106.6917,-4.3723,-0.0114,-0.0399,-89.3865,-0.0001,-0.0169,1.5789,0.005,-0.0443,2.404,-0.0755,0.0035
242785,-106.6937,-4.2008,-0.0111,-0.047,-89.3658,-0.0002,-0.0187,1.9366,0.0021,-0.0177,3.486,-0.0282,3.4967
242801,-106.6937,-4.2008,-0.0111,-0.047,-89.3658,-0.0002,-0.0187,1.9366,0.0021,-0.0177,3.486,-0.0282,3.4967
242817,-106.6937,-4.2008,-0.0111,-0.047,-89.3658,-0.0002,-0.0187,1.9366,0.0021,-0.0177,3.486,-0.0282,3.4967
242833,-106.6937,-4.2008,-0.0111,-0.047,-89.3658,-0.0002,-0.0187,1.9366,0.0021,-0.0177,3.486,-0.0282,3.4967
242849,-106.6937,-4.2008,-0.0111,-0.047,-89.3658,-0.0002,-0.0187,1.9366,0.0021,-0.0177,3.486,-0.0282,3.4967
242865,-106.6937,-4.2008,-0.0111,-0.047,-89.3658,-0.0002,-0.0187,1.9366,0.0021,-0.0177,3.486,-0.0282,3.4967
242884,-106.6951,-3.9823,-0.0108,-0.0601,-89.4177,-0.001,-0.0238,2.3578,0.0009,-0.0507,4.1708,-0.0113,3.9772
242897,-106.6951,-3.9823,-0.0108,-0.0601,-89.4177,-0.001,-0.0238,2.3578,0.0009,-0.0507,4.1708,-0.0113,3.9772
242913,-106.6951,-3.9823,-0.0108,-0.0601,-89.4177,-0.001,-0.0238,2.3578,0.0009,-0.0507,4.1708,-0.0113,3.9772
242929,-106.6951,-3.9823,-0.0108,-0.0601,-89.4177,-0.001,-0.0238,2.3578,0.0009,-0.0507,4.1708,-0.0113,3.9772
242945,-106.6951,-3.9823,-0.0108,-0.0601,-89.4177,-0.001,-0.0238,2.3578,0.0009,-0.0507,4.1708,-0.0113,3.9772
242961,-106.6951,-3.9823,-0.0108,-0.0601,-89.4177,-0.001,-0.0238,2.3578,0.0009,-0.0507,4.1708,-0.0113,3.9772
242977,-106.6951,-3.9823,-0.0108,-0.0601,-89.4177,-0.001,-0.0238,2.3578,0.0009,-0.0507,4.1708,-0.0113,3.9772
242993,-106.6989,-3.7132,-0.0107,-0.0663,-89.3244,0.0009,-0.0304,2.7178,0.0004,-0.0616,3.3544,-0.0046,1.3771
243009,-106.6989,-3.7132,-0.0107,-0.0663,-89.3244,0.0009,-0.0304,2.7178,0.0004,-0.0616,3.3544,-0.0046,1.3771
243025,-106.6989,-3.7132,-0.0107,-0.0663,-89.3244,0.0009,-0.0304,2.7178,0.0004,-0.0616,3.3544,-0.0046,1.3771
243041,-106.6989,-3.7132,-0.0107,-0.0663,-89.3244,0.0009,-0.0304,2.7178,0.0004,-0.0616,3.3544,-0.0046,1.3771
243057,-106.6989,-3.7132,-0.0107,-0.0663,-89.3244,0.0009,-0.0304,2.7178,0.0004,-0.0616,3.3544,-0.0046,1.3771
243073,-106.6989,-3.7132,-0.0107,-0.0663,-89.3244,0.0009,-0.0304,2.7178,0.0004,-0.0616,3.3544,-0.0046,1.3771
243093,-106.7032,-3.4022,-0.0107,-0.0694,-89.2541,0.0013,-0.0415,3.2929,0.0002,-0.1094,5.6901,-0.0022,-0.1887
243105,-106.7032,-3.4022,-0.0107,-0.0694,-89.2541,0.0013,-0.0415,3.2929,0.0002,-0.1094,5.6901,-0.0022,-0.1887
243121,-106.7032,-3.4022,-0.0107,-0.0694,-89.2541,0.0013,-0.0415,3.2929,0.0002,-0.1094,5.6901,-0.0022,-0.1887
243137,-106.7032,-3.4022,-0.0107,-0.0694,-89.2541,0.0013,-0.0415,3.2929,0.0002,-0.1094,5.6901,-0.0022,-0.1887
243153,-106.7032,-3.4022,-0.0107,-0.0694,-89.2541,0.0013,-0.0415,3.2929,0.0002,-0.1094,5.6901,-0.0022,-0.1887
243169,-106.7032,-3.4022,-0.0107,-0.0694,-89.2541,0.0013,-0.0415,3.2929,0.0002,-0.1094,5.6901,-0.0022,-0.1887
243185,-106.7032,-3.4022,-0.0107,-0.0694,-89.2541,0.0013,-0.0415,3.2929,0.0002,-0.1094,5.6901,-0.0022,-0.1887
243207,-106.707,-3.038,-0.0106,-0.0767,-89.3304,0.0002,-0.0453,3.8208,0.0001,-0.0346,4.76,-0.001,-1.5988
243217,-106.707,-3.038,-0.0106,-0.0767,-89.3304,0.0002,-0.0453,3.8208,0.0001,-0.0346,4.76,-0.001,-1.5988
243233,-106.707,-3.038,-0.0106,-0.0767,-89.3304,0.0002,-0.0453,3.8208,0.0001,-0.0346,4.76,-0.001,-1.5988
243249,-106.707,-3.038,-0.0106,-0.0767,-89.3304,0.0002,-0.0453,3.8208,0.0001,-0.0346,4.76,-0.001,-1.5988
243265,-106.707,-3.038,-0.0106,-0.0767,-89.3304,0.0002,-0.0453,3.8208,0.0001,-0.0346,4.76,-0.001,-1.5988
243281,-106.707,-3.038,-0.0106,-0.0767,-89.3304,0.0002,-0.0453,3.8208,0.0001,-0.0346,4.76,-0.001,-1.5988
243297,-106.707,-3.038,-0.0106,-0.0767,-89.3304,0.0002,-0.0453,3.8208,0.0001,-0.0346,4.76,-0.001,-1.5988
243313,-106.7119,-2.6205,-0.0106,-0.0811,-89.32,-0.0001,-0.0505,4.3744,0.0,-0.0472,5.0191,-0.0004,1.6149
243329,-106.7119,-2.6205,-0.0106,-0.0811,-89.32,-0.0001,-0.0505,4.3744,0.0,-0.0472,5.0191,-0.0004,1.6149
243345,-106.7119,-2.6205,-0.0106,-0.0811,-89.32,-0.0001,-0.0505,4.3744,0.0,-0.0472,5.0191,-0.0004,1.6149
243361,-106.7119,-2.6205,-0.0106,-0.0811,-89.32,-0.0001,-0.0505,4.3744,0.0,-0.0472,5.0191,-0.0004,1.6149
243377,-106.7119,-2.6205,-0.0106,-0.0811,-89.32,-0.0001,-0.0505,4.3744,0.0,-0.0472,5.0191,-0.0004,1.6149
243393,-106.7119,-2.6205,-0.0106,-0.0811,-89.32,-0.0001,-0.0505,4.3744,0.0,-0.0472,5.0191,-0.0004,1.6149
243414,-106.7172,-2.1415,-0.0105,-0.0913,-89.3546,-0.0002,-0.0584,5.0623,0.0,-0.075,6.584,-0.0002,-1.9494
243425,-106.7172,-2.1415,-0.0105,-0.0913,-89.3546,-0.0002,-0.0584,5.0623,0.0,-0.075,6.584,-0.0002,-1.9494
243441,-106.7172,-2.1415,-0.0105,-0.0913,-89.3546,-0.0002,-0.0584,5.0623,0.0,-0.075,6.584,-0.0002,-1.9494
243457,-106.7172,-2.1415,-0.0105,-0.0913,-89.3546,-0.0002,-0.0584,5.0623,0.0,-0.075,6.584,-0.0002,-1.9494
243473,-106.7172,-2.1415,-0.0105,-0.0913,-89.3546,-0.0002,-0.0584,5.0623,0.0,-0.075,6.584,-0.0002,-1.9494
243489,-106.7172,-2.1415,-0.0105,-0.0913,-89.3546,-0.0002,-0.0584,5.0623,0.0,-0.075,6.584,-0.0002,-1.9494
243505,-106.7172,-2.1415,-0.0105,-0.0913,-89.3546,-0.0002,-0.0584,5.0623,0.0,-0.075,6.584,-0.0002,-1.9494
243521,-106.7237,-1.5936,-0.0104,-0.1007,-89.323,0.0,-0.0665,5.7514,0.0,-0.0813,6.8902,-0.0002,1.8265
243537,-106.7237,-1.5936,-0.0104,-0.1007,-89.323,0.0,-0.0665,5.7514,0.0,-0.0813,6.8902,-0.0002,1.8265
243553,-106.7237,-1.5936,-0.0104,-0.1007,-89.323,0.0,-0.0665,5.7514,0.0,-0.0813,6.8902,-0.0002,1.8265
243569,-106.7237,-1.5936,-0.0104,-0.1007,-89.323,0.0,-0.0665,5.7514,0.0,-0.0813,6.8902,-0.0002,1.8265
243585,-106.7237,-1.5936,-0.0104,-0.1007,-89.323,0.0,-0.0665,5.7514,0.0,-0.0813,6.8902,-0.0002,1.8265
243601,-106.7237,-1.5936,-0.0104,-0.1007,-89.323,0.0,-0.0665,5.7514,0.0,-0.0813,6.8902,-0.0002,1.8265
243621,-106.7307,-0.9745,-0.0104,-0.1085,-89.3498,-0.0001,-0.0746,6.4882,-0.0,-0.08,7.2193,-0.0003,-1.2074
243633,-106.7307,-0.9745,-0.0104,-0.1085,-89.3498,-0.0001,-0.0746,6.4882,-0.0,-0.08,7.2193,-0.0003,-1.2074
243649,-106.7307,-0.9745,-0.0104,-0.1085,-89.3498,-0.0001,-0.0746,6.4882,-0.0,-0.08,7.2193,-0.0003,-1.2074
243665,-106.7307,-0.9745,-0.0104,-0.1085,-89.3498,-0.0001,-0.0746,6.4882,-0.0,-0.08,7.2193,-0.0003,-1.2074
243681,-106.7307,-0.9745,-0.0104,-0.1085,-89.3498,-0.0001,-0.0746,6.4882,-0.0,-0.08,7.2193,-0.0003,-1.2074
243697,-106.7307,-0.9745,-0.0104,-0.1085,-89.3498,-0.0001,-0.0746,6.4882,-0.0,-0.08,7.2193,-0.0003,-1.2074
243713,-106.7307,-0.9745,-0.0104,-0.1085,-89.3498,-0.0001,-0.0746,6.4882,-0.0,-0.08,7.2193,-0.0003,-1.2074
243729,-106.7389,-0.2795,-0.0103,-0.1158,-89.3301,0.0,-0.0843,7.2636,-0.0,-0.0873,7.0359,0.0002,0.5194
243745,-106.7389,-0.2795,-0.0103,-0.1158,-89.3301,0.0,-0.0843,7.2636,-0.0,-0.0873,7.0359,0.0002,0.5194
243761,-106.7389,-0.2795,-0.0103,-0.1158,-89.3301,0.0,-0.0843,7.2636,-0.0,-0.0873,7.0359,0.0002,0.5194
243777,-106.7389,-0.2795,-0.0103,-0.1158,-89.3301,0.0,-0.0843,7.2636,-0.0,-0.0873,7.0359,0.0002,0.5194
243793,-106.7389,-0.2795,-0.0103,-0.1158,-89.3301,0.0,-0.0843,7.2636,-0.0,-0.0873,7.0359,0.0002,0.5194
243809,-106.7389,-0.2795,-0.0103,-0.1158,-89.3301,0.0,-0.0843,7.2636,-0.0,-0.0873,7.0359,0.0002,0.5194
243834,-106.7389,-0.2795,-0.0103,-0.1158,-89.3301,0.0,-0.0843,7.2636,-0.0,-0.0873,7.0359,0.0002,0.5194
243841,-106.7477,0.4907,-0.0103,-0.1183,-89.3441,-0.0001,-0.0921,7.9904,-0.0,-0.0734,6.8358,0.0,-0.3761
243857,-106.7477,0.4907,-0.0103,-0.1183,-89.3441,-0.0001,-0.0921,7.9904,-0.0,-0.0734,6.8358,0.0,-0.3761
243873,-106.7477,0.4907,-0.0103,-0.1183,-89.3441,-0.0001,-0.0921,7.9904,-0.0,-0.0734,6.8358,0.0,-0.3761
243889,-106.7477,0.4907,-0.0103,-0.1183,-89.3441,-0.0001,-0.0921,7.9904,-0.0,-0.0734,6.8358,0.0,-0.3761
243905,-106.7477,0.4907,-0.0103,-0.1183,-89.3441,-0.0001,-0.0921,7.9904,-0.0,-0.0734,6.8358,0.0,-0.3761
243921,-106.7477,0.4907,-0.0103,-0.1183,-89.3441,-0.0001,-0.0921,7.9904,-0.0,-0.0734,6.8358,0.0,-0.3761
243940,-106.7574,1.3281,-0.0103,-0.114,-89.3335,0.0,-0.0999,8.633,0.0,-0.0748,6.117,0.0001,0.2348
243953,-106.7574,1.3281,-0.0103,-0.114,-89.3335,0.0,-0.0999,8.633,0.0,-0.0748,6.117,0.0001,0.2348
243969,-106.7574,1.3281,-0.0103,-0.114,-89.3335,0.0,-0.0999,8.633,0.0,-0.0748,6.117,0.0001,0.2348
243985,-106.7574,1.3281,-0.0103,-0.114,-89.3335,0.0,-0.0999,8.633,0.0,-0.0748,6.117,0.0001,0.2348
244001,-106.7574,1.3281,-0.0103,-0.114,-89.3335,0.0,-0.0999,8.633,0.0,-0.0748,6.117,0.0001,0.2348
244017,-106.7574,1.3281,-0.0103,-0.114,-89.3335,0.0,-0.0999,8.633,0.0,-0.0748,6.117,0.0001,0.2348
244045,-106.7677,2.2257,-0.0104,-0.1066,-89.3394,0.0,-0.1064,9.2084,0.0,-0.0618,5.5041,-0.0001,-0.1001
244049,-106.7677,2.2257,-0.0104,-0.1066,-89.3394,0.0,-0.1064,9.2084,0.0,-0.0618,5.5041,-0.0001,-0.1001
244065,-106.7677,2.2257,-0.0104,-0.1066,-89.3394,0.0,-0.1064,9.2084,0.0,-0.0618,5.5041,-0.0001,-0.1001
244081,-106.7677,2.2257,-0.0104,-0.1066,-89.3394,0.0,-0.1064,9.2084,0.0,-0.0618,5.5041,-0.0001,-0.1001
244097,-106.7677,2.2257,-0.0104,-0.1066,-89.3394,0.0,-0.1064,9.2084,0.0,-0.0618,5.5041,-0.0001,-0.1001
244113,-106.7677,2.2257,-0.0104,-0.1066,-89.3394,0.0,-0.1064,9.2084,0.0,-0.0618,5.5041,-0.0001,-0.1001
244129,-106.7677,2.2257,-0.0104,-0.1066,-89.3394,0.0,-0.1064,9.2084,0.0,-0.0618,5.5041,-0.0001,-0.1001
244148,-106.7788,3.1772,-0.0104,-0.0983,-89.3373,0.0,-0.1125,9.7317,-0.0,-0.0571,4.878,-0.0,0.0127
244161,-106.7788,3.1772,-0.0104,-0.0983,-89.3373,0.0,-0.1125,9.7317,-0.0,-0.0571,4.878,-0.0,0.0127
244177,-106.7788,3.1772,-0.0104,-0.0983,-89.3373,0.0,-0.1125,9.7317,-0.0,-0.0571,4.878,-0.0,0.0127
244193,-106.7788,3.1772,-0.0104,-0.0983,-89.3373,0.0,-0.1125,9.7317,-0.0,-0.0571,4.878,-0.0,0.0127
244209,-106.7788,3.1772,-0.0104,-0.0983,-89.3373,0.0,-0.1125,9.7317,-0.0,-0.0571,4.878,-0.0,0.0127
244225,-106.7788,3.1772,-0.0104,-0.0983,-89.3373,0.0,-0.1125,9.7317,-0.0,-0.0571,4.878,-0.0,0.0127
244241,-106.7788,3.1772,-0.0104,-0.0983,-89.3373,0.0,-0.1125,9.7317,-0.0,-0.0571,4.878,-0.0,0.0127
244258,-106.7904,4.1796,-0.0105,-0.0916,-89.3377,0.0002,-0.1183,10.2365,0.0,-0.0559,4.8713,0.0004,-0.0022
244274,-106.7904,4.1796,-0.0105,-0.0916,-89.3377,0.0002,-0.1183,10.2365,0.0,-0.0559,4.8713,0.0004,-0.0022
244290,-106.7904,4.1796,-0.0105,-0.0916,-89.3377,0.0002,-0.1183,10.2365,0.0,-0.0559,4.8713,0.0004,-0.0022
244306,-106.7904,4.1796,-0.0105,-0.0916,-89.3377,0.0002,-0.1183,10.2365,0.0,-0.0559,4.8713,0.0004,-0.0022
244322,-106.7904,4.1796,-0.0105,-0.0916,-89.3377,0.0002,-0.1183,10.2365,0.0,-0.0559,4.8713,0.0004,-0.0022
244338,-106.7904,4.1796,-0.0105,-0.0916,-89.3377,0.0002,-0.1183,10.2365,0.0,-0.0559,4.8713,0.0004,-0.0022
244361,-106.8025,5.2307,-0.0105,-0.0864,-89.3378,-0.0,-0.1238,10.7092,0.0,-0.0515,4.4429,-0.0002,-0.0004
244370,-106.8025,5.2307,-0.0105,-0.0864,-89.3378,-0.0,-0.1238,10.7092,0.0,-0.0515,4.4429,-0.0002,-0.0004
244386,-106.8025,5.2307,-0.0105,-0.0864,-89.3378,-0.0,-0.1238,10.7092,0.0,-0.0515,4.4429,-0.0002,-0.0004
244402,-106.8025,5.2307,-0.0105,-0.0864,-89.3378,-0.0,-0.1238,10.7092,0.0,-0.0515,4.4429,-0.0002,-0.0004
244418,-106.8025,5.2307,-0.0105,-0.0864,-89.3378,-0.0,-0.1238,10.7092,0.0,-0.0515,4.4429,-0.0002,-0.0004
244434,-106.8025,5.2307,-0.0105,-0.0864,-89.3378,-0.0,-0.1238,10.7092,0.0,-0.0515,4.4429,-0.0002,-0.0004
244457,-106.8146,6.2761,-0.0106,-0.0821,-89.3378,0.0,-0.1289,11.1485,-0.0,-0.0532,4.6054,-0.0001,-0.0001
244466,-106.8146,6.2761,-0.0106,-0.0821,-89.3378,0.0,-0.1289,11.1485,-0.0,-0.0532,4.6054,-0.0001,-0.0001
244482,-106.8146,6.2761,-0.0106,-0.0821,-89.3378,0.0,-0.1289,11.1485,-0.0,-0.0532,4.6054,-0.0001,-0.0001
244498,-106.8146,6.2761,-0.0106,-0.0821,-89.3378,0.0,-0.1289,11.1485,-0.0,-0.0532,4.6054,-0.0001,-0.0001
244514,-106.8146,6.2761,-0.0106,-0.0821,-89.3378,0.0,-0.1289,11.1485,-0.0,-0.0532,4.6054,-0.0001,-0.0001
244530,-106.8146,6.2761,-0.0106,-0.0821,-89.3378,0.0,-0.1289,11.1485,-0.0,-0.0532,4.6054,-0.0001,-0.0001
244546,-106.8146,6.2761,-0.0106,-0.0821,-89.3378,0.0,-0.1289,11.1485,-0.0,-0.0532,4.6054,-0.0001,-0.0001
244562,-106.8278,7.4139,-0.0106,-0.0765,-89.3378,0.0,-0.1334,11.5454,0.0,-0.043,3.7244,0.0,0.0
244578,-106.8278,7.4139,-0.0106,-0.0765,-89.3378,0.0,-0.1334,11.5454,0.0,-0.043,3.7244,0.0,0.0
244594,-106.8278,7.4139,-0.0106,-0.0765,-89.3378,0.0,-0.1334,11.5454,0.0,-0.043,3.7244,0.0,0.0
244610,-106.8278,7.4139,-0.0106,-0.0765,-89.3378,0.0,-0.1334,11.5454,0.0,-0.043,3.7244,0.0,0.0
244626,-106.8278,7.4139,-0.0106,-0.0765,-89.3378,0.0,-0.1334,11.5454,0.0,-0.043,3.7244,0.0,0.0
244642,-106.8278,7.4139,-0.0106,-0.0765,-89.3378,0.0,-0.1334,11.5454,0.0,-0.043,3.7244,0.0,0.0
244678,-106.8413,8.5886,-0.0106,-0.0696,-89.3378,0.0,-0.1375,11.8982,0.0,-0.0385,3.3307,0.0001,0.0
244694,-106.8413,8.5886,-0.0106,-0.0696,-89.3378,0.0,-0.1375,11.8982,0.0,-0.0385,3.3307,0.0001,0.0
244710,-106.8413,8.5886,-0.0106,-0.0696,-89.3378,0.0,-0.1375,11.8982,0.0,-0.0385,3.3307,0.0001,0.0
244726,-106.8413,8.5886,-0.0106,-0.0696,-89.3378,0.0,-0.1375,11.8982,0.0,-0.0385,3.3307,0.0001,0.0
244742,-106.8413,8.5886,-0.0106,-0.0696,-89.3378,0.0,-0.1375,11.8982,0.0,-0.0385,3.3307,0.0001,0.0
244758,-106.8413,8.5886,-0.0106,-0.0696,-89.3378,0.0,-0.1375,11.8982,0.0,-0.0385,3.3307,0.0001,0.0
244777,-106.8854,9.7891,-0.0107,-0.054,-90.7613,0.1264,-0.9896,12.0191,0.001,-8.0439,1.1408,0.0095,-31.2888
244790,-106.8854,9.7891,-0.0107,-0.054,-90.7613,0.1264,-0.9896,12.0191,0.001,-8.0439,1.1408,0.0095,-31.2888
244806,-106.8854,9.7891,-0.0107,-0.054,-90.7613,0.1264,-0.9896,12.0191,0.001,-8.0439,1.1408,0.0095,-31.2888
244822,-106.8854,9.7891,-0.0107,-0.054,-90.7613,0.1264,-0.9896,12.0191,0.001,-8.0439,1.1408,0.0095,-31.2888
244838,-106.8854,9.7891,-0.0107,-0.054,-90.7613,0.1264,-0.9896,12.0191,0.001,-8.0439,1.1408,0.0095,-31.2888
244854,-106.8854,9.7891,-0.0107,-0.054,-90.7613,0.1264,-0.9896,12.0191,0.001,-8.0439,1.1408,0.0095,-31.2888
244873,-106.9967,10.9633,-0.0109,-0.0159,-96.5015,0.2659,-1.9483,11.8176,0.0011,-9.7115,-2.0407,0.0009,-81.5514
244886,-106.9967,10.9633,-0.0109,-0.0159,-96.5015,0.2659,-1.9483,11.8176,0.0011,-9.7115,-2.0407,0.0009,-81.5514
244902,-106.9967,10.9633,-0.0109,-0.0159,-96.5015,0.2659,-1.9483,11.8176,0.0011,-9.7115,-2.0407,0.0009,-81.5514
244918,-106.9967,10.9633,-0.0109,-0.0159,-96.5015,0.2659,-1.9483,11.8176,0.0011,-9.7115,-2.0407,0.0009,-81.5514
244934,-106.9967,10.9633,-0.0109,-0.0159,-96.5015,0.2659,-1.9483,11.8176,0.0011,-9.7115,-2.0407,0.0009,-81.5514
244950,-106.9967,10.9633,-0.0109,-0.0159,-96.5015,0.2659,-1.9483,11.8176,0.0011,-9.7115,-2.0407,0.0009,-81.5514
244973,-107.1339,12.0726,-0.011,0.0132,-107.225,0.2587,-2.3596,11.6055,-0.0001,-4.2745,-2.204,-0.0122,-136.005
244982,-107.1339,12.0726,-0.011,0.0132,-107.225,0.2587,-2.3596,11.6055,-0.0001,-4.2745,-2.204,-0.0122,-136.005
244998,-107.1339,12.0726,-0.011,0.0132,-107.225,0.2587,-2.3596,11.6055,-0.0001,-4.2745,-2.204,-0.0122,-136.005
245014,-107.1339,12.0726,-0.011,0.0132,-107.225,0.2587,-2.3596,11.6055,-0.0001,-4.2745,-2.204,-0.0122,-136.005
245030,-107.1339,12.0726,-0.011,0.0132,-107.225,0.2587,-2.3596,11.6055,-0.0001,-4.2745,-2.204,-0.0122,-136.005
245046,-107.1339,12.0726,-0.011,0.0132,-107.225,0.2587,-2.3596,11.6055,-0.0001,-4.2745,-2.204,-0.0122,-136.005
245062,-107.1339,12.0726,-0.011,0.0132,-107.225,0.2587,-2.3596,11.6055,-0.0001,-4.2745,-2.204,-0.0122,-136.005
245078,-107.2442,13.1761,-0.011,-0.0035,-123.8024,0.1044,-1.8643,11.5612,-0.0012,4.7519,-0.4258,-0.0113,-185.4726
245094,-107.2442,13.1761,-0.011,-0.0035,-123.8024,0.1044,-1.8643,11.5612,-0.0012,4.7519,-0.4258,-0.0113,-185.4726
245110,-107.2442,13.1761,-0.011,-0.0035,-123.8024,0.1044,-1.8643,11.5612,-0.0012,4.7519,-0.4258,-0.0113,-185.4726
245126,-107.2442,13.1761,-0.011,-0.0035,-123.8024,0.1044,-1.8643,11.5612,-0.0012,4.7519,-0.4258,-0.0113,-185.4726
245142,-107.2442,13.1761,-0.011,-0.0035,-123.8024,0.1044,-1.8643,11.5612,-0.0012,4.7519,-0.4258,-0.0113,-185.4726
245158,-107.2442,13.1761,-0.011,-0.0035,-123.8024,0.1044,-1.8643,11.5612,-0.0012,4.7519,-0.4258,-0.0113,-185.4726
245174,-107.2275,14.2328,-0.0103,-0.1038,-143.715,-0.1719,0.0281,11.5251,0.001,18.1981,-0.3468,0.0218,-207.0142
245190,-107.2275,14.2328,-0.0103,-0.1038,-143.715,-0.1719,0.0281,11.5251,0.001,18.1981,-0.3468,0.0218,-207.0142
245206,-107.2275,14.2328,-0.0103,-0.1038,-143.715,-0.1719,0.0281,11.5251,0.001,18.1981,-0.3468,0.0218,-207.0142
245222,-107.2275,14.2328,-0.0103,-0.1038,-143.715,-0.1719,0.0281,11.5251,0.001,18.1981,-0.3468,0.0218,-207.0142
245238,-107.2275,14.2328,-0.0103,-0.1038,-143.715,-0.1719,0.0281,11.5251,0.001,18.1981,-0.3468,0.0218,-207.0142
245254,-107.2275,14.2328,-0.0103,-0.1038,-143.715,-0.1719,0.0281,11.5251,0.001,18.1981,-0.3468,0.0218,-207.0142
245286,-107.0283,15.2092,-0.0093,-0.2169,-164.9804,-0.4174,2.3711,10.7708,0.0021,23.2224,-7.4762,0.0102,-216.5881
245302,-107.0283,15.2092,-0.0093,-0.2169,-164.9804,-0.4174,2.3711,10.7708,0.0021,23.2224,-7.4762,0.0102,-216.5881
245318,-107.0283,15.2092,-0.0093,-0.2169,-164.9804,-0.4174,2.3711,10.7708,0.0021,23.2224,-7.4762,0.0102,-216.5881
245334,-107.0283,15.2092,-0.0093,-0.2169,-164.9804,-0.4174,2.3711,10.7708,0.0021,23.2224,-7.4762,0.0102,-216.5881
245350,-107.0283,15.2092,-0.0093,-0.2169,-164.9804,-0.4174,2.3711,10.7708,0.0021,23.2224,-7.4762,0.0102,-216.5881
245366,-107.0283,15.2092,-0.0093,-0.2169,-164.9804,-0.4174,2.3711,10.7708,0.0021,23.2224,-7.4762,0.0102,-216.5881
245386,-106.6898,16.0158,-0.0087,-0.2695,173.2523,-0.6732,3.7559,8.581,0.0023,12.6306,-19.9729,0.002,-216.943
245398,-106.6898,16.0158,-0.0087,-0.2695,173.2523,-0.6732,3.7559,8.581,0.0023,12.6306,-19.9729,0.002,-216.943
245414,-106.6898,16.0158,-0.0087,-0.2695,173.2523,-0.6732,3.7559,8.581,0.0023,12.6306,-19.9729,0.002,-216.943
245430,-106.6898,16.0158,-0.0087,-0.2695,173.2523,-0.6732,3.7559,8.581,0.0023,12.6306,-19.9729,0.002,-216.943
245446,-106.6898,16.0158,-0.0087,-0.2695,173.2523,-0.6732,3.7559,8.581,0.0023,12.6306,-19.9729,0.002,-216.943
245462,-106.6898,16.0158,-0.0087,-0.2695,173.2523,-0.6732,3.7559,8.581,0.0023,12.6306,-19.9729,0.002,-216.943
245478,-106.6898,16.0158,-0.0087,-0.2695,173.2523,-0.6732,3.7559,8.581,0.0023,12.6306,-19.9729,0.002,-216.943
245494,-106.4061,16.6085,-0.0092,-0.1949,152.889,-0.8701,2.4752,6.5689,-0.0026,-12.6419,-19.8618,-0.0479,-190.7374
245510,-106.4061,16.6085,-0.0092,-0.1949,152.889,-0.8701,2.4752,6.5689,-0.0026,-12.6419,-19.8618,-0.0479,-190.7374
245526,-106.4061,16.6085,-0.0092,-0.1949,152.889,-0.8701,2.4752,6.5689,-0.0026,-12.6419,-19.8618,-0.0479,-190.7374
245542,-106.4061,16.6085,-0.0092,-0.1949,152.889,-0.8701,2.4752,6.5689,-0.0026,-12.6419,-19.8618,-0.0479,-190.7374
245558,-106.4061,16.6085,-0.0092,-0.1949,152.889,-0.8701,2.4752,6.5689,-0.0026,-12.6419,-19.8618,-0.0479,-190.7374
245577,-106.3553,17.0692,-0.0101,-0.0417,137.2807,-0.9252,0.3425,6.1185,0.0014,-23.7123,-5.0086,0.0437,-153.1033
245590,-106.3553,17.0692,-0.0101,-0.0417,137.2807,-0.9252,0.3425,6.1185,0.0014,-23.7123,-5.0086,0.0437,-153.1033
245606,-106.3553,17.0692,-0.0101,-0.0417,137.2807,-0.9252,0.3425,6.1185,0.0014,-23.7123,-5.0086,0.0437,-153.1033
245622,-106.3553,17.0692,-0.0101,-0.0417,137.2807,-0.9252,0.3425,6.1185,0.0014,-23.7123,-5.0086,0.0437,-153.1033
245638,-106.3553,17.0692,-0.0101,-0.0417,137.2807,-0.9252,0.3425,6.1185,0.0014,-23.7123,-5.0086,0.0437,-153.1033
245654,-106.3553,17.0692,-0.0101,-0.0417,137.2807,-0.9252,0.3425,6.1185,0.0014,-23.7123,-5.0086,0.0437,-153.1033
245673,-106.5013,17.6418,-0.0114,0.1301,125.4115,-0.7719,-1.6062,7.0709,-0.001,-20.4505,9.9949,-0.0243,-103.3597
245686,-106.5013,17.6418,-0.0114,0.1301,125.4115,-0.7719,-1.6062,7.0709,-0.001,-20.4505,9.9949,-0.0243,-103.3597
245702,-106.5013,17.6418,-0.0114,0.1301,125.4115,-0.7719,-1.6062,7.0709,-0.001,-20.4505,9.9949,-0.0243,-103.3597
245718,-106.5013,17.6418,-0.0114,0.1301,125.4115,-0.7719,-1.6062,7.0709,-0.001,-20.4505,9.9949,-0.0243,-103.3597
245734,-106.5013,17.6418,-0.0114,0.1301,125.4115,-0.7719,-1.6062,7.0709,-0.001,-20.4505,9.9949,-0.0243,-103.3597
245750,-106.5013,17.6418,-0.0114,0.1301,125.4115,-0.7719,-1.6062,7.0709,-0.001,-20.4505,9.9949,-0.0243,-103.3597
245766,-106.5013,17.6418,-0.0114,0.1301,125.4115,-0.7719,-1.6062,7.0709,-0.001,-20.4505,9.9949,-0.0243,-103.3597
245798,-106.7375,18.3773,-0.0121,0.1979,116.1342,-0.4105,-1.6798,8.137,-0.0027,-0.7115,10.3152,-0.0168,-89.2701
245814,-106.7375,18.3773,-0.0121,0.1979,116.1342,-0.4105,-1.6798,8.137,-0.0027,-0.7115,10.3152,-0.0168,-89.2701
245830,-106.7375,18.3773,-0.0121,0.1979,116.1342,-0.4105,-1.6798,8.137,-0.0027,-0.7115,10.3152,-0.0168,-89.2701
245846,-106.7375,18.3773,-0.0121,0.1979,116.1342,-0.4105,-1.6798,8.137,-0.0027,-0.7115,10.3152,-0.0168,-89.2701
245862,-106.7375,18.3773,-0.0121,0.1979,116.1342,-0.4105,-1.6798,8.137,-0.0027,-0.7115,10.3152,-0.0168,-89.2701
245885,-106.9692,19.2039,-0.0123,0.1826,109.3646,-0.2445,-2.2505,8.5705,-0.0018,-5.3553,4.0679,0.0081,-41.1183
245894,-106.9692,19.2039,-0.0123,0.1826,109.3646,-0.2445,-2.2505,8.5705,-0.0018,-5.3553,4.0679,0.0081,-41.1183
245910,-106.9692,19.2039,-0.0123,0.1826,109.3646,-0.2445,-2.2505,8.5705,-0.0018,-5.3553,4.0679,0.0081,-41.1183
245926,-106.9692,19.2039,-0.0123,0.1826,109.3646,-0.2445,-2.2505,8.5705,-0.0018,-5.3553,4.0679,0.0081,-41.1183
245942,-106.9692,19.2039,-0.0123,0.1826,109.3646,-0.2445,-2.2505,8.5705,-0.0018,-5.3553,4.0679,0.0081,-41.1183
245958,-106.9692,19.2039,-0.0123,0.1826,109.3646,-0.2445,-2.2505,8.5705,-0.0018,-5.3553,4.0679,0.0081,-41.1183
245974,-106.9692,19.2039,-0.0123,0.1826,109.3646,-0.2445,-2.2505,8.5705,-0.0018,-5.3553,4.0679,0.0081,-41.1183
246000,-107.2375,20.0605,-0.012,0.129,107.2691,-0.2254,-2.6547,8.666,-0.0003,-3.4926,0.8249,0.0129,-9.5274
246006,-107.2375,20.0605,-0.012,0.129,107.2691,-0.2254,-2.6547,8.666,-0.0003,-3.4926,0.8249,0.0129,-9.5274
246022,-107.2375,20.0605,-0.012,0.129,107.2691,-0.2254,-2.6547,8.666,-0.0003,-3.4926,0.8249,0.0129,-9.5274
246038,-107.2375,20.0605,-0.012,0.129,107.2691,-0.2254,-2.6547,8.666,-0.0003,-3.4926,0.8249,0.0129,-9.5274
246054,-107.2375,20.0605,-0.012,0.129,107.2691,-0.2254,-2.6547,8.666,-0.0003,-3.4926,0.8249,0.0129,-9.5274
246070,-107.2375,20.0605,-0.012,0.129,107.2691,-0.2254,-2.6547,8.666,-0.0003,-3.4926,0.8249,0.0129,-9.5274
246086,-107.2375,20.0605,-0.012,0.129,107.2691,-0.2254,-2.6547,8.666,-0.0003,-3.4926,0.8249,0.0129,-9.5274
246112,-107.2375,20.0605,-0.012,0.129,107.2691,-0.2254,-2.6547,8.666,-0.0003,-3.4926,0.8249,0.0129,-9.5274
246118,-107.5084,20.9325,-0.0117,0.0836,106.7271,-0.1371,-2.6818,8.7854,-0.0006,-0.2353,1.0367,-0.0022,-1.8344
246134,-107.5084,20.9325,-0.0117,0.0836,106.7271,-0.1371,-2.6818,8.7854,-0.0006,-0.2353,1.0367,-0.0022,-1.8344
246150,-107.5084,20.9325,-0.0117,0.0836,106.7271,-0.1371,-2.6818,8.7854,-0.0006,-0.2353,1.0367,-0.0022,-1.8344
246166,-107.5084,20.9325,-0.0117,0.0836,106.7271,-0.1371,-2.6818,8.7854,-0.0006,-0.2353,1.0367,-0.0022,-1.8344
246182,-107.5084,20.9325,-0.0117,0.0836,106.7271,-0.1371,-2.6818,8.7854,-0.0006,-0.2353,1.0367,-0.0022,-1.8344
246198,-107.5084,20.9325,-0.0117,0.0836,106.7271,-0.1371,-2.6818,8.7854,-0.0006,-0.2353,1.0367,-0.0022,-1.8344
246214,-107.5084,20.9325,-0.0117,0.0836,106.7271,-0.1371,-2.6818,8.7854,-0.0006,-0.2353,1.0367,-0.0022,-1.8344
246234,-107.7767,21.8162,-0.0115,0.054,106.5813,-0.0721,-2.6736,8.8832,-0.0005,0.0711,0.8487,0.001,0.1686
246246,-107.7767,21.8162,-0.0115,0.054,106.5813,-0.0721,-2.6736,8.8832,-0.0005,0.0711,0.8487,0.001,0.1686
246262,-107.7767,21.8162,-0.0115,0.054,106.5813,-0.0721,-2.6736,8.8832,-0.0005,0.0711,0.8487,0.001,0.1686
246278,-107.7767,21.8162,-0.0115,0.054,106.5813,-0.0721,-2.6736,8.8832,-0.0005,0.0711,0.8487,0.001,0.1686
246294,-107.7767,21.8162,-0.0115,0.054,106.5813,-0.0721,-2.6736,8.8832,-0.0005,0.0711,0.8487,0.001,0.1686
246310,-107.7767,21.8162,-0.0115,0.054,106.5813,-0.0721,-2.6736,8.8832,-0.0005,0.0711,0.8487,0.001,0.1686
246326,-107.7767,21.8162,-0.0115,0.054,106.5813,-0.0721,-2.6736,8.8832,-0.0005,0.0711,0.8487,0.001,0.1686
246351,-108.044,22.7089,-0.0114,0.0361,106.5408,-0.0366,-2.6754,8.9628,-0.0002,-0.0168,0.7291,0.0023,0.7024
246367,-108.044,22.7089,-0.0114,0.0361,106.5408,-0.0366,-2.6754,8.9628,-0.0002,-0.0168,0.7291,0.0023,0.7024
246383,-108.044,22.7089,-0.0114,0.0361,106.5408,-0.0366,-2.6754,8.9628,-0.0002,-0.0168,0.7291,0.0023,0.7024
246399,-108.044,22.7089,-0.0114,0.0361,106.5408,-0.0366,-2.6754,8.9628,-0.0002,-0.0168,0.7291,0.0023,0.7024
246415,-108.044,22.7089,-0.0114,0.0361,106.5408,-0.0366,-2.6754,8.9628,-0.0002,-0.0168,0.7291,0.0023,0.7024
246431,-108.044,22.7089,-0.0114,0.0361,106.5408,-0.0366,-2.6754,8.9628,-0.0002,-0.0168,0.7291,0.0023,0.7024
246447,-108.044,22.7089,-0.0114,0.0361,106.5408,-0.0366,-2.6754,8.9628,-0.0002,-0.0168,0.7291,0.0023,0.7024
246466,-108.312,23.609,-0.0113,0.0254,106.5293,-0.0187,-2.686,9.0323,-0.0001,-0.0898,0.589,0.0012,0.8431
246482,-108.312,23.609,-0.0113,0.0254,106.5293,-0.0187,-2.686,9.0323,-0.0001,-0.0898,0.589,0.0012,0.8431
246498,-108.312,23.609,-0.0113,0.0254,106.5293,-0.0187,-2.686,9.0323,-0.0001,-0.0898,0.589,0.0012,0.8431
246514,-108.312,23.609,-0.0113,0.0254,106.5293,-0.0187,-2.686,9.0323,-0.0001,-0.0898,0.589,0.0012,0.8431
246530,-108.312,23.609,-0.0113,0.0254,106.5293,-0.0187,-2.686,9.0323,-0.0001,-0.0898,0.589,0.0012,0.8431
246546,-108.312,23.609,-0.0113,0.0254,106.5293,-0.0187,-2.686,9.0323,-0.0001,-0.0898,0.589,0.0012,0.8431
246565,-108.5814,24.5157,-0.0113,0.0192,106.5259,-0.0097,-2.7007,9.0962,0.0,-0.1334,0.5777,0.0007,0.8765
246578,-108.5814,24.5157,-0.0113,0.0192,106.5259,-0.0097,-2.7007,9.0962,0.0,-0.1334,0.5777,0.0007,0.8765
246594,-108.5814,24.5157,-0.0113,0.0192,106.5259,-0.0097,-2.7007,9.0962,0.0,-0.1334,0.5777,0.0007,0.8765
246610,-108.5814,24.5157,-0.0113,0.0192,106.5259,-0.0097,-2.7007,9.0962,0.0,-0.1334,0.5777,0.0007,0.8765
246626,-108.5814,24.5157,-0.0113,0.0192,106.5259,-0.0097,-2.7007,9.0962,0.0,-0.1334,0.5777,0.0007,0.8765
246642,-108.5814,24.5157,-0.0113,0.0192,106.5259,-0.0097,-2.7007,9.0962,0.0,-0.1334,0.5777,0.0007,0.8765
246658,-108.5814,24.5157,-0.0113,0.0192,106.5259,-0.0097,-2.7007,9.0962,0.0,-0.1334,0.5777,0.0007,0.8765
246674,-108.5814,24.5157,-0.0113,0.0192,106.5259,-0.0097,-2.7007,9.0962,0.0,-0.1334,0.5777,0.0007,0.8765
246690,-108.8523,25.4287,-0.0113,0.0156,106.5249,-0.0052,-2.717,9.1569,0.0,-0.1356,0.5051,0.0001,0.8797
246706,-108.8523,25.4287,-0.0113,0.0156,106.5249,-0.0052,-2.717,9.1569,0.0,-0.1356,0.5051,0.0001,0.8797
246722,-108.8523,25.4287,-0.0113,0.0156,106.5249,-0.0052,-2.717,9.1569,0.0,-0.1356,0.5051,0.0001,0.8797
246738,-108.8523,25.4287,-0.0113,0.0156,106.5249,-0.0052,-2.717,9.1569,0.0,-0.1356,0.5051,0.0001,0.8797
246754,-108.8523,25.4287,-0.0113,0.0156,106.5249,-0.0052,-2.717,9.1569,0.0,-0.1356,0.5051,0.0001,0.8797
246770,-108.8523,25.4287,-0.0113,0.0156,106.5249,-0.0052,-2.717,9.1569,0.0,-0.1356,0.5051,0.0001,0.8797
246786,-108.8523,25.4287,-0.0113,0.0156,106.5249,-0.0052,-2.717,9.1569,0.0,-0.1356,0.5051,0.0001,0.8797
246802,-109.1249,26.3476,-0.0113,0.0135,106.5245,-0.0028,-2.7337,9.2156,0.0,-0.1467,0.515,0.0,0.8745
246818,-109.1249,26.3476,-0.0113,0.0135,106.5245,-0.0028,-2.7337,9.2156,0.0,-0.1467,0.515,0.0,0.8745
246834,-109.1249,26.3476,-0.0113,0.0135,106.5245,-0.0028,-2.7337,9.2156,0.0,-0.1467,0.515,0.0,0.8745
246850,-109.1249,26.3476,-0.0113,0.0135,106.5245,-0.0028,-2.7337,9.2156,0.0,-0.1467,0.515,0.0,0.8745
246866,-109.1249,26.3476,-0.0113,0.0135,106.5245,-0.0028,-2.7337,9.2156,0.0,-0.1467,0.515,0.0,0.8745
246882,-109.1249,26.3476,-0.0113,0.0135,106.5245,-0.0028,-2.7337,9.2156,0.0,-0.1467,0.515,0.0,0.8745
246904,-109.3992,27.2723,-0.0112,0.0121,106.5243,-0.0016,-2.7504,9.2726,0.0,-0.1637,0.5615,0.0,0.8672
246914,-109.3992,27.2723,-0.0112,0.0121,106.5243,-0.0016,-2.7504,9.2726,0.0,-0.1637,0.5615,0.0,0.8672
246930,-109.3992,27.2723,-0.0112,0.0121,106.5243,-0.0016,-2.7504,9.2726,0.0,-0.1637,0.5615,0.0,0.8672
246946,-109.3992,27.2723,-0.0112,0.0121,106.5243,-0.0016,-2.7504,9.2726,0.0,-0.1637,0.5615,0.0,0.8672
246962,-109.3992,27.2723,-0.0112,0.0121,106.5243,-0.0016,-2.7504,9.2726,0.0,-0.1637,0.5615,0.0,0.8672
246978,-109.3992,27.2723,-0.0112,0.0121,106.5243,-0.0016,-2.7504,9.2726,0.0,-0.1637,0.5615,0.0,0.8672
