timestamp,x,y,z,pitch,yaw,roll,vx,vy,vz,ax,ay,az,yaw_rate
11020,-106.6867,-4.8475,0.4992,0.0,-89.3578,0.0,0.0,0.0,-1.348,0.0,0.0,-9.8,0.0
11036,-106.6867,-4.8475,0.48,0.0,-89.3578,0.0,0.0,0.0,-1.4779,0.0,0.0,-9.8,0.0
11052,-106.6867,-4.8475,0.48,0.0,-89.3578,0.0,0.0,0.0,-1.4779,0.0,0.0,-9.8,0.0
11070,-106.6867,-4.8475,0.4302,0.0,-89.3578,0.0,0.0,0.0,-1.7719,0.0,0.0,-9.8,0.0
11084,-106.6867,-4.8475,0.3928,0.0,-89.3578,0.0,0.0,0.0,-1.963,0.0,0.0,-9.8,0.0
11100,-106.6867,-4.8475,0.3928,0.0,-89.3578,0.0,0.0,0.0,-1.963,0.0,0.0,-9.8,0.0
11116,-106.6867,-4.8475,0.3521,0.0,-89.3578,0.0,0.0,0.0,-2.1526,0.0,0.0,-9.8,0.0
11132,-106.6867,-4.8475,0.3103,0.0,-89.3578,0.0,0.0,0.0,-2.3318,0.0,0.0,-9.8,0.0
11150,-106.6867,-4.8475,0.2642,0.0,-89.3578,0.0,0.0,0.0,-2.5148,0.0,0.0,-9.8,0.0
11164,-106.6867,-4.8475,0.2165,0.0,-89.3578,0.0,0.0,0.0,-2.6912,0.0,0.0,-9.8,0.0
11182,-106.6867,-4.8475,0.1658,0.0,-89.3578,0.0,0.0,0.0,-2.8673,0.0,0.0,-9.8,0.0
11198,-106.6867,-4.8475,0.1147,0.0,-89.3578,0.0,0.0,0.0,-3.0345,0.0,0.0,-9.8,0.0
11212,-106.6867,-4.8475,0.1147,0.0,-89.3578,0.0,0.0,0.0,-3.0345,0.0,0.0,-9.8,0.0
11230,-106.6867,-4.846,0.0314,-0.0026,-89.3578,0.0,-0.0018,0.1593,-2.785,-0.0652,5.8119,9.1056,-0.0
11244,-106.6868,-4.8441,-0.0101,-0.0044,-89.3578,0.0,-0.0017,0.1514,-2.0001,0.0052,-0.4162,41.2425,-0.0049
11262,-106.6868,-4.8418,-0.0396,-0.006,-89.3578,0.0,-0.0015,0.1322,-1.3877,0.0108,-0.9966,31.7999,-0.0002
11276,-106.6868,-4.8399,-0.0586,-0.0064,-89.3578,0.0,-0.0013,0.1176,-0.9416,0.0089,-0.8032,24.608,0.0002
11292,-106.6868,-4.8399,-0.0586,-0.0064,-89.3578,0.0,-0.0013,0.1176,-0.9416,0.0089,-0.8032,24.608,0.0002
11308,-106.6868,-4.8382,-0.0708,-0.0062,-89.3578,0.0,-0.0012,0.1076,-0.6054,0.0062,-0.558,18.7053,0.0003
11324,-106.6868,-4.8367,-0.0783,-0.0056,-89.3578,0.0,-0.0011,0.1006,-0.3482,0.0043,-0.3857,14.1197,0.0003
11340,-106.687,-4.832,-0.0826,-0.0087,-89.342,-0.0,-0.0024,0.2741,-0.0869,-0.0489,6.5771,9.9048,1.7382
11356,-106.6871,-4.8251,-0.0825,-0.0149,-89.3327,-0.0002,-0.0039,0.423,0.0342,-0.0794,8.1582,6.6356,0.1913
11372,-106.6871,-4.8251,-0.0825,-0.0149,-89.3327,-0.0002,-0.0039,0.423,0.0342,-0.0794,8.1582,6.6356,0.1913
11388,-106.6873,-4.8153,-0.0805,-0.0226,-89.3365,0.0002,-0.0091,0.5301,0.1206,-0.2815,5.7863,4.6713,-0.3351
11404,-106.6875,-4.8043,-0.0775,-0.0293,-89.3305,0.0003,-0.0096,0.6387,0.1773,-0.0316,6.095,3.1762,1.5651
11422,-106.6875,-4.7914,-0.0738,-0.0355,-89.3469,0.0002,-0.0085,0.7484,0.2141,0.0657,6.062,2.0365,-0.5822
11438,-106.6876,-4.7771,-0.0697,-0.041,-89.3615,0.0,-0.009,0.8413,0.2348,-0.031,5.2805,1.1747,-0.3714
11454,-106.6877,-4.7598,-0.0651,-0.0468,-89.3644,-0.0001,-0.0105,0.9665,0.2447,-0.0811,6.7152,0.532,-0.0717
11468,-106.6883,-4.7398,-0.06,-0.0527,-89.3146,0.0001,-0.0124,1.0798,0.2821,-0.0972,5.9323,1.9602,6.3833
11484,-106.6883,-4.7398,-0.06,-0.0527,-89.3146,0.0001,-0.0124,1.0798,0.2821,-0.0972,5.9323,1.9602,6.3833
11500,-106.6887,-4.7201,-0.0553,-0.0571,-89.3075,0.0006,-0.0186,1.2198,0.2622,-0.3548,7.9235,-1.1269,0.0002
11516,-106.689,-4.6987,-0.0507,-0.0594,-89.3075,0.0007,-0.0174,1.2119,0.2455,0.0695,-0.432,-0.9185,0.0021
11532,-106.6893,-4.6774,-0.0465,-0.0585,-89.3075,0.0006,-0.0166,1.2062,0.2262,0.0441,-0.3092,-1.0472,0.0018
11551,-106.6896,-4.6567,-0.0427,-0.0561,-89.3075,0.0005,-0.016,1.2027,0.2061,0.0313,-0.198,-1.1308,-0.0009
11564,-106.6896,-4.6567,-0.0427,-0.0561,-89.3075,0.0005,-0.016,1.2027,0.2061,0.0313,-0.198,-1.1308,-0.0009
11582,-106.69,-4.6187,-0.0369,-0.051,-89.3187,0.0002,-0.0161,1.2724,0.1718,-0.0029,2.1611,-1.0636,-1.3747
11599,-106.6903,-4.5951,-0.0338,-0.0494,-89.3147,0.0002,-0.0168,1.3367,0.1585,-0.0388,3.4172,-0.7088,1.4295
11614,-106.6906,-4.5701,-0.0311,-0.0487,-89.3199,0.0002,-0.0175,1.3683,0.1413,-0.0377,1.6701,-0.9103,-0.2267
11628,-106.6909,-4.5453,-0.0288,-0.049,-89.321,0.0001,-0.0182,1.4694,0.1252,-0.0382,5.7025,-0.9095,-1.2029
11644,-106.6909,-4.5453,-0.0288,-0.049,-89.321,0.0001,-0.0182,1.4694,0.1252,-0.0382,5.7025,-0.9095,-1.2029
11660,-106.6912,-4.5187,-0.0266,-0.0474,-89.3275,0.0001,-0.0186,1.472,0.1124,-0.0195,0.1335,-0.6679,-1.4607
11677,-106.6918,-4.4929,-0.0247,-0.0446,-89.2912,0.0002,-0.0192,1.4648,0.099,-0.0342,-0.3846,-0.717,2.9952
11694,-106.6923,-4.4558,-0.0224,-0.0418,-89.2823,-0.0,-0.0175,1.4288,0.0826,0.0661,-1.3894,-0.6352,-0.4357
11708,-106.6923,-4.4558,-0.0224,-0.0418,-89.2823,-0.0,-0.0175,1.4288,0.0826,0.0661,-1.3894,-0.6352,-0.4357
11724,-106.6926,-4.4291,-0.0211,-0.0398,-89.2885,-0.0,-0.0174,1.4232,0.0739,0.0084,-0.3121,-0.4781,-0.3197
11740,-106.6928,-4.4026,-0.0199,-0.0379,-89.3072,0.0001,-0.019,1.4145,0.0653,-0.0897,-0.4914,-0.4834,0.1766
11756,-106.6932,-4.3728,-0.0188,-0.0389,-89.3046,0.0001,-0.0201,1.5611,0.0581,-0.0625,7.9252,-0.3934,0.1292
11774,-106.6935,-4.3421,-0.0178,-0.0397,-89.3183,0.0,-0.0195,1.6396,0.051,0.0326,4.2241,-0.3773,-1.0827
11790,-106.6937,-4.312,-0.017,-0.0402,-89.3398,0.0,-0.0207,1.6534,0.0448,-0.0649,0.7803,-0.3533,-1.1232
11806,-106.6941,-4.2818,-0.0163,-0.0399,-89.3354,-0.0001,-0.0199,1.6494,0.0396,0.042,-0.2296,-0.2966,-0.8387
11820,-106.6941,-4.2818,-0.0163,-0.0399,-89.3354,-0.0001,-0.0199,1.6494,0.0396,0.042,-0.2296,-0.2966,-0.8387
11836,-106.6948,-4.2351,-0.0154,-0.0442,-89.3147,-0.0002,-0.0222,1.9632,0.0331,-0.0928,12.6733,-0.2617,2.3222
11854,-106.695,-4.1973,-0.0147,-0.0468,-89.3531,-0.0002,-0.0236,2.0058,0.0297,-0.0722,2.2145,-0.1783,1.25
11870,-106.695,-4.1583,-0.0142,-0.0498,-89.4046,-0.0004,-0.0238,2.0766,0.0258,-0.0106,3.7665,-0.2072,-0.5691
11884,-106.6954,-4.1161,-0.0137,-0.0558,-89.4082,-0.0008,-0.0227,2.3384,0.0225,0.0578,13.9765,-0.175,0.4328
11902,-106.6957,-4.0715,-0.0133,-0.0618,-89.4435,-0.0005,-0.0319,2.4015,0.0197,-0.494,3.4029,-0.1538,0.732
11916,-106.6957,-4.0715,-0.0133,-0.0618,-89.4435,-0.0005,-0.0319,2.4015,0.0197,-0.494,3.4029,-0.1538,0.732
11934,-106.6967,-4.0063,-0.0128,-0.0679,-89.4198,-0.0002,-0.0303,2.6109,0.0162,0.0615,8.0968,-0.1366,-0.1371
11950,-106.6971,-3.9544,-0.0125,-0.0707,-89.4336,-0.0004,-0.0292,2.6739,0.0144,0.058,3.1862,-0.0909,-0.3393
11964,-106.6971,-3.9544,-0.0125,-0.0707,-89.4336,-0.0004,-0.0292,2.6739,0.0144,0.058,3.1862,-0.0909,-0.3393
11982,-106.6977,-3.888,-0.0122,-0.0707,-89.4559,-0.0007,-0.0274,2.6671,0.0116,0.0709,-0.2729,-0.1091,-0.9978
11996,-106.6984,-3.8369,-0.012,-0.0718,-89.4272,-0.0007,-0.0293,2.7853,0.0104,-0.1057,6.4911,-0.0685,1.6742
12012,-106.6992,-3.7631,-0.0118,-0.0744,-89.4273,-0.0008,-0.0293,3.0144,0.0086,0.0003,9.1258,-0.0729,1.4161
12028,-106.6992,-3.7631,-0.0118,-0.0744,-89.4273,-0.0008,-0.0293,3.0144,0.0086,0.0003,9.1258,-0.0729,1.4161
12046,-106.6998,-3.7091,-0.0116,-0.075,-89.4201,-0.0007,-0.0324,3.0957,0.0076,-0.175,4.5358,-0.0524,-0.8801
12060,-106.7004,-3.6536,-0.0115,-0.0749,-89.4127,-0.0006,-0.0319,3.1611,0.0067,0.0294,3.6374,-0.0526,1.5861
12078,-106.7011,-3.5697,-0.0113,-0.0734,-89.4268,-0.0005,-0.0325,3.1652,0.0055,-0.0231,0.1544,-0.0445,-0.8339
12092,-106.7019,-3.5097,-0.0113,-0.0732,-89.4041,-0.0004,-0.0332,3.2429,0.0048,-0.0366,4.2561,-0.0365,0.8932
12108,-106.7019,-3.5097,-0.0113,-0.0732,-89.4041,-0.0004,-0.0332,3.2429,0.0048,-0.0366,4.2561,-0.0365,0.8932
12124,-106.7024,-3.4498,-0.0112,-0.0732,-89.424,-0.0005,-0.0338,3.338,0.0042,-0.0362,5.346,-0.0338,-0.7651
12140,-106.7032,-3.3868,-0.0111,-0.0735,-89.4036,-0.0004,-0.035,3.4233,0.0037,-0.0635,4.6799,-0.0279,0.6257
12159,-106.7037,-3.3238,-0.011,-0.074,-89.4244,-0.0005,-0.0352,3.5285,0.0032,-0.0096,5.9381,-0.0279,-0.6869
12172,-106.7044,-3.2586,-0.011,-0.075,-89.4102,-0.0004,-0.0371,3.6318,0.0029,-0.1068,5.7869,-0.0204,0.0162
12188,-106.7044,-3.2586,-0.011,-0.075,-89.4102,-0.0004,-0.0371,3.6318,0.0029,-0.1068,5.7869,-0.0204,0.0162
12204,-106.7054,-3.1616,-0.0109,-0.0784,-89.4097,-0.0005,-0.0381,3.8881,0.0024,-0.0421,10.0676,-0.0193,1.5977
12220,-106.706,-3.0889,-0.0108,-0.0811,-89.4304,-0.0004,-0.0402,4.006,0.0021,-0.1095,6.4298,-0.0154,-0.9468
12238,-106.7068,-3.0104,-0.0108,-0.0858,-89.4259,-0.0005,-0.0399,4.1898,0.0018,0.0122,9.7169,-0.0134,2.8678
12255,-106.7073,-2.9304,-0.0107,-0.0906,-89.4574,-0.0008,-0.0424,4.3729,0.0016,-0.1314,9.8614,-0.0133,-0.7331
12270,-106.7081,-2.85,-0.0106,-0.0972,-89.4523,-0.0008,-0.0438,4.611,0.0014,-0.0817,13.4235,-0.0113,-0.2464
12284,-106.7081,-2.85,-0.0106,-0.0972,-89.4523,-0.0008,-0.0438,4.611,0.0014,-0.0817,13.4235,-0.0113,-0.2464
12302,-106.7095,-2.7203,-0.0105,-0.1062,-89.4296,-0.0006,-0.0472,4.8172,0.0011,-0.1239,7.5726,-0.0093,2.5097
12316,-106.7105,-2.6306,-0.0105,-0.1121,-89.4111,-0.0003,-0.0497,5.0421,0.001,-0.1422,12.5309,-0.0078,2.6452
12332,-106.7105,-2.6306,-0.0105,-0.1121,-89.4111,-0.0003,-0.0497,5.0421,0.001,-0.1422,12.5309,-0.0078,2.6452
12348,-106.7119,-2.4915,-0.0104,-0.1178,-89.4145,-0.0001,-0.0537,5.2647,0.0008,-0.1481,8.2738,-0.007,-0.5675
12364,-106.7129,-2.3961,-0.0104,-0.1212,-89.4094,0.0001,-0.0547,5.4069,0.0007,-0.0561,8.0216,-0.005,-2.0899
12382,-106.714,-2.2981,-0.0103,-0.1232,-89.3968,0.0003,-0.0578,5.5517,0.0006,-0.1706,8.1276,-0.005,-1.0966
12398,-106.7151,-2.1957,-0.0103,-0.1248,-89.3924,0.0004,-0.0589,5.6831,0.0006,-0.0619,7.2629,-0.0035,-2.2304
12414,-106.7163,-2.0876,-0.0103,-0.1249,-89.3861,0.0006,-0.0614,5.8027,0.0005,-0.1327,6.3798,-0.0039,-2.2242
12430,-106.7175,-1.981,-0.0103,-0.124,-89.3815,0.0007,-0.0631,5.8969,0.0004,-0.0934,5.1941,-0.003,-2.6557
12444,-106.7175,-1.981,-0.0103,-0.124,-89.3815,0.0007,-0.0631,5.8969,0.0004,-0.0934,5.1941,-0.003,-2.6557
12463,-106.7193,-1.8327,-0.0103,-0.1223,-89.3576,0.0009,-0.0654,6.0702,0.0003,-0.0954,7.0114,-0.0035,2.0682
12479,-106.7206,-1.7139,-0.0103,-0.1212,-89.3518,0.001,-0.0679,6.1923,0.0003,-0.1284,6.3379,-0.0019,2.8635
12494,-106.7218,-1.6014,-0.0103,-0.1201,-89.3517,0.001,-0.0689,6.3191,0.0003,-0.0543,7.0861,-0.0023,2.0273
12510,-106.7231,-1.4848,-0.0103,-0.1193,-89.3491,0.001,-0.071,6.4416,0.0002,-0.1203,6.733,-0.0014,2.5304
12524,-106.7231,-1.4848,-0.0103,-0.1193,-89.3491,0.001,-0.071,6.4416,0.0002,-0.1203,6.733,-0.0014,2.5304
12540,-106.7244,-1.3646,-0.0103,-0.118,-89.3495,0.001,-0.0721,6.5521,0.0002,-0.0559,5.9955,-0.0021,2.3649
12556,-106.7258,-1.24,-0.0103,-0.1165,-89.3478,0.001,-0.0737,6.656,0.0002,-0.086,5.534,-0.0015,2.8604
12574,-106.7272,-1.1124,-0.0103,-0.1143,-89.348,0.0009,-0.0745,6.7475,0.0002,-0.0418,4.8164,-0.0011,2.8583
12590,-106.7286,-0.988,-0.0104,-0.1119,-89.3499,0.0009,-0.076,6.8445,0.0001,-0.0838,5.3174,-0.0014,2.4548
12606,-106.73,-0.8603,-0.0104,-0.1102,-89.3512,0.0009,-0.0776,6.964,0.0001,-0.0838,6.4865,-0.0009,2.2574
12620,-106.73,-0.8603,-0.0104,-0.1102,-89.3512,0.0009,-0.0776,6.964,0.0001,-0.0838,6.4865,-0.0009,2.2574
12636,-106.7319,-0.6804,-0.0104,-0.1095,-89.3674,0.0007,-0.0798,7.1588,0.0001,-0.0867,7.6758,-0.0011,-1.5954
12654,-106.7334,-0.5364,-0.0104,-0.1096,-89.3717,0.0006,-0.081,7.2893,0.0001,-0.0626,6.582,-0.0009,-2.5526
12670,-106.7351,-0.3943,-0.0104,-0.1089,-89.3702,0.0006,-0.0826,7.3968,0.0001,-0.0828,5.5737,0.0002,-2.224
12684,-106.7351,-0.3943,-0.0104,-0.1089,-89.3702,0.0006,-0.0826,7.3968,0.0001,-0.0828,5.5737,0.0002,-2.224
12700,-106.7374,-0.2,-0.0104,-0.1085,-89.3536,0.0007,-0.0846,7.5777,0.0,-0.0784,6.9962,-0.0013,1.64
12718,-106.7391,-0.0485,-0.0104,-0.1085,-89.3499,0.0006,-0.0862,7.7042,0.0,-0.078,6.4096,-0.0,2.3961
12732,-106.7391,-0.0485,-0.0104,-0.1085,-89.3499,0.0006,-0.0862,7.7042,0.0,-0.078,6.4096,-0.0,2.3961
12749,-106.7413,0.1704,-0.0104,-0.1077,-89.3707,0.0004,-0.0878,7.8713,0.0001,-0.0583,5.9616,0.0004,-2.0358
12764,-106.7413,0.1704,-0.0104,-0.1077,-89.3707,0.0004,-0.0878,7.8713,0.0001,-0.0583,5.9616,0.0004,-2.0358
12784,-106.7444,0.4445,-0.0104,-0.1074,-89.3688,0.0003,-0.0903,8.1035,0.0,-0.0743,6.7908,-0.0007,-1.3835
12796,-106.7444,0.4445,-0.0104,-0.1074,-89.3688,0.0003,-0.0903,8.1035,0.0,-0.0743,6.7908,-0.0007,-1.3835
12812,-106.7468,0.6523,-0.0104,-0.1077,-89.3582,0.0003,-0.0921,8.2768,0.0,-0.0705,6.8529,0.0,1.2121
12830,-106.7492,0.8767,-0.0104,-0.1079,-89.3705,0.0002,-0.094,8.4465,0.0,-0.0689,6.3459,-0.0003,-1.4623
12844,-106.7512,1.0536,-0.0104,-0.1081,-89.3664,0.0002,-0.0954,8.5948,0.0,-0.0712,7.158,0.0002,0.2657
12860,-106.7512,1.0536,-0.0104,-0.1081,-89.3664,0.0002,-0.0954,8.5948,0.0,-0.0712,7.158,0.0002,0.2657
12876,-106.7531,1.2266,-0.0104,-0.1087,-89.3643,0.0002,-0.0967,8.7336,0.0,-0.0645,6.9825,-0.0004,0.6908
12894,-106.7557,1.4604,-0.0104,-0.1088,-89.3731,0.0001,-0.0985,8.8959,-0.0,-0.0662,6.1382,-0.0011,-1.0607
12908,-106.7557,1.4604,-0.0104,-0.1088,-89.3731,0.0001,-0.0985,8.8959,-0.0,-0.0662,6.1382,-0.0011,-1.0607
12926,-106.7585,1.7132,-0.0104,-0.1076,-89.3608,0.0001,-0.1,9.0439,0.0,-0.054,5.2697,0.0011,1.5175
12940,-106.7605,1.896,-0.0104,-0.1065,-89.3643,0.0001,-0.1014,9.1669,0.0,-0.0704,6.1348,-0.0004,-0.1524
12956,-106.7605,1.896,-0.0104,-0.1065,-89.3643,0.0001,-0.1014,9.1669,0.0,-0.0704,6.1348,-0.0004,-0.1524
12972,-106.7624,2.0618,-0.0104,-0.1059,-89.3643,0.0,-0.1028,9.2778,0.0,-0.0765,6.1883,0.0001,-0.2617
12988,-106.7644,2.2433,-0.0104,-0.1051,-89.3657,0.0,-0.1042,9.3906,0.0,-0.0728,5.8197,0.0002,-0.5626
13013,-106.7663,2.4221,-0.0104,-0.1041,-89.3671,0.0,-0.1054,9.4916,0.0,-0.0646,5.3445,-0.0002,-0.908
13020,-106.7691,2.6622,-0.0104,-0.1024,-89.3605,0.0001,-0.1068,9.6199,0.0,-0.0553,5.1193,-0.0,0.7405
13036,-106.7691,2.6622,-0.0104,-0.1024,-89.3605,0.0001,-0.1068,9.6199,0.0,-0.0553,5.1193,-0.0,0.7405
13052,-106.7712,2.8544,-0.0104,-0.1008,-89.3583,0.0001,-0.1078,9.7177,0.0,-0.0529,4.9326,-0.0002,1.1879
13068,-106.7732,3.0385,-0.0104,-0.0989,-89.358,0.0001,-0.1088,9.8003,0.0,-0.0493,4.3876,-0.0,1.3225
13086,-106.7753,3.2247,-0.0104,-0.0968,-89.358,0.0001,-0.1097,9.8824,0.0,-0.0478,4.3459,-0.0002,1.3709
13102,-106.7775,3.4175,-0.0105,-0.0946,-89.3576,0.0,-0.1106,9.9651,-0.0,-0.0467,4.2677,-0.0008,1.5041
13116,-106.7775,3.4175,-0.0105,-0.0946,-89.3576,0.0,-0.1106,9.9651,-0.0,-0.0467,4.2677,-0.0008,1.5041
13132,-106.7802,3.6694,-0.0105,-0.092,-89.3658,0.0,-0.112,10.0832,-0.0,-0.0551,4.7082,-0.0001,-0.7596
13150,-106.7826,3.8812,-0.0105,-0.0906,-89.3636,0.0,-0.1131,10.1915,-0.0,-0.0561,5.1901,0.0005,0.1505
13167,-106.7847,4.077,-0.0105,-0.0896,-89.3631,0.0,-0.1142,10.2884,0.0,-0.0548,5.0793,0.0005,0.2377
13180,-106.7868,4.2632,-0.0105,-0.0887,-89.3629,0.0,-0.1151,10.3763,0.0,-0.0533,4.8875,0.0003,0.2982
13196,-106.7868,4.2632,-0.0105,-0.0887,-89.3629,0.0,-0.1151,10.3763,0.0,-0.0533,4.8875,0.0003,0.2982
13212,-106.789,4.4572,-0.0105,-0.0879,-89.3623,0.0,-0.1161,10.4638,0.0,-0.0513,4.7127,-0.0001,0.4151
13230,-106.7921,4.7437,-0.0105,-0.0865,-89.3668,0.0,-0.1175,10.5863,-0.0,-0.0523,4.5071,-0.0003,-0.5334
13244,-106.7944,4.9551,-0.0105,-0.0853,-89.3682,0.0,-0.1185,10.6711,-0.0,-0.0485,4.2725,-0.0001,-0.8099
13260,-106.7944,4.9551,-0.0105,-0.0853,-89.3682,0.0,-0.1185,10.6711,-0.0,-0.0485,4.2725,-0.0001,-0.8099
13276,-106.7966,5.1553,-0.0105,-0.084,-89.3682,0.0,-0.1193,10.7471,0.0,-0.0445,4.0763,0.0004,-0.8271
13294,-106.7988,5.3517,-0.0105,-0.0827,-89.368,-0.0,-0.1201,10.8215,-0.0,-0.0446,4.0892,-0.0004,-0.7478
13308,-106.801,5.5482,-0.0106,-0.0815,-89.3677,-0.0,-0.1209,10.8956,-0.0,-0.0447,4.1047,-0.0006,-0.68
13330,-106.8033,5.7562,-0.0106,-0.0802,-89.3681,-0.0,-0.1218,10.9725,-0.0,-0.0449,4.0443,0.0003,-0.7599
13340,-106.8033,5.7562,-0.0106,-0.0802,-89.3681,-0.0,-0.1218,10.9725,-0.0,-0.0449,4.0443,0.0003,-0.7599
13356,-106.8065,6.0376,-0.0106,-0.0786,-89.3634,0.0,-0.1228,11.0761,0.0,-0.0412,4.0653,0.0004,0.4519
13374,-106.8089,6.2521,-0.0106,-0.0774,-89.3627,0.0,-0.1236,11.1538,0.0,-0.0419,4.0357,0.0007,0.5774
13390,-106.8112,6.465,-0.0106,-0.0763,-89.3624,0.0,-0.1244,11.2277,-0.0,-0.0412,3.8913,-0.0009,0.6481
13406,-106.8134,6.6651,-0.0106,-0.0753,-89.3629,0.0,-0.1252,11.2961,0.0,-0.0424,3.8566,0.0003,0.5308
13420,-106.8134,6.6651,-0.0106,-0.0753,-89.3629,0.0,-0.1252,11.2961,0.0,-0.0424,3.8566,0.0003,0.5308
13436,-106.8165,6.9427,-0.0106,-0.0741,-89.3657,0.0,-0.1263,11.392,-0.0,-0.0457,3.9209,-0.0002,-0.2569
13454,-106.8191,7.1774,-0.0106,-0.0732,-89.3651,-0.0,-0.1271,11.4725,-0.0,-0.0424,3.9299,-0.0005,0.0339
13470,-106.8215,7.3924,-0.0106,-0.0723,-89.3651,-0.0001,-0.1279,11.5445,-0.0,-0.0421,3.8542,0.0004,0.0389
13484,-106.8215,7.3924,-0.0106,-0.0723,-89.3651,-0.0001,-0.1279,11.5445,-0.0,-0.0421,3.8542,0.0004,0.0389
13502,-106.8249,7.7025,-0.0106,-0.0711,-89.3655,-0.0,-0.129,11.6449,0.0,-0.0415,3.7629,0.0004,-0.0357
13522,-106.8275,7.9346,-0.0106,-0.0703,-89.3655,-0.0,-0.1298,11.7179,0.0,-0.0405,3.6785,0.0003,-0.0496
13532,-106.8275,7.9346,-0.0106,-0.0703,-89.3655,-0.0,-0.1298,11.7179,0.0,-0.0405,3.6785,0.0003,-0.0496
13550,-106.8318,8.3243,-0.0107,-0.0688,-89.3654,-0.0,-0.1311,11.8365,0.0,-0.0393,3.5895,-0.0002,-0.0212
13564,-106.8318,8.3243,-0.0107,-0.0688,-89.3654,-0.0,-0.1311,11.8365,0.0,-0.0393,3.5895,-0.0002,-0.0212
13582,-106.8354,8.65,-0.0107,-0.0676,-89.3652,0.0,-0.1322,11.9323,-0.0,-0.0384,3.4981,-0.0002,0.02
13598,-106.838,8.8834,-0.0107,-0.0667,-89.3652,-0.0,-0.1329,11.9991,-0.0,-0.0378,3.4311,-0.0003,0.0247
13614,-106.8404,9.1029,-0.0107,-0.0659,-89.3652,0.0,-0.1336,12.0607,0.0,-0.0373,3.3788,0.0006,0.0231
13628,-106.843,9.3317,-0.0107,-0.065,-89.3652,0.0,-0.1343,12.1236,0.0,-0.0368,3.3306,0.0001,0.0247
13644,-106.843,9.3317,-0.0107,-0.065,-89.3652,0.0,-0.1343,12.1236,0.0,-0.0368,3.3306,0.0001,0.0247
13660,-106.8454,9.5459,-0.0107,-0.0642,-89.3652,-0.0,-0.1349,12.1814,-0.0,-0.0364,3.284,-0.0004,0.0195
13676,-106.8478,9.7655,-0.0107,-0.0634,-89.3653,0.0,-0.1356,12.2396,0.0,-0.0358,3.2409,0.0003,0.0165
13694,-106.8504,9.998,-0.0107,-0.0625,-89.3653,0.0,-0.1363,12.3002,-0.0,-0.0353,3.1974,-0.0003,0.0171
13710,-106.8528,10.2146,-0.0107,-0.0617,-89.3653,0.0,-0.1369,12.3555,0.0,-0.035,3.1546,0.0003,0.0128
13726,-106.8554,10.4544,-0.0107,-0.0609,-89.3653,0.0,-0.1375,12.4157,0.0,-0.0345,3.1138,0.0,0.0141
13742,-106.8579,10.6792,-0.0107,-0.0601,-89.3653,0.0,-0.1382,12.4712,0.0,-0.0341,3.0721,-0.0001,0.0116
13756,-106.8604,10.9019,-0.0107,-0.0593,-89.3653,0.0,-0.1388,12.5252,0.0,-0.0337,3.0338,0.0002,0.0088
13772,-106.8604,10.9019,-0.0107,-0.0593,-89.3653,0.0,-0.1388,12.5252,0.0,-0.0337,3.0338,0.0002,0.0088
13788,-106.8628,11.125,-0.0107,-0.0586,-89.3653,-0.0,-0.1393,12.5784,-0.0,-0.0332,2.9963,-0.0005,0.0066
13806,-106.8663,11.4353,-0.0107,-0.0576,-89.3653,-0.0,-0.1401,12.6502,0.0,-0.0324,2.9225,0.0002,-0.0025
13820,-106.8663,11.4353,-0.0107,-0.0576,-89.3653,-0.0,-0.1401,12.6502,0.0,-0.0324,2.9225,0.0002,-0.0025
13836,-106.87,11.7714,-0.0107,-0.0563,-89.3653,-0.0,-0.1409,12.7209,0.0,-0.0295,2.669,-0.0,0.0015
13854,-106.8726,12.0066,-0.0107,-0.0553,-89.3653,-0.0,-0.1414,12.766,0.0,-0.0271,2.448,0.0003,0.0014
13870,-106.8756,12.2735,-0.0108,-0.054,-89.3653,-0.0,-0.1419,12.8128,-0.0,-0.0248,2.2437,-0.0005,-0.0002
13884,-106.8756,12.2735,-0.0108,-0.054,-89.3653,-0.0,-0.1419,12.8128,-0.0,-0.0248,2.2437,-0.0005,-0.0002
13900,-106.879,12.5876,-0.0108,-0.0522,-89.3653,-0.0,-0.1425,12.8631,0.0,-0.0228,2.059,0.0004,0.0
13918,-106.8819,12.8472,-0.0108,-0.0506,-89.3653,0.0,-0.1429,12.9008,0.0,-0.0207,1.8718,-0.0002,-0.0
13934,-106.8845,13.0796,-0.0108,-0.049,-89.3653,0.0,-0.1433,12.9324,-0.0,-0.0195,1.7545,-0.0003,-0.0
13950,-106.887,13.3103,-0.0108,-0.0473,-89.3653,0.0,-0.1436,12.9616,0.0,-0.0182,1.6419,0.0003,-0.0
13964,-106.8899,13.5729,-0.0108,-0.0455,-89.3653,0.0,-0.1439,12.9919,-0.0,-0.0166,1.497,-0.0012,-0.0
13980,-106.8899,13.5729,-0.0108,-0.0455,-89.3653,0.0,-0.1439,12.9919,-0.0,-0.0166,1.497,-0.0012,-0.0
13997,-106.8927,13.824,-0.0108,-0.0435,-89.3653,0.0,-0.1442,13.0191,-0.0,-0.0156,1.4083,0.0007,-0.0
14028,-106.8963,14.1431,-0.0109,-0.0412,-89.3653,0.0,-0.1446,13.0505,0.0,-0.0142,1.2848,0.001,-0.0
14044,-106.9016,14.4974,-0.0109,-0.0384,-89.4282,0.0105,-0.2583,13.0718,0.0001,-4.1951,0.7851,0.0015,-3.9006
14062,-106.9097,14.8191,-0.0109,-0.0351,-89.6268,0.0347,-0.4423,13.0687,0.0003,-7.4766,-0.1263,0.0098,-10.3692
14076,-106.9097,14.8191,-0.0109,-0.0351,-89.6268,0.0347,-0.4423,13.0687,0.0003,-7.4766,-0.1263,0.0098,-10.3692
14092,-106.9185,15.064,-0.0109,-0.0318,-89.9091,0.062,-0.6145,13.0519,0.0005,-9.1773,-0.8989,0.0126,-16.657
14108,-106.9299,15.3107,-0.0109,-0.0276,-90.3271,0.0933,-0.8037,13.023,0.0008,-9.9938,-1.5262,0.0138,-23.9155
14134,-106.9436,15.5504,-0.0109,-0.0229,-90.8759,0.125,-0.9945,12.9849,0.001,-10.3369,-2.0612,0.0113,-31.6955
14140,-106.9656,15.8708,-0.011,-0.0157,-91.8474,0.1656,-1.2501,12.9211,0.0012,-10.3206,-2.5787,0.007,-43.0708
14156,-106.9656,15.8708,-0.011,-0.0157,-91.8474,0.1656,-1.2501,12.9211,0.0012,-10.3206,-2.5787,0.007,-43.0708
14177,-106.9934,16.2086,-0.011,-0.0069,-93.2081,0.2053,-1.5118,12.8408,0.0013,-9.9543,-3.0526,0.0031,-56.1718
14188,-106.9934,16.2086,-0.011,-0.0069,-93.2081,0.2053,-1.5118,12.8408,0.0013,-9.9543,-3.0526,0.0031,-56.1718
14204,-107.0261,16.5543,-0.011,0.0029,-94.9909,0.2384,-1.7586,12.7501,0.0012,-9.1019,-3.3464,-0.0024,-70.5885
14220,-107.0261,16.5543,-0.011,0.0029,-94.9909,0.2384,-1.7586,12.7501,0.0012,-9.1019,-3.3464,-0.0024,-70.5885
14243,-107.0815,17.0739,-0.0111,0.0172,-98.4773,0.2679,-2.067,12.6079,0.0008,-7.4733,-3.445,-0.0084,-93.917
14252,-107.0815,17.0739,-0.0111,0.0172,-98.4773,0.2679,-2.067,12.6079,0.0008,-7.4733,-3.445,-0.0084,-93.917
14268,-107.0815,17.0739,-0.0111,0.0172,-98.4773,0.2679,-2.067,12.6079,0.0008,-7.4733,-3.445,-0.0084,-93.917
14293,-107.1429,17.6101,-0.0112,0.0294,-103.2119,0.2699,-2.2782,12.47,0.0004,-4.8748,-3.182,-0.0113,-119.5995
14300,-107.1429,17.6101,-0.0112,0.0294,-103.2119,0.2699,-2.2782,12.47,0.0004,-4.8748,-3.182,-0.0113,-119.5995
14316,-107.1778,17.9147,-0.0112,0.0337,-106.4512,0.2569,-2.3317,12.4048,0.0,-2.1393,-2.6096,-0.013,-134.5187
14332,-107.2041,18.1523,-0.0112,0.0352,-109.2806,0.2391,-2.3433,12.3585,-0.0002,-0.5884,-2.3481,-0.013,-146.4528
14348,-107.2041,18.1523,-0.0112,0.0352,-109.2806,0.2391,-2.3433,12.3585,-0.0002,-0.5884,-2.3481,-0.013,-146.4528
14364,-107.2041,18.1523,-0.0112,0.0352,-109.2806,0.2391,-2.3433,12.3585,-0.0002,-0.5884,-2.3481,-0.013,-146.4528
14380,-107.2535,18.639,-0.0112,0.0321,-115.9008,0.188,-2.2606,12.2836,-0.0008,2.0144,-1.8229,-0.0132,-171.2045
14396,-107.2535,18.639,-0.0112,0.0321,-115.9008,0.188,-2.2606,12.2836,-0.0008,2.0144,-1.8229,-0.0132,-171.2045
14412,-107.2535,18.639,-0.0112,0.0321,-115.9008,0.188,-2.2606,12.2836,-0.0008,2.0144,-1.8229,-0.0132,-171.2045
14428,-107.2963,19.2402,-0.0111,0.0089,-125.554,0.0827,-1.7525,12.2851,-0.0014,9.787,0.028,-0.0114,-194.505
14444,-107.2963,19.2402,-0.0111,0.0089,-125.554,0.0827,-1.7525,12.2851,-0.0014,9.787,0.028,-0.0114,-194.505
14460,-107.2963,19.2402,-0.0111,0.0089,-125.554,0.0827,-1.7525,12.2851,-0.0014,9.787,0.028,-0.0114,-194.505
14476,-107.3017,19.7866,-0.0108,-0.0386,-135.3366,-0.0544,-0.8966,12.2811,-0.001,17.7295,-0.0822,0.0066,-207.2525
14492,-107.3017,19.7866,-0.0108,-0.0386,-135.3366,-0.0544,-0.8966,12.2811,-0.001,17.7295,-0.0822,0.0066,-207.2525
14510,-107.2792,20.1882,-0.0105,-0.083,-143.0178,-0.16,-0.1127,12.1967,0.0008,21.5676,-2.3219,0.0503,-213.5458
14526,-107.2562,20.4109,-0.0103,-0.1082,-147.4491,-0.215,0.3614,12.104,0.0014,23.0414,-4.5067,0.0296,-216.2137
14540,-107.2562,20.4109,-0.0103,-0.1082,-147.4491,-0.215,0.3614,12.104,0.0014,23.0414,-4.5067,0.0296,-216.2137
14556,-107.2262,20.6189,-0.01,-0.1339,-151.7196,-0.2711,0.8239,11.9849,0.0018,23.6106,-6.0814,0.0181,-218.5692
14572,-107.2262,20.6189,-0.01,-0.1339,-151.7196,-0.2711,0.8239,11.9849,0.0018,23.6106,-6.0814,0.0181,-218.5692
14588,-107.1593,20.9637,-0.0097,-0.1746,-159.0857,-0.355,1.62,11.7014,0.0021,23.8427,-8.4894,0.0097,-221.8425
14604,-107.1141,21.1458,-0.0095,-0.1957,-163.1552,-0.3984,2.0517,11.5045,0.0021,23.6707,-10.7975,0.0031,-223.5481
14636,-106.9833,21.5614,-0.0091,-0.2407,-173.0191,-0.4888,3.0456,10.915,0.002,22.4084,-14.3811,-0.0062,-227.7399
14652,-106.9833,21.5614,-0.0091,-0.2407,-173.0191,-0.4888,3.0456,10.915,0.002,22.4084,-14.3811,-0.0062,-227.7399
14668,-106.9189,21.7285,-0.0089,-0.2568,-177.2721,-0.5255,3.409,10.5786,0.002,19.5282,-18.0754,0.0006,-228.591
14684,-106.9189,21.7285,-0.0089,-0.2568,-177.2721,-0.5255,3.409,10.5786,0.002,19.5282,-18.0754,0.0006,-228.591
14700,-106.7961,22.0097,-0.0087,-0.2766,175.0416,-0.5987,3.8675,9.8128,0.0021,13.7008,-22.8861,0.0023,-230.344
14720,-106.7231,22.1595,-0.0086,-0.2836,170.5771,-0.6462,4.0475,9.3235,0.0021,9.3113,-25.3074,0.0016,-231.0637
14732,-106.7231,22.1595,-0.0086,-0.2836,170.5771,-0.6462,4.0475,9.3235,0.0021,9.3113,-25.3074,0.0016,-231.0637
14752,-106.6034,22.3868,-0.0085,-0.2892,163.1918,-0.7224,4.1966,8.4657,0.002,4.6688,-26.8608,-0.0017,-231.236
14764,-106.5173,22.5492,-0.0085,-0.281,157.5622,-0.7732,3.8881,7.981,-0.0025,-12.4049,-19.4874,-0.1807,-221.5271
14780,-106.5173,22.5492,-0.0085,-0.281,157.5622,-0.7732,3.8881,7.981,-0.0025,-12.4049,-19.4874,-0.1807,-221.5271
14798,-106.4433,22.7142,-0.0088,-0.2518,152.0453,-0.8074,3.3421,7.6206,-0.0017,-20.9529,-13.829,0.0303,-207.167
14812,-106.3968,22.8415,-0.009,-0.2204,147.8827,-0.8354,2.8656,7.3471,0.0037,-23.0478,-13.2326,0.2576,-198.7042
14828,-106.3968,22.8415,-0.009,-0.2204,147.8827,-0.8354,2.8656,7.3471,0.0037,-23.0478,-13.2326,0.2576,-198.7042
14844,-106.348,23.0283,-0.0093,-0.1667,141.8262,-0.882,2.1311,7.0031,0.0024,-23.4728,-10.9904,-0.0404,-190.7718
14860,-106.348,23.0283,-0.0093,-0.1667,141.8262,-0.882,2.1311,7.0031,0.0024,-23.4728,-10.9904,-0.0404,-190.7718
14878,-106.3274,23.1853,-0.0096,-0.1197,136.9362,-0.9101,1.4562,6.8955,0.0017,-25.3853,-4.0471,-0.0256,-179.9202
14894,-106.3241,23.3005,-0.0098,-0.0838,133.6444,-0.917,0.9687,6.9248,0.0012,-25.5292,1.5338,-0.0255,-169.7781
14908,-106.3294,23.4253,-0.0101,-0.0474,130.3928,-0.9132,0.4732,7.0316,0.0006,-24.6917,5.3197,-0.029,-158.058
14926,-106.3424,23.5418,-0.0103,-0.0123,127.6913,-0.9013,0.0447,7.1619,0.0003,-23.7584,7.2234,-0.0218,-147.0143
14940,-106.3424,23.5418,-0.0103,-0.0123,127.6913,-0.9013,0.0447,7.1619,0.0003,-23.7584,7.2234,-0.0218,-147.0143
14956,-106.3778,23.7461,-0.0107,0.0414,123.6234,-0.8707,-0.5929,7.4377,-0.0004,-21.1504,9.1474,-0.0208,-127.6332
14972,-106.3778,23.7461,-0.0107,0.0414,123.6234,-0.8707,-0.5929,7.4377,-0.0004,-21.1504,9.1474,-0.0208,-127.6332
14988,-106.4051,23.8706,-0.0109,0.0705,121.5334,-0.8439,-0.8894,7.6272,-0.0007,-16.9903,10.8629,-0.0163,-117.3026
15004,-106.4051,23.8706,-0.0109,0.0705,121.5334,-0.8439,-0.8894,7.6272,-0.0007,-16.9903,10.8629,-0.0163,-117.3026
15020,-106.4648,24.121,-0.0113,0.1155,117.9072,-0.7641,-1.1845,8.0077,-0.0012,-8.835,11.3924,-0.0176,-104.4041
15038,-106.502,24.2775,-0.0115,0.1356,115.8965,-0.6947,-1.227,8.2191,-0.0016,-2.1366,10.6142,-0.0168,-100.0002
15052,-106.502,24.2775,-0.0115,0.1356,115.8965,-0.6947,-1.227,8.2191,-0.0016,-2.1366,10.6142,-0.0168,-100.0002
15068,-106.5515,24.4986,-0.0117,0.154,113.2353,-0.5874,-1.1551,8.4827,-0.0021,2.6409,9.6787,-0.0204,-96.8831
15086,-106.5948,24.7144,-0.0118,0.1637,110.7658,-0.4773,-0.9949,8.7032,-0.0026,6.2299,8.5742,-0.0194,-95.7194
15102,-106.6227,24.873,-0.0119,0.1672,109.004,-0.3948,-0.8423,8.8462,-0.0029,8.2657,7.7425,-0.0155,-95.4047
15116,-106.6485,25.0417,-0.012,0.1683,107.1661,-0.3094,-0.6572,8.982,-0.0032,9.5961,7.0419,-0.0134,-95.3638
15150,-106.6786,25.2848,-0.0121,0.1667,104.5659,-0.1961,-0.3576,9.1544,-0.0034,10.9897,6.324,-0.0063,-95.4248
15164,-106.6969,25.4711,-0.0121,0.1646,102.6394,-0.1258,-0.1991,9.288,-0.0033,7.732,6.5171,0.0006,-92.7918
15180,-106.6969,25.4711,-0.0121,0.1646,102.6394,-0.1258,-0.1991,9.288,-0.0033,7.732,6.5171,0.0006,-92.7918
15208,-106.7135,25.6699,-0.0122,0.1624,100.7488,-0.0706,-0.1499,9.4334,-0.0032,2.2938,6.7728,0.0073,-85.3375
15217,-106.7135,25.6699,-0.0122,0.1624,100.7488,-0.0706,-0.1499,9.4334,-0.0032,2.2938,6.7728,0.0073,-85.3375
15235,-106.7438,26.0527,-0.0122,0.156,97.8357,-0.0355,-0.3281,9.633,-0.0023,-4.4126,4.9404,0.0218,-62.2064
15249,-106.7624,26.2684,-0.0122,0.1496,96.6674,-0.0475,-0.5103,9.6934,-0.0015,-8.1275,2.6967,0.0354,-47.1401
15265,-106.7624,26.2684,-0.0122,0.1496,96.6674,-0.0475,-0.5103,9.6934,-0.0015,-8.1275,2.6967,0.0354,-47.1401
15282,-106.7816,26.4766,-0.0122,0.1418,95.8325,-0.0659,-0.6411,9.7429,-0.0007,-6.0931,2.3059,0.0387,-35.0696
15297,-106.7816,26.4766,-0.0122,0.1418,95.8325,-0.0659,-0.6411,9.7429,-0.0007,-6.0931,2.3059,0.0387,-35.0696
15313,-106.8074,26.7536,-0.0121,0.1295,95.0738,-0.0847,-0.7393,9.8039,-0.0,-3.4612,2.1471,0.0235,-23.0492
15331,-106.8269,26.9661,-0.012,0.1204,94.6703,-0.0897,-0.7699,9.8457,0.0002,-1.4139,1.9339,0.0111,-16.6544
15345,-106.8444,27.1638,-0.012,0.1121,94.397,-0.0885,-0.7774,9.8812,0.0003,-0.3716,1.7684,0.0019,-12.2559
15361,-106.8622,27.3713,-0.0119,0.1036,94.1891,-0.0827,-0.7726,9.9143,0.0002,0.2283,1.5807,-0.0016,-8.8659
15377,-106.8622,27.3713,-0.0119,0.1036,94.1891,-0.0827,-0.7726,9.9143,0.0002,0.2283,1.5807,-0.0016,-8.8659
15393,-106.8783,27.5689,-0.0118,0.0953,94.0498,-0.0741,-0.7619,9.9424,0.0002,0.5372,1.4128,-0.0034,-6.4563
15411,-106.8935,27.7613,-0.0118,0.0879,93.9506,-0.0649,-0.7489,9.967,0.0,0.6748,1.2701,-0.0061,-4.7615
15432,-106.9082,27.9537,-0.0117,0.081,93.8778,-0.0557,-0.7352,9.9889,-0.0,0.7067,1.1381,-0.0036,-3.5698
15441,-106.9082,27.9537,-0.0117,0.081,93.8778,-0.0557,-0.7352,9.9889,-0.0,0.7067,1.1381,-0.0036,-3.5698
15460,-106.9282,28.2234,-0.0117,0.0723,93.8098,-0.0439,-0.7174,10.0171,-0.0001,0.6619,1.0468,-0.0035,-1.8988
15475,-106.9441,28.446,-0.0116,0.0659,93.7678,-0.0356,-0.7049,10.0364,-0.0001,0.5636,0.8698,-0.0012,-1.8928
15489,-106.9577,28.6392,-0.0116,0.0604,93.7415,-0.029,-0.6956,10.0518,-0.0002,0.4837,0.7994,-0.0006,-1.904
15505,-106.9577,28.6392,-0.0116,0.0604,93.7415,-0.029,-0.6956,10.0518,-0.0002,0.4837,0.7994,-0.0006,-1.904
15532,-106.9732,28.8647,-0.0116,0.0549,93.7254,-0.0228,-0.6864,10.0665,-0.0002,0.41,0.6543,0.0003,-0.2957
15537,-106.9732,28.8647,-0.0116,0.0549,93.7254,-0.0228,-0.6864,10.0665,-0.0002,0.41,0.6543,0.0003,-0.2957
15553,-106.9921,29.1416,-0.0115,0.0486,93.7008,-0.0164,-0.6779,10.0868,-0.0001,0.3086,0.7402,0.0004,-1.6236
15571,-107.0103,29.4163,-0.0115,0.0428,93.7033,-0.0117,-0.671,10.0952,-0.0001,0.2549,0.3091,0.0013,1.2255
15585,-107.0235,29.6146,-0.0115,0.039,93.7008,-0.009,-0.6673,10.1012,-0.0001,0.1856,0.3029,0.001,1.9214
15601,-107.0235,29.6146,-0.0115,0.039,93.7008,-0.009,-0.6673,10.1012,-0.0001,0.1856,0.3029,0.001,1.9214
15617,-107.0377,29.8299,-0.0114,0.0355,93.6903,-0.0069,-0.665,10.117,-0.0001,0.1108,0.7427,0.0011,-0.78
15635,-107.0511,30.0351,-0.0114,0.0327,93.6902,-0.0052,-0.6631,10.1326,-0.0,0.0942,0.7694,0.001,0.1876
15649,-107.0511,30.0351,-0.0114,0.0327,93.6902,-0.0052,-0.6631,10.1326,-0.0,0.0942,0.7694,0.001,0.1876
15665,-107.0696,30.3173,-0.0114,0.0293,93.6807,-0.0034,-0.6611,10.15,-0.0,0.0689,0.6275,0.0011,-1.0501
15681,-107.0696,30.3173,-0.0114,0.0293,93.6807,-0.0034,-0.6611,10.15,-0.0,0.0689,0.6275,0.0011,-1.0501
15699,-107.0926,30.6724,-0.0111,0.012,93.6784,0.0153,-0.6605,10.1722,0.0004,0.0184,0.6337,0.0132,-1.2761
15715,-107.1063,30.8838,-0.0111,0.0113,93.6802,0.0127,-0.6591,10.1788,0.0,0.0688,0.3177,-0.0215,0.3261
15729,-107.1063,30.8838,-0.0111,0.0113,93.6802,0.0127,-0.6591,10.1788,0.0,0.0688,0.3177,-0.0215,0.3261
15745,-107.1192,31.0845,-0.0111,0.0109,93.6822,0.011,-0.6583,10.1896,-0.0002,0.0367,0.5466,-0.0128,0.9966
15763,-107.137,31.3574,-0.0111,0.0104,93.6685,0.0094,-0.6579,10.1992,-0.0004,0.0172,0.3594,-0.0072,-1.5478
15777,-107.1501,31.5604,-0.0111,0.0099,93.6647,0.0084,-0.6575,10.2024,-0.0005,0.0196,0.161,-0.0042,-2.2381
15793,-107.1501,31.5604,-0.0111,0.0099,93.6647,0.0084,-0.6575,10.2024,-0.0005,0.0196,0.161,-0.0042,-2.2381
15809,-107.1629,31.7591,-0.0111,0.0093,93.664,0.0076,-0.6571,10.2043,-0.0005,0.0191,0.0957,-0.0012,-2.2789
15831,-107.1769,31.9777,-0.0111,0.009,93.6699,0.0069,-0.6574,10.2199,-0.0005,-0.0113,0.7297,0.0009,0.5751
15841,-107.1769,31.9777,-0.0111,0.009,93.6699,0.0069,-0.6574,10.2199,-0.0005,-0.0113,0.7297,0.0009,0.5751
15857,-107.1951,32.2597,-0.0111,0.0089,93.6595,0.0061,-0.6576,10.2358,-0.0005,-0.0098,0.5771,-0.0001,-1.3423
15878,-107.2082,32.4628,-0.0111,0.0088,93.656,0.0056,-0.6576,10.2406,-0.0005,0.003,0.2428,0.0016,-2.0847
15889,-107.2082,32.4628,-0.0111,0.0088,93.656,0.0056,-0.6576,10.2406,-0.0005,0.003,0.2428,0.0016,-2.0847
15905,-107.2255,32.7338,-0.0111,0.0085,93.6708,0.0049,-0.6576,10.2502,-0.0005,0.0005,0.365,0.0019,1.5691
15921,-107.2405,32.9665,-0.0112,0.0085,93.6632,0.0045,-0.6583,10.2652,-0.0004,-0.0338,0.6585,0.003,-0.7828
15940,-107.2527,33.1564,-0.0112,0.0086,93.6608,0.0041,-0.6589,10.2753,-0.0004,-0.0303,0.5459,0.0012,-1.2888
15953,-107.2527,33.1564,-0.0112,0.0086,93.6608,0.0041,-0.6589,10.2753,-0.0004,-0.0303,0.5459,0.0012,-1.2888
15969,-107.2672,33.3837,-0.0112,0.0087,93.6667,0.0037,-0.6595,10.289,-0.0003,-0.0269,0.6195,0.0025,0.6406
15987,-107.2813,33.604,-0.0112,0.0089,93.6632,0.0033,-0.6603,10.3031,-0.0003,-0.0367,0.6621,0.0016,-0.4058
16003,-107.2944,33.8072,-0.0112,0.0091,93.6598,0.003,-0.6609,10.3141,-0.0003,-0.0339,0.5551,0.0008,-0.995
16017,-107.2944,33.8072,-0.0112,0.0091,93.6598,0.003,-0.6609,10.3141,-0.0003,-0.0339,0.5551,0.0008,-0.995
16035,-107.312,34.0827,-0.0112,0.0091,93.671,0.0026,-0.6614,10.3244,-0.0002,-0.0163,0.3888,0.0018,1.3888
16056,-107.3255,34.2938,-0.0112,0.0091,93.6665,0.0024,-0.6623,10.337,-0.0002,-0.0447,0.6123,0.001,-0.4194
16065,-107.3255,34.2938,-0.0112,0.0091,93.6665,0.0024,-0.6623,10.337,-0.0002,-0.0447,0.6123,0.001,-0.4194
16081,-107.3441,34.5848,-0.0112,0.0092,93.6749,0.002,-0.6633,10.3515,-0.0002,-0.0351,0.5166,0.0012,1.1491
16099,-107.3572,34.79,-0.0112,0.0091,93.6783,0.0018,-0.6636,10.356,-0.0001,-0.0159,0.2284,0.0006,1.9051
16115,-107.3702,34.9916,-0.0112,0.0088,93.6789,0.0016,-0.6638,10.3578,-0.0001,-0.0084,0.0911,0.001,2.1321
16129,-107.3826,35.1856,-0.0112,0.0084,93.6783,0.0014,-0.6641,10.3621,-0.0001,-0.0183,0.2288,0.0008,1.9318
16145,-107.3826,35.1856,-0.0112,0.0084,93.6783,0.0014,-0.6641,10.3621,-0.0001,-0.0183,0.2288,0.0008,1.9318
16163,-107.4021,35.4881,-0.0112,0.0078,93.6581,0.0012,-0.6647,10.3683,-0.0001,-0.0207,0.2147,0.0009,-2.1473
16177,-107.4021,35.4881,-0.0112,0.0078,93.6581,0.0012,-0.6647,10.3683,-0.0001,-0.0207,0.2147,0.0009,-2.1473
16193,-107.4169,35.7196,-0.0112,0.0077,93.6655,0.0011,-0.6654,10.384,-0.0001,-0.0331,0.7007,0.0006,0.7
16211,-107.4315,35.9469,-0.0112,0.0078,93.6616,0.001,-0.6663,10.3996,-0.0001,-0.0396,0.7133,0.0006,-0.4544
16234,-107.4446,36.1503,-0.0112,0.0081,93.6583,0.0009,-0.667,10.4109,-0.0001,-0.035,0.5783,-0.0001,-1.0298
16241,-107.4446,36.1503,-0.0112,0.0081,93.6583,0.0009,-0.667,10.4109,-0.0001,-0.035,0.5783,-0.0001,-1.0298
16257,-107.4625,36.4317,-0.0112,0.0082,93.6699,0.0008,-0.6675,10.4217,-0.0,-0.017,0.4015,0.0006,1.4252
16273,-107.4625,36.4317,-0.0112,0.0082,93.6699,0.0008,-0.6675,10.4217,-0.0,-0.017,0.4015,0.0006,1.4252
16289,-107.4807,36.7141,-0.0112,0.0082,93.6562,0.0007,-0.6681,10.4313,-0.0,-0.0243,0.3544,0.0005,-1.5648
16305,-107.4807,36.7141,-0.0112,0.0082,93.6562,0.0007,-0.6681,10.4313,-0.0,-0.0243,0.3544,0.0005,-1.5648
16321,-107.5064,37.1155,-0.0112,0.0078,93.6545,0.0006,-0.6687,10.4405,-0.0,-0.0151,0.2379,0.0001,-2.0232
