timestamp,x,y,z,pitch,yaw,roll,vx,vy,vz,ax,ay,az,yaw_rate
221771,-106.6867,-4.8475,-0.0163,0.0,-89.3578,0.0,0.0,-0.0,0.0385,0.0,-0.0,-0.0875,0.0
221787,-106.6867,-4.8475,-0.0137,0.0,-89.3578,0.0,-0.0,0.0,0.0189,-0.0,0.0,-0.072,0.0
221803,-106.6867,-4.8475,-0.0137,0.0,-89.3578,0.0,-0.0,0.0,0.0189,-0.0,0.0,-0.072,0.0
221819,-106.6867,-4.8475,-0.0137,0.0,-89.3578,0.0,-0.0,0.0,0.0189,-0.0,0.0,-0.072,0.0
221835,-106.6867,-4.8475,-0.0137,0.0,-89.3578,0.0,-0.0,0.0,0.0189,-0.0,0.0,-0.072,0.0
221853,-106.6867,-4.846,-0.0125,-0.0012,-89.3578,-0.0,-0.0001,0.0061,0.0097,-0.0008,0.0691,-0.1033,0.0
221869,-106.6867,-4.846,-0.0125,-0.0012,-89.3578,-0.0,-0.0001,0.0061,0.0097,-0.0008,0.0691,-0.1033,0.0
221885,-106.6867,-4.846,-0.0125,-0.0012,-89.3578,-0.0,-0.0001,0.0061,0.0097,-0.0008,0.0691,-0.1033,0.0
221901,-106.6867,-4.846,-0.0125,-0.0012,-89.3578,-0.0,-0.0001,0.0061,0.0097,-0.0008,0.0691,-0.1033,0.0
221917,-106.6867,-4.846,-0.0125,-0.0012,-89.3578,-0.0,-0.0001,0.0061,0.0097,-0.0008,0.0691,-0.1033,0.0
221933,-106.6867,-4.846,-0.0125,-0.0012,-89.3578,-0.0,-0.0001,0.0061,0.0097,-0.0008,0.0691,-0.1033,0.0
221949,-106.6867,-4.846,-0.0125,-0.0012,-89.3578,-0.0,-0.0001,0.0061,0.0097,-0.0008,0.0691,-0.1033,0.0
221968,-106.6868,-4.8421,-0.0118,-0.0037,-89.3578,0.0,-0.0013,0.1164,0.0044,-0.0106,0.9495,-0.0458,-0.0062
221981,-106.6868,-4.8421,-0.0118,-0.0037,-89.3578,0.0,-0.0013,0.1164,0.0044,-0.0106,0.9495,-0.0458,-0.0062
221997,-106.6868,-4.8421,-0.0118,-0.0037,-89.3578,0.0,-0.0013,0.1164,0.0044,-0.0106,0.9495,-0.0458,-0.0062
222013,-106.6868,-4.8421,-0.0118,-0.0037,-89.3578,0.0,-0.0013,0.1164,0.0044,-0.0106,0.9495,-0.0458,-0.0062
222029,-106.6868,-4.8421,-0.0118,-0.0037,-89.3578,0.0,-0.0013,0.1164,0.0044,-0.0106,0.9495,-0.0458,-0.0062
222045,-106.6868,-4.8421,-0.0118,-0.0037,-89.3578,0.0,-0.0013,0.1164,0.0044,-0.0106,0.9495,-0.0458,-0.0062
222061,-106.6868,-4.8421,-0.0118,-0.0037,-89.3578,0.0,-0.0013,0.1164,0.0044,-0.0106,0.9495,-0.0458,-0.0062
222077,-106.6868,-4.8421,-0.0118,-0.0037,-89.3578,0.0,-0.0013,0.1164,0.0044,-0.0106,0.9495,-0.0458,-0.0062
222093,-106.6868,-4.8421,-0.0118,-0.0037,-89.3578,0.0,-0.0013,0.1164,0.0044,-0.0106,0.9495,-0.0458,-0.0062
222109,-106.6868,-4.8421,-0.0118,-0.0037,-89.3578,0.0,-0.0013,0.1164,0.0044,-0.0106,0.9495,-0.0458,-0.0062
222125,-106.6868,-4.8421,-0.0118,-0.0037,-89.3578,0.0,-0.0013,0.1164,0.0044,-0.0106,0.9495,-0.0458,-0.0062
222141,-106.6868,-4.8421,-0.0118,-0.0037,-89.3578,0.0,-0.0013,0.1164,0.0044,-0.0106,0.9495,-0.0458,-0.0062
222157,-106.6868,-4.8421,-0.0118,-0.0037,-89.3578,0.0,-0.0013,0.1164,0.0044,-0.0106,0.9495,-0.0458,-0.0062
222173,-106.6868,-4.8421,-0.0118,-0.0037,-89.3578,0.0,-0.0013,0.1164,0.0044,-0.0106,0.9495,-0.0458,-0.0062
222189,-106.6869,-4.8118,-0.0114,-0.0235,-89.3776,-0.0,-0.0056,0.4849,0.002,-0.0263,2.2549,-0.0148,-1.2579
222205,-106.6869,-4.8118,-0.0114,-0.0235,-89.3776,-0.0,-0.0056,0.4849,0.002,-0.0263,2.2549,-0.0148,-1.2579
222221,-106.6869,-4.8118,-0.0114,-0.0235,-89.3776,-0.0,-0.0056,0.4849,0.002,-0.0263,2.2549,-0.0148,-1.2579
222237,-106.6878,-4.7432,-0.0111,-0.0408,-89.3738,0.0,-0.0094,0.8743,0.0009,-0.0347,3.5854,-0.0102,-0.2216
222253,-106.6878,-4.7432,-0.0111,-0.0408,-89.3738,0.0,-0.0094,0.8743,0.0009,-0.0347,3.5854,-0.0102,-0.2216
222269,-106.6878,-4.7432,-0.0111,-0.0408,-89.3738,0.0,-0.0094,0.8743,0.0009,-0.0347,3.5854,-0.0102,-0.2216
222285,-106.6878,-4.7432,-0.0111,-0.0408,-89.3738,0.0,-0.0094,0.8743,0.0009,-0.0347,3.5854,-0.0102,-0.2216
222301,-106.6878,-4.7432,-0.0111,-0.0408,-89.3738,0.0,-0.0094,0.8743,0.0009,-0.0347,3.5854,-0.0102,-0.2216
222317,-106.6878,-4.7432,-0.0111,-0.0408,-89.3738,0.0,-0.0094,0.8743,0.0009,-0.0347,3.5854,-0.0102,-0.2216
222333,-106.6878,-4.7432,-0.0111,-0.0408,-89.3738,0.0,-0.0094,0.8743,0.0009,-0.0347,3.5854,-0.0102,-0.2216
222349,-106.6878,-4.7432,-0.0111,-0.0408,-89.3738,0.0,-0.0094,0.8743,0.0009,-0.0347,3.5854,-0.0102,-0.2216
222368,-106.6888,-4.6391,-0.0108,-0.0463,-89.3896,-0.0001,-0.0119,1.1341,0.0036,-0.0207,2.0987,0.0216,0.0098
222389,-106.6888,-4.6391,-0.0108,-0.0463,-89.3896,-0.0001,-0.0119,1.1341,0.0036,-0.0207,2.0987,0.0216,0.0098
222405,-106.6888,-4.6391,-0.0108,-0.0463,-89.3896,-0.0001,-0.0119,1.1341,0.0036,-0.0207,2.0987,0.0216,0.0098
222421,-106.6888,-4.6391,-0.0108,-0.0463,-89.3896,-0.0001,-0.0119,1.1341,0.0036,-0.0207,2.0987,0.0216,0.0098
222441,-106.6888,-4.6391,-0.0108,-0.0463,-89.3896,-0.0001,-0.0119,1.1341,0.0036,-0.0207,2.0987,0.0216,0.0098
222460,-106.6888,-4.6391,-0.0108,-0.0463,-89.3896,-0.0001,-0.0119,1.1341,0.0036,-0.0207,2.0987,0.0216,0.0098
222477,-106.6888,-4.6391,-0.0108,-0.0463,-89.3896,-0.0001,-0.0119,1.1341,0.0036,-0.0207,2.0987,0.0216,0.0098
222493,-106.6888,-4.6391,-0.0108,-0.0463,-89.3896,-0.0001,-0.0119,1.1341,0.0036,-0.0207,2.0987,0.0216,0.0098
222509,-106.6888,-4.6391,-0.0108,-0.0463,-89.3896,-0.0001,-0.0119,1.1341,0.0036,-0.0207,2.0987,0.0216,0.0098
222525,-106.6888,-4.6391,-0.0108,-0.0463,-89.3896,-0.0001,-0.0119,1.1341,0.0036,-0.0207,2.0987,0.0216,0.0098
222541,-106.6888,-4.6391,-0.0108,-0.0463,-89.3896,-0.0001,-0.0119,1.1341,0.0036,-0.0207,2.0987,0.0216,0.0098
222557,-106.6888,-4.6391,-0.0108,-0.0463,-89.3896,-0.0001,-0.0119,1.1341,0.0036,-0.0207,2.0987,0.0216,0.0098
222573,-106.6888,-4.6391,-0.0108,-0.0463,-89.3896,-0.0001,-0.0119,1.1341,0.0036,-0.0207,2.0987,0.0216,0.0098
222589,-106.6888,-4.6391,-0.0108,-0.0463,-89.3896,-0.0001,-0.0119,1.1341,0.0036,-0.0207,2.0987,0.0216,0.0098
222605,-106.6888,-4.6391,-0.0108,-0.0463,-89.3896,-0.0001,-0.0119,1.1341,0.0036,-0.0207,2.0987,0.0216,0.0098
222621,-106.6888,-4.6391,-0.0108,-0.0463,-89.3896,-0.0001,-0.0119,1.1341,0.0036,-0.0207,2.0987,0.0216,0.0098
222637,-106.6888,-4.6391,-0.0108,-0.0463,-89.3896,-0.0001,-0.0119,1.1341,0.0036,-0.0207,2.0987,0.0216,0.0098
222653,-106.6888,-4.6391,-0.0108,-0.0463,-89.3896,-0.0001,-0.0119,1.1341,0.0036,-0.0207,2.0987,0.0216,0.0098
222669,-106.6888,-4.6391,-0.0108,-0.0463,-89.3896,-0.0001,-0.0119,1.1341,0.0036,-0.0207,2.0987,0.0216,0.0098
222685,-106.6888,-4.6391,-0.0108,-0.0463,-89.3896,-0.0001,-0.0119,1.1341,0.0036,-0.0207,2.0987,0.0216,0.0098
222717,-106.6914,-4.4254,-0.011,-0.0173,-89.3606,0.003,-0.0129,1.12,-0.0005,0.0007,0.0647,-0.0043,0.1257
222722,-106.6914,-4.4254,-0.011,-0.0173,-89.3606,0.003,-0.0129,1.12,-0.0005,0.0007,0.0647,-0.0043,0.1257
222738,-106.6914,-4.4254,-0.011,-0.0173,-89.3606,0.003,-0.0129,1.12,-0.0005,0.0007,0.0647,-0.0043,0.1257
222754,-106.6914,-4.4254,-0.011,-0.0173,-89.3606,0.003,-0.0129,1.12,-0.0005,0.0007,0.0647,-0.0043,0.1257
222770,-106.6914,-4.4254,-0.011,-0.0173,-89.3606,0.003,-0.0129,1.12,-0.0005,0.0007,0.0647,-0.0043,0.1257
222786,-106.6914,-4.4254,-0.011,-0.0173,-89.3606,0.003,-0.0129,1.12,-0.0005,0.0007,0.0647,-0.0043,0.1257
222802,-106.6914,-4.4254,-0.011,-0.0173,-89.3606,0.003,-0.0129,1.12,-0.0005,0.0007,0.0647,-0.0043,0.1257
222818,-106.6914,-4.4254,-0.011,-0.0173,-89.3606,0.003,-0.0129,1.12,-0.0005,0.0007,0.0647,-0.0043,0.1257
222834,-106.6929,-4.2952,-0.0109,-0.031,-89.3577,0.0018,-0.0179,1.5955,-0.0002,-0.042,3.9937,0.0023,0.0069
222850,-106.6929,-4.2952,-0.0109,-0.031,-89.3577,0.0018,-0.0179,1.5955,-0.0002,-0.042,3.9937,0.0023,0.0069
222866,-106.6929,-4.2952,-0.0109,-0.031,-89.3577,0.0018,-0.0179,1.5955,-0.0002,-0.042,3.9937,0.0023,0.0069
222882,-106.6929,-4.2952,-0.0109,-0.031,-89.3577,0.0018,-0.0179,1.5955,-0.0002,-0.042,3.9937,0.0023,0.0069
222898,-106.6929,-4.2952,-0.0109,-0.031,-89.3577,0.0018,-0.0179,1.5955,-0.0002,-0.042,3.9937,0.0023,0.0069
222914,-106.6929,-4.2952,-0.0109,-0.031,-89.3577,0.0018,-0.0179,1.5955,-0.0002,-0.042,3.9937,0.0023,0.0069
222930,-106.6929,-4.2952,-0.0109,-0.031,-89.3577,0.0018,-0.0179,1.5955,-0.0002,-0.042,3.9937,0.0023,0.0069
222955,-106.6929,-4.2952,-0.0109,-0.031,-89.3577,0.0018,-0.0179,1.5955,-0.0002,-0.042,3.9937,0.0023,0.0069
222962,-106.6948,-4.1206,-0.0108,-0.0518,-89.3583,0.0011,-0.0236,2.099,-0.0001,-0.0462,4.0797,0.0011,0.0205
222978,-106.6948,-4.1206,-0.0108,-0.0518,-89.3583,0.0011,-0.0236,2.099,-0.0001,-0.0462,4.0797,0.0011,0.0205
222994,-106.6948,-4.1206,-0.0108,-0.0518,-89.3583,0.0011,-0.0236,2.099,-0.0001,-0.0462,4.0797,0.0011,0.0205
223010,-106.6948,-4.1206,-0.0108,-0.0518,-89.3583,0.0011,-0.0236,2.099,-0.0001,-0.0462,4.0797,0.0011,0.0205
223026,-106.6948,-4.1206,-0.0108,-0.0518,-89.3583,0.0011,-0.0236,2.099,-0.0001,-0.0462,4.0797,0.0011,0.0205
223042,-106.6948,-4.1206,-0.0108,-0.0518,-89.3583,0.0011,-0.0236,2.099,-0.0001,-0.0462,4.0797,0.0011,0.0205
223058,-106.6948,-4.1206,-0.0108,-0.0518,-89.3583,0.0011,-0.0236,2.099,-0.0001,-0.0462,4.0797,0.0011,0.0205
223081,-106.6976,-3.8836,-0.0106,-0.0723,-89.3466,0.0008,-0.0313,2.6793,-0.0,-0.0623,4.6868,0.0005,-0.4463
223090,-106.6976,-3.8836,-0.0106,-0.0723,-89.3466,0.0008,-0.0313,2.6793,-0.0,-0.0623,4.6868,0.0005,-0.4463
223106,-106.6976,-3.8836,-0.0106,-0.0723,-89.3466,0.0008,-0.0313,2.6793,-0.0,-0.0623,4.6868,0.0005,-0.4463
223122,-106.6976,-3.8836,-0.0106,-0.0723,-89.3466,0.0008,-0.0313,2.6793,-0.0,-0.0623,4.6868,0.0005,-0.4463
223138,-106.6976,-3.8836,-0.0106,-0.0723,-89.3466,0.0008,-0.0313,2.6793,-0.0,-0.0623,4.6868,0.0005,-0.4463
223154,-106.6976,-3.8836,-0.0106,-0.0723,-89.3466,0.0008,-0.0313,2.6793,-0.0,-0.0623,4.6868,0.0005,-0.4463
223170,-106.6976,-3.8836,-0.0106,-0.0723,-89.3466,0.0008,-0.0313,2.6793,-0.0,-0.0623,4.6868,0.0005,-0.4463
223186,-106.6976,-3.8836,-0.0106,-0.0723,-89.3466,0.0008,-0.0313,2.6793,-0.0,-0.0623,4.6868,0.0005,-0.4463
223203,-106.6976,-3.8836,-0.0106,-0.0723,-89.3466,0.0008,-0.0313,2.6793,-0.0,-0.0623,4.6868,0.0005,-0.4463
223219,-106.701,-3.5968,-0.0106,-0.077,-89.3376,0.0006,-0.0371,3.2019,-0.0,-0.047,4.2881,0.0002,1.8101
223235,-106.701,-3.5968,-0.0106,-0.077,-89.3376,0.0006,-0.0371,3.2019,-0.0,-0.047,4.2881,0.0002,1.8101
223251,-106.701,-3.5968,-0.0106,-0.077,-89.3376,0.0006,-0.0371,3.2019,-0.0,-0.047,4.2881,0.0002,1.8101
223267,-106.701,-3.5968,-0.0106,-0.077,-89.3376,0.0006,-0.0371,3.2019,-0.0,-0.047,4.2881,0.0002,1.8101
223283,-106.701,-3.5968,-0.0106,-0.077,-89.3376,0.0006,-0.0371,3.2019,-0.0,-0.047,4.2881,0.0002,1.8101
223299,-106.701,-3.5968,-0.0106,-0.077,-89.3376,0.0006,-0.0371,3.2019,-0.0,-0.047,4.2881,0.0002,1.8101
223315,-106.701,-3.5968,-0.0106,-0.077,-89.3376,0.0006,-0.0371,3.2019,-0.0,-0.047,4.2881,0.0002,1.8101
223331,-106.701,-3.5968,-0.0106,-0.077,-89.3376,0.0006,-0.0371,3.2019,-0.0,-0.047,4.2881,0.0002,1.8101
223353,-106.706,-3.2498,-0.0105,-0.0872,-89.2648,0.0013,-0.0496,3.8212,-0.0,-0.0837,4.1444,0.0001,1.1803
223363,-106.706,-3.2498,-0.0105,-0.0872,-89.2648,0.0013,-0.0496,3.8212,-0.0,-0.0837,4.1444,0.0001,1.1803
223379,-106.706,-3.2498,-0.0105,-0.0872,-89.2648,0.0013,-0.0496,3.8212,-0.0,-0.0837,4.1444,0.0001,1.1803
223395,-106.706,-3.2498,-0.0105,-0.0872,-89.2648,0.0013,-0.0496,3.8212,-0.0,-0.0837,4.1444,0.0001,1.1803
223411,-106.706,-3.2498,-0.0105,-0.0872,-89.2648,0.0013,-0.0496,3.8212,-0.0,-0.0837,4.1444,0.0001,1.1803
223427,-106.706,-3.2498,-0.0105,-0.0872,-89.2648,0.0013,-0.0496,3.8212,-0.0,-0.0837,4.1444,0.0001,1.1803
223443,-106.706,-3.2498,-0.0105,-0.0872,-89.2648,0.0013,-0.0496,3.8212,-0.0,-0.0837,4.1444,0.0001,1.1803
223464,-106.712,-2.8314,-0.0104,-0.0984,-89.21,0.0016,-0.0638,4.4956,-0.0,-0.131,6.2123,-0.0001,-1.0491
223475,-106.712,-2.8314,-0.0104,-0.0984,-89.21,0.0016,-0.0638,4.4956,-0.0,-0.131,6.2123,-0.0001,-1.0491
223491,-106.712,-2.8314,-0.0104,-0.0984,-89.21,0.0016,-0.0638,4.4956,-0.0,-0.131,6.2123,-0.0001,-1.0491
223507,-106.712,-2.8314,-0.0104,-0.0984,-89.21,0.0016,-0.0638,4.4956,-0.0,-0.131,6.2123,-0.0001,-1.0491
223523,-106.712,-2.8314,-0.0104,-0.0984,-89.21,0.0016,-0.0638,4.4956,-0.0,-0.131,6.2123,-0.0001,-1.0491
223539,-106.712,-2.8314,-0.0104,-0.0984,-89.21,0.0016,-0.0638,4.4956,-0.0,-0.131,6.2123,-0.0001,-1.0491
223555,-106.712,-2.8314,-0.0104,-0.0984,-89.21,0.0016,-0.0638,4.4956,-0.0,-0.131,6.2123,-0.0001,-1.0491
223578,-106.712,-2.8314,-0.0104,-0.0984,-89.21,0.0016,-0.0638,4.4956,-0.0,-0.131,6.2123,-0.0001,-1.0491
223591,-106.7193,-2.3539,-0.0104,-0.0993,-89.151,0.0017,-0.0738,5.1096,-0.0,-0.0847,5.2059,0.0001,2.2398
223606,-106.7193,-2.3539,-0.0104,-0.0993,-89.151,0.0017,-0.0738,5.1096,-0.0,-0.0847,5.2059,0.0001,2.2398
223622,-106.7193,-2.3539,-0.0104,-0.0993,-89.151,0.0017,-0.0738,5.1096,-0.0,-0.0847,5.2059,0.0001,2.2398
223638,-106.7193,-2.3539,-0.0104,-0.0993,-89.151,0.0017,-0.0738,5.1096,-0.0,-0.0847,5.2059,0.0001,2.2398
223654,-106.7193,-2.3539,-0.0104,-0.0993,-89.151,0.0017,-0.0738,5.1096,-0.0,-0.0847,5.2059,0.0001,2.2398
223670,-106.7193,-2.3539,-0.0104,-0.0993,-89.151,0.0017,-0.0738,5.1096,-0.0,-0.0847,5.2059,0.0001,2.2398
223696,-106.7193,-2.3539,-0.0104,-0.0993,-89.151,0.0017,-0.0738,5.1096,-0.0,-0.0847,5.2059,0.0001,2.2398
223712,-106.7273,-1.8073,-0.0104,-0.1059,-89.162,0.0013,-0.0869,5.821,-0.0,-0.1086,5.8924,0.0,-1.7761
223750,-106.7273,-1.8073,-0.0104,-0.1059,-89.162,0.0013,-0.0869,5.821,-0.0,-0.1086,5.8924,0.0,-1.7761
223766,-106.7273,-1.8073,-0.0104,-0.1059,-89.162,0.0013,-0.0869,5.821,-0.0,-0.1086,5.8924,0.0,-1.7761
223783,-106.7273,-1.8073,-0.0104,-0.1059,-89.162,0.0013,-0.0869,5.821,-0.0,-0.1086,5.8924,0.0,-1.7761
223799,-106.7273,-1.8073,-0.0104,-0.1059,-89.162,0.0013,-0.0869,5.821,-0.0,-0.1086,5.8924,0.0,-1.7761
223815,-106.7366,-1.1887,-0.0103,-0.1123,-89.1447,0.0008,-0.0965,6.564,-0.0,-0.0864,6.698,0.0,1.5088
223831,-106.7366,-1.1887,-0.0103,-0.1123,-89.1447,0.0008,-0.0965,6.564,-0.0,-0.0864,6.698,0.0,1.5088
223847,-106.7366,-1.1887,-0.0103,-0.1123,-89.1447,0.0008,-0.0965,6.564,-0.0,-0.0864,6.698,0.0,1.5088
223863,-106.7366,-1.1887,-0.0103,-0.1123,-89.1447,0.0008,-0.0965,6.564,-0.0,-0.0864,6.698,0.0,1.5088
223879,-106.7366,-1.1887,-0.0103,-0.1123,-89.1447,0.0008,-0.0965,6.564,-0.0,-0.0864,6.698,0.0,1.5088
223895,-106.7366,-1.1887,-0.0103,-0.1123,-89.1447,0.0008,-0.0965,6.564,-0.0,-0.0864,6.698,0.0,1.5088
223911,-106.7366,-1.1887,-0.0103,-0.1123,-89.1447,0.0008,-0.0965,6.564,-0.0,-0.0864,6.698,0.0,1.5088
223927,-106.7468,-0.4926,-0.0103,-0.1191,-89.1545,0.0005,-0.1092,7.3408,0.0,-0.1144,6.9824,0.0001,-1.124
223943,-106.7468,-0.4926,-0.0103,-0.1191,-89.1545,0.0005,-0.1092,7.3408,0.0,-0.1144,6.9824,0.0001,-1.124
223959,-106.7468,-0.4926,-0.0103,-0.1191,-89.1545,0.0005,-0.1092,7.3408,0.0,-0.1144,6.9824,0.0001,-1.124
223975,-106.7468,-0.4926,-0.0103,-0.1191,-89.1545,0.0005,-0.1092,7.3408,0.0,-0.1144,6.9824,0.0001,-1.124
223991,-106.7468,-0.4926,-0.0103,-0.1191,-89.1545,0.0005,-0.1092,7.3408,0.0,-0.1144,6.9824,0.0001,-1.124
224007,-106.7468,-0.4926,-0.0103,-0.1191,-89.1545,0.0005,-0.1092,7.3408,0.0,-0.1144,6.9824,0.0001,-1.124
224023,-106.7468,-0.4926,-0.0103,-0.1191,-89.1545,0.0005,-0.1092,7.3408,0.0,-0.1144,6.9824,0.0001,-1.124
224042,-106.7583,0.2779,-0.0103,-0.1197,-89.1488,0.0003,-0.1189,8.0456,-0.0,-0.0798,5.7859,-0.0001,0.8659
224058,-106.7583,0.2779,-0.0103,-0.1197,-89.1488,0.0003,-0.1189,8.0456,-0.0,-0.0798,5.7859,-0.0001,0.8659
224074,-106.7583,0.2779,-0.0103,-0.1197,-89.1488,0.0003,-0.1189,8.0456,-0.0,-0.0798,5.7859,-0.0001,0.8659
224090,-106.7583,0.2779,-0.0103,-0.1197,-89.1488,0.0003,-0.1189,8.0456,-0.0,-0.0798,5.7859,-0.0001,0.8659
224106,-106.7583,0.2779,-0.0103,-0.1197,-89.1488,0.0003,-0.1189,8.0456,-0.0,-0.0798,5.7859,-0.0001,0.8659
224122,-106.7583,0.2779,-0.0103,-0.1197,-89.1488,0.0003,-0.1189,8.0456,-0.0,-0.0798,5.7859,-0.0001,0.8659
224138,-106.7583,0.2779,-0.0103,-0.1197,-89.1488,0.0003,-0.1189,8.0456,-0.0,-0.0798,5.7859,-0.0001,0.8659
224154,-106.7583,0.2779,-0.0103,-0.1197,-89.1488,0.0003,-0.1189,8.0456,-0.0,-0.0798,5.7859,-0.0001,0.8659
224170,-106.7583,0.2779,-0.0103,-0.1197,-89.1488,0.0003,-0.1189,8.0456,-0.0,-0.0798,5.7859,-0.0001,0.8659
224188,-106.7706,1.1149,-0.0103,-0.1145,-89.153,0.0002,-0.1287,8.6741,0.0,-0.0739,4.756,0.0001,-0.613
224209,-106.7706,1.1149,-0.0103,-0.1145,-89.153,0.0002,-0.1287,8.6741,0.0,-0.0739,4.756,0.0001,-0.613
224245,-106.7706,1.1149,-0.0103,-0.1145,-89.153,0.0002,-0.1287,8.6741,0.0,-0.0739,4.756,0.0001,-0.613
224260,-106.7706,1.1149,-0.0103,-0.1145,-89.153,0.0002,-0.1287,8.6741,0.0,-0.0739,4.756,0.0001,-0.613
224276,-106.7706,1.1149,-0.0103,-0.1145,-89.153,0.0002,-0.1287,8.6741,0.0,-0.0739,4.756,0.0001,-0.613
224297,-106.784,2.0118,-0.0104,-0.1069,-89.1506,0.0001,-0.1368,9.2398,0.0,-0.0679,4.7369,-0.0,0.276
224316,-106.784,2.0118,-0.0104,-0.1069,-89.1506,0.0001,-0.1368,9.2398,0.0,-0.0679,4.7369,-0.0,0.276
224332,-106.784,2.0118,-0.0104,-0.1069,-89.1506,0.0001,-0.1368,9.2398,0.0,-0.0679,4.7369,-0.0,0.276
224348,-106.784,2.0118,-0.0104,-0.1069,-89.1506,0.0001,-0.1368,9.2398,0.0,-0.0679,4.7369,-0.0,0.276
224364,-106.784,2.0118,-0.0104,-0.1069,-89.1506,0.0001,-0.1368,9.2398,0.0,-0.0679,4.7369,-0.0,0.276
224380,-106.784,2.0118,-0.0104,-0.1069,-89.1506,0.0001,-0.1368,9.2398,0.0,-0.0679,4.7369,-0.0,0.276
224396,-106.784,2.0118,-0.0104,-0.1069,-89.1506,0.0001,-0.1368,9.2398,0.0,-0.0679,4.7369,-0.0,0.276
224412,-106.784,2.0118,-0.0104,-0.1069,-89.1506,0.0001,-0.1368,9.2398,0.0,-0.0679,4.7369,-0.0,0.276
224429,-106.798,2.9627,-0.0104,-0.0986,-89.1514,0.0001,-0.1445,9.7562,0.0,-0.0586,3.9137,0.0001,-0.0398
224445,-106.798,2.9627,-0.0104,-0.0986,-89.1514,0.0001,-0.1445,9.7562,0.0,-0.0586,3.9137,0.0001,-0.0398
224461,-106.798,2.9627,-0.0104,-0.0986,-89.1514,0.0001,-0.1445,9.7562,0.0,-0.0586,3.9137,0.0001,-0.0398
224477,-106.798,2.9627,-0.0104,-0.0986,-89.1514,0.0001,-0.1445,9.7562,0.0,-0.0586,3.9137,0.0001,-0.0398
224493,-106.798,2.9627,-0.0104,-0.0986,-89.1514,0.0001,-0.1445,9.7562,0.0,-0.0586,3.9137,0.0001,-0.0398
224509,-106.798,2.9627,-0.0104,-0.0986,-89.1514,0.0001,-0.1445,9.7562,0.0,-0.0586,3.9137,0.0001,-0.0398
224525,-106.798,2.9627,-0.0104,-0.0986,-89.1514,0.0001,-0.1445,9.7562,0.0,-0.0586,3.9137,0.0001,-0.0398
224550,-106.8129,3.9644,-0.0105,-0.0921,-89.1513,0.0,-0.1519,10.2544,0.0,-0.0656,4.4356,-0.0001,0.0001
224557,-106.8129,3.9644,-0.0105,-0.0921,-89.1513,0.0,-0.1519,10.2544,0.0,-0.0656,4.4356,-0.0001,0.0001
224573,-106.8129,3.9644,-0.0105,-0.0921,-89.1513,0.0,-0.1519,10.2544,0.0,-0.0656,4.4356,-0.0001,0.0001
224589,-106.8129,3.9644,-0.0105,-0.0921,-89.1513,0.0,-0.1519,10.2544,0.0,-0.0656,4.4356,-0.0001,0.0001
224605,-106.8129,3.9644,-0.0105,-0.0921,-89.1513,0.0,-0.1519,10.2544,0.0,-0.0656,4.4356,-0.0001,0.0001
224621,-106.8129,3.9644,-0.0105,-0.0921,-89.1513,0.0,-0.1519,10.2544,0.0,-0.0656,4.4356,-0.0001,0.0001
224637,-106.8129,3.9644,-0.0105,-0.0921,-89.1513,0.0,-0.1519,10.2544,0.0,-0.0656,4.4356,-0.0001,0.0001
224653,-106.8284,5.0149,-0.0105,-0.0867,-89.1513,0.0,-0.1588,10.7232,0.0,-0.0616,4.158,0.0001,0.0002
224669,-106.8284,5.0149,-0.0105,-0.0867,-89.1513,0.0,-0.1588,10.7232,0.0,-0.0616,4.158,0.0001,0.0002
224685,-106.8284,5.0149,-0.0105,-0.0867,-89.1513,0.0,-0.1588,10.7232,0.0,-0.0616,4.158,0.0001,0.0002
224701,-106.8284,5.0149,-0.0105,-0.0867,-89.1513,0.0,-0.1588,10.7232,0.0,-0.0616,4.158,0.0001,0.0002
224717,-106.8284,5.0149,-0.0105,-0.0867,-89.1513,0.0,-0.1588,10.7232,0.0,-0.0616,4.158,0.0001,0.0002
224733,-106.8284,5.0149,-0.0105,-0.0867,-89.1513,0.0,-0.1588,10.7232,0.0,-0.0616,4.158,0.0001,0.0002
224749,-106.8284,5.0149,-0.0105,-0.0867,-89.1513,0.0,-0.1588,10.7232,0.0,-0.0616,4.158,0.0001,0.0002
224783,-106.8446,6.11,-0.0106,-0.0807,-89.1513,0.0,-0.1651,11.1482,-0.0,-0.0555,3.7515,-0.0001,-0.0
224799,-106.8446,6.11,-0.0106,-0.0807,-89.1513,0.0,-0.1651,11.1482,-0.0,-0.0555,3.7515,-0.0001,-0.0
224815,-106.8446,6.11,-0.0106,-0.0807,-89.1513,0.0,-0.1651,11.1482,-0.0,-0.0555,3.7515,-0.0001,-0.0
224831,-106.8446,6.11,-0.0106,-0.0807,-89.1513,0.0,-0.1651,11.1482,-0.0,-0.0555,3.7515,-0.0001,-0.0
224847,-106.8446,6.11,-0.0106,-0.0807,-89.1513,0.0,-0.1651,11.1482,-0.0,-0.0555,3.7515,-0.0001,-0.0
224863,-106.8446,6.11,-0.0106,-0.0807,-89.1513,0.0,-0.1651,11.1482,-0.0,-0.0555,3.7515,-0.0001,-0.0
224889,-106.8913,7.2375,-0.0106,-0.0649,-90.5579,0.1259,-1.0244,11.3125,0.001,-7.2683,1.3898,0.0083,-31.5343
224895,-106.8913,7.2375,-0.0106,-0.0649,-90.5579,0.1259,-1.0244,11.3125,0.001,-7.2683,1.3898,0.0083,-31.5343
224911,-106.8913,7.2375,-0.0106,-0.0649,-90.5579,0.1259,-1.0244,11.3125,0.001,-7.2683,1.3898,0.0083,-31.5343
224927,-106.8913,7.2375,-0.0106,-0.0649,-90.5579,0.1259,-1.0244,11.3125,0.001,-7.2683,1.3898,0.0083,-31.5343
224943,-106.8913,7.2375,-0.0106,-0.0649,-90.5579,0.1259,-1.0244,11.3125,0.001,-7.2683,1.3898,0.0083,-31.5343
224959,-106.8913,7.2375,-0.0106,-0.0649,-90.5579,0.1259,-1.0244,11.3125,0.001,-7.2683,1.3898,0.0083,-31.5343
224975,-106.8913,7.2375,-0.0106,-0.0649,-90.5579,0.1259,-1.0244,11.3125,0.001,-7.2683,1.3898,0.0083,-31.5343
225001,-107.0109,8.3564,-0.0108,-0.0221,-96.5551,0.2798,-2.0741,11.103,0.0011,-9.0934,-1.8153,0.0014,-85.4888
225007,-107.0109,8.3564,-0.0108,-0.0221,-96.5551,0.2798,-2.0741,11.103,0.0011,-9.0934,-1.8153,0.0014,-85.4888
225023,-107.0109,8.3564,-0.0108,-0.0221,-96.5551,0.2798,-2.0741,11.103,0.0011,-9.0934,-1.8153,0.0014,-85.4888
225039,-107.0109,8.3564,-0.0108,-0.0221,-96.5551,0.2798,-2.0741,11.103,0.0011,-9.0934,-1.8153,0.0014,-85.4888
225055,-107.0109,8.3564,-0.0108,-0.0221,-96.5551,0.2798,-2.0741,11.103,0.0011,-9.0934,-1.8153,0.0014,-85.4888
225071,-107.0109,8.3564,-0.0108,-0.0221,-96.5551,0.2798,-2.0741,11.103,0.0011,-9.0934,-1.8153,0.0014,-85.4888
225087,-107.0109,8.3564,-0.0108,-0.0221,-96.5551,0.2798,-2.0741,11.103,0.0011,-9.0934,-1.8153,0.0014,-85.4888
225103,-107.0109,8.3564,-0.0108,-0.0221,-96.5551,0.2798,-2.0741,11.103,0.0011,-9.0934,-1.8153,0.0014,-85.4888
225127,-107.1689,9.4324,-0.0111,0.0159,-108.353,0.2837,-2.6195,10.825,-0.0001,-4.3513,-2.2179,-0.0095,-145.9287
225135,-107.1689,9.4324,-0.0111,0.0159,-108.353,0.2837,-2.6195,10.825,-0.0001,-4.3513,-2.2179,-0.0095,-145.9287
225151,-107.1689,9.4324,-0.0111,0.0159,-108.353,0.2837,-2.6195,10.825,-0.0001,-4.3513,-2.2179,-0.0095,-145.9287
225167,-107.1689,9.4324,-0.0111,0.0159,-108.353,0.2837,-2.6195,10.825,-0.0001,-4.3513,-2.2179,-0.0095,-145.9287
225183,-107.1689,9.4324,-0.0111,0.0159,-108.353,0.2837,-2.6195,10.825,-0.0001,-4.3513,-2.2179,-0.0095,-145.9287
225199,-107.1689,9.4324,-0.0111,0.0159,-108.353,0.2837,-2.6195,10.825,-0.0001,-4.3513,-2.2179,-0.0095,-145.9287
225215,-107.1689,9.4324,-0.0111,0.0159,-108.353,0.2837,-2.6195,10.825,-0.0001,-4.3513,-2.2179,-0.0095,-145.9287
225234,-107.1689,9.4324,-0.0111,0.0159,-108.353,0.2837,-2.6195,10.825,-0.0001,-4.3513,-2.2179,-0.0095,-145.9287
225247,-107.1689,9.4324,-0.0111,0.0159,-108.353,0.2837,-2.6195,10.825,-0.0001,-4.3513,-2.2179,-0.0095,-145.9287
225263,-107.2933,10.4588,-0.0109,-0.0136,-125.4875,0.1022,-1.8903,10.9162,-0.0015,5.5941,0.7,-0.0108,-186.8638
225279,-107.2933,10.4588,-0.0109,-0.0136,-125.4875,0.1022,-1.8903,10.9162,-0.0015,5.5941,0.7,-0.0108,-186.8638
225295,-107.2933,10.4588,-0.0109,-0.0136,-125.4875,0.1022,-1.8903,10.9162,-0.0015,5.5941,0.7,-0.0108,-186.8638
225311,-107.2933,10.4588,-0.0109,-0.0136,-125.4875,0.1022,-1.8903,10.9162,-0.0015,5.5941,0.7,-0.0108,-186.8638
225327,-107.2933,10.4588,-0.0109,-0.0136,-125.4875,0.1022,-1.8903,10.9162,-0.0015,5.5941,0.7,-0.0108,-186.8638
225343,-107.2933,10.4588,-0.0109,-0.0136,-125.4875,0.1022,-1.8903,10.9162,-0.0015,5.5941,0.7,-0.0108,-186.8638
225359,-107.2933,10.4588,-0.0109,-0.0136,-125.4875,0.1022,-1.8903,10.9162,-0.0015,5.5941,0.7,-0.0108,-186.8638
225392,-107.2736,11.4518,-0.0101,-0.1266,-145.1107,-0.1859,0.1381,10.9096,0.0012,17.1399,-0.0562,0.0224,-202.3302
225408,-107.2736,11.4518,-0.0101,-0.1266,-145.1107,-0.1859,0.1381,10.9096,0.0012,17.1399,-0.0562,0.0224,-202.3302
225424,-107.2736,11.4518,-0.0101,-0.1266,-145.1107,-0.1859,0.1381,10.9096,0.0012,17.1399,-0.0562,0.0224,-202.3302
225440,-107.2736,11.4518,-0.0101,-0.1266,-145.1107,-0.1859,0.1381,10.9096,0.0012,17.1399,-0.0562,0.0224,-202.3302
225456,-107.2736,11.4518,-0.0101,-0.1266,-145.1107,-0.1859,0.1381,10.9096,0.0012,17.1399,-0.0562,0.0224,-202.3302
225472,-107.2736,11.4518,-0.0101,-0.1266,-145.1107,-0.1859,0.1381,10.9096,0.0012,17.1399,-0.0562,0.0224,-202.3302
225488,-107.2736,11.4518,-0.0101,-0.1266,-145.1107,-0.1859,0.1381,10.9096,0.0012,17.1399,-0.0562,0.0224,-202.3302
225509,-107.0802,12.3341,-0.0093,-0.2114,-165.3168,-0.5157,2.1179,9.3346,0.0028,15.0194,-11.9483,0.0122,-199.8188
225520,-107.0802,12.3341,-0.0093,-0.2114,-165.3168,-0.5157,2.1179,9.3346,0.0028,15.0194,-11.9483,0.0122,-199.8188
225536,-107.0802,12.3341,-0.0093,-0.2114,-165.3168,-0.5157,2.1179,9.3346,0.0028,15.0194,-11.9483,0.0122,-199.8188
225552,-107.0802,12.3341,-0.0093,-0.2114,-165.3168,-0.5157,2.1179,9.3346,0.0028,15.0194,-11.9483,0.0122,-199.8188
225568,-107.0802,12.3341,-0.0093,-0.2114,-165.3168,-0.5157,2.1179,9.3346,0.0028,15.0194,-11.9483,0.0122,-199.8188
225584,-107.0802,12.3341,-0.0093,-0.2114,-165.3168,-0.5157,2.1179,9.3346,0.0028,15.0194,-11.9483,0.0122,-199.8188
225600,-107.0802,12.3341,-0.0093,-0.2114,-165.3168,-0.5157,2.1179,9.3346,0.0028,15.0194,-11.9483,0.0122,-199.8188
225623,-107.0802,12.3341,-0.0093,-0.2114,-165.3168,-0.5157,2.1179,9.3346,0.0028,15.0194,-11.9483,0.0122,-199.8188
225632,-106.8678,12.9993,-0.0095,-0.1475,176.2977,-0.7771,1.5633,6.9103,0.0018,-4.7441,-20.7379,-0.0089,-172.0697
225648,-106.8678,12.9993,-0.0095,-0.1475,176.2977,-0.7771,1.5633,6.9103,0.0018,-4.7441,-20.7379,-0.0089,-172.0697
225664,-106.8678,12.9993,-0.0095,-0.1475,176.2977,-0.7771,1.5633,6.9103,0.0018,-4.7441,-20.7379,-0.0089,-172.0697
225680,-106.8678,12.9993,-0.0095,-0.1475,176.2977,-0.7771,1.5633,6.9103,0.0018,-4.7441,-20.7379,-0.0089,-172.0697
225696,-106.8678,12.9993,-0.0095,-0.1475,176.2977,-0.7771,1.5633,6.9103,0.0018,-4.7441,-20.7379,-0.0089,-172.0697
225712,-106.8678,12.9993,-0.0095,-0.1475,176.2977,-0.7771,1.5633,6.9103,0.0018,-4.7441,-20.7379,-0.0089,-172.0697
225737,-106.8417,13.4717,-0.0105,-0.0072,159.9204,-0.8981,-0.4695,5.3238,0.0041,-18.8614,-14.7213,0.022,-150.263
225744,-106.8417,13.4717,-0.0105,-0.0072,159.9204,-0.8981,-0.4695,5.3238,0.0041,-18.8614,-14.7213,0.022,-150.263
225760,-106.8417,13.4717,-0.0105,-0.0072,159.9204,-0.8981,-0.4695,5.3238,0.0041,-18.8614,-14.7213,0.022,-150.263
225781,-106.8417,13.4717,-0.0105,-0.0072,159.9204,-0.8981,-0.4695,5.3238,0.0041,-18.8614,-14.7213,0.022,-150.263
225797,-106.8417,13.4717,-0.0105,-0.0072,159.9204,-0.8981,-0.4695,5.3238,0.0041,-18.8614,-14.7213,0.022,-150.263
225813,-106.8417,13.4717,-0.0105,-0.0072,159.9204,-0.8981,-0.4695,5.3238,0.0041,-18.8614,-14.7213,0.022,-150.263
225833,-106.8417,13.4717,-0.0105,-0.0072,159.9204,-0.8981,-0.4695,5.3238,0.0041,-18.8614,-14.7213,0.022,-150.263
225849,-107.0728,13.9211,-0.0117,0.1633,147.5472,-0.7778,-2.9916,5.4007,-0.0002,-22.8466,0.6972,-0.0388,-101.7241
225865,-107.0728,13.9211,-0.0117,0.1633,147.5472,-0.7778,-2.9916,5.4007,-0.0002,-22.8466,0.6972,-0.0388,-101.7241
225897,-107.0728,13.9211,-0.0117,0.1633,147.5472,-0.7778,-2.9916,5.4007,-0.0002,-22.8466,0.6972,-0.0388,-101.7241
225913,-107.0728,13.9211,-0.0117,0.1633,147.5472,-0.7778,-2.9916,5.4007,-0.0002,-22.8466,0.6972,-0.0388,-101.7241
225929,-107.0728,13.9211,-0.0117,0.1633,147.5472,-0.7778,-2.9916,5.4007,-0.0002,-22.8466,0.6972,-0.0388,-101.7241
225945,-107.505,14.421,-0.0122,0.2269,140.5741,-0.6686,-4.7477,5.218,-0.0011,-16.4996,-1.7166,-0.009,-41.2686
225961,-107.505,14.421,-0.0122,0.2269,140.5741,-0.6686,-4.7477,5.218,-0.0011,-16.4996,-1.7166,-0.009,-41.2686
225977,-107.505,14.421,-0.0122,0.2269,140.5741,-0.6686,-4.7477,5.218,-0.0011,-16.4996,-1.7166,-0.009,-41.2686
225993,-107.505,14.421,-0.0122,0.2269,140.5741,-0.6686,-4.7477,5.218,-0.0011,-16.4996,-1.7166,-0.009,-41.2686
226009,-107.505,14.421,-0.0122,0.2269,140.5741,-0.6686,-4.7477,5.218,-0.0011,-16.4996,-1.7166,-0.009,-41.2686
226025,-107.505,14.421,-0.0122,0.2269,140.5741,-0.6686,-4.7477,5.218,-0.0011,-16.4996,-1.7166,-0.009,-41.2686
226042,-107.9924,14.8739,-0.012,0.1821,138.7681,-0.5665,-5.4278,4.9505,-0.0012,-7.3949,-2.9093,-0.0005,-12.0235
226057,-107.9924,14.8739,-0.012,0.1821,138.7681,-0.5665,-5.4278,4.9505,-0.0012,-7.3949,-2.9093,-0.0005,-12.0235
226073,-107.9924,14.8739,-0.012,0.1821,138.7681,-0.5665,-5.4278,4.9505,-0.0012,-7.3949,-2.9093,-0.0005,-12.0235
226089,-107.9924,14.8739,-0.012,0.1821,138.7681,-0.5665,-5.4278,4.9505,-0.0012,-7.3949,-2.9093,-0.0005,-12.0235
226105,-107.9924,14.8739,-0.012,0.1821,138.7681,-0.5665,-5.4278,4.9505,-0.0012,-7.3949,-2.9093,-0.0005,-12.0235
226121,-107.9924,14.8739,-0.012,0.1821,138.7681,-0.5665,-5.4278,4.9505,-0.0012,-7.3949,-2.9093,-0.0005,-12.0235
226137,-108.5172,15.3415,-0.0117,0.1222,138.3318,-0.3723,-5.6021,4.9836,-0.0017,-1.8427,0.3505,-0.006,-5.3794
226153,-108.5172,15.3415,-0.0117,0.1222,138.3318,-0.3723,-5.6021,4.9836,-0.0017,-1.8427,0.3505,-0.006,-5.3794
226169,-108.5172,15.3415,-0.0117,0.1222,138.3318,-0.3723,-5.6021,4.9836,-0.0017,-1.8427,0.3505,-0.006,-5.3794
226185,-108.5172,15.3415,-0.0117,0.1222,138.3318,-0.3723,-5.6021,4.9836,-0.0017,-1.8427,0.3505,-0.006,-5.3794
226201,-108.5172,15.3415,-0.0117,0.1222,138.3318,-0.3723,-5.6021,4.9836,-0.0017,-1.8427,0.3505,-0.006,-5.3794
226217,-108.5172,15.3415,-0.0117,0.1222,138.3318,-0.3723,-5.6021,4.9836,-0.0017,-1.8427,0.3505,-0.006,-5.3794
226233,-108.5172,15.3415,-0.0117,0.1222,138.3318,-0.3723,-5.6021,4.9836,-0.0017,-1.8427,0.3505,-0.006,-5.3794
226249,-109.0816,15.8435,-0.0115,0.0772,138.2156,-0.2165,-5.6824,5.0536,-0.0014,-0.7198,0.6272,0.0033,-3.9843
226265,-109.0816,15.8435,-0.0115,0.0772,138.2156,-0.2165,-5.6824,5.0536,-0.0014,-0.7198,0.6272,0.0033,-3.9843
226281,-109.0816,15.8435,-0.0115,0.0772,138.2156,-0.2165,-5.6824,5.0536,-0.0014,-0.7198,0.6272,0.0033,-3.9843
226297,-109.0816,15.8435,-0.0115,0.0772,138.2156,-0.2165,-5.6824,5.0536,-0.0014,-0.7198,0.6272,0.0033,-3.9843
226313,-109.0816,15.8435,-0.0115,0.0772,138.2156,-0.2165,-5.6824,5.0536,-0.0014,-0.7198,0.6272,0.0033,-3.9843
226329,-109.0816,15.8435,-0.0115,0.0772,138.2156,-0.2165,-5.6824,5.0536,-0.0014,-0.7198,0.6272,0.0033,-3.9843
226348,-109.0816,15.8435,-0.0115,0.0772,138.2156,-0.2165,-5.6824,5.0536,-0.0014,-0.7198,0.6272,0.0033,-3.9843
226361,-109.6533,16.3532,-0.0114,0.0506,138.1863,-0.1228,-5.7534,5.1286,-0.0008,-0.6327,0.6686,0.0052,-3.5229
226377,-109.6533,16.3532,-0.0114,0.0506,138.1863,-0.1228,-5.7534,5.1286,-0.0008,-0.6327,0.6686,0.0052,-3.5229
226393,-109.6533,16.3532,-0.0114,0.0506,138.1863,-0.1228,-5.7534,5.1286,-0.0008,-0.6327,0.6686,0.0052,-3.5229
226409,-109.6533,16.3532,-0.0114,0.0506,138.1863,-0.1228,-5.7534,5.1286,-0.0008,-0.6327,0.6686,0.0052,-3.5229
226425,-109.6533,16.3532,-0.0114,0.0506,138.1863,-0.1228,-5.7534,5.1286,-0.0008,-0.6327,0.6686,0.0052,-3.5229
226441,-109.6533,16.3532,-0.0114,0.0506,138.1863,-0.1228,-5.7534,5.1286,-0.0008,-0.6327,0.6686,0.0052,-3.5229
226465,-110.2322,16.8701,-0.0114,0.0356,138.1788,-0.0692,-5.8239,5.1996,-0.0004,-0.6876,0.6917,0.004,-3.3815
226473,-110.2322,16.8701,-0.0114,0.0356,138.1788,-0.0692,-5.8239,5.1996,-0.0004,-0.6876,0.6917,0.004,-3.3815
226489,-110.2322,16.8701,-0.0114,0.0356,138.1788,-0.0692,-5.8239,5.1996,-0.0004,-0.6876,0.6917,0.004,-3.3815
226505,-110.2322,16.8701,-0.0114,0.0356,138.1788,-0.0692,-5.8239,5.1996,-0.0004,-0.6876,0.6917,0.004,-3.3815
226521,-110.2322,16.8701,-0.0114,0.0356,138.1788,-0.0692,-5.8239,5.1996,-0.0004,-0.6876,0.6917,0.004,-3.3815
226537,-110.2322,16.8701,-0.0114,0.0356,138.1788,-0.0692,-5.8239,5.1996,-0.0004,-0.6876,0.6917,0.004,-3.3815
226553,-110.2322,16.8701,-0.0114,0.0356,138.1788,-0.0692,-5.8239,5.1996,-0.0004,-0.6876,0.6917,0.004,-3.3815
226577,-110.8183,17.3939,-0.0113,0.0271,138.177,-0.0389,-5.8946,5.267,-0.0001,-0.6419,0.6127,0.002,-3.3217
226585,-110.8183,17.3939,-0.0113,0.0271,138.177,-0.0389,-5.8946,5.267,-0.0001,-0.6419,0.6127,0.002,-3.3217
226601,-110.8183,17.3939,-0.0113,0.0271,138.177,-0.0389,-5.8946,5.267,-0.0001,-0.6419,0.6127,0.002,-3.3217
226617,-110.8183,17.3939,-0.0113,0.0271,138.177,-0.0389,-5.8946,5.267,-0.0001,-0.6419,0.6127,0.002,-3.3217
226633,-110.8183,17.3939,-0.0113,0.0271,138.177,-0.0389,-5.8946,5.267,-0.0001,-0.6419,0.6127,0.002,-3.3217
226649,-110.8183,17.3939,-0.0113,0.0271,138.177,-0.0389,-5.8946,5.267,-0.0001,-0.6419,0.6127,0.002,-3.3217
226665,-110.8183,17.3939,-0.0113,0.0271,138.177,-0.0389,-5.8946,5.267,-0.0001,-0.6419,0.6127,0.002,-3.3217
226681,-111.4116,17.9243,-0.0113,0.0224,138.1767,-0.0219,-5.9646,5.3318,-0.0,-0.6597,0.6105,0.0009,-3.2834
226697,-111.4116,17.9243,-0.0113,0.0224,138.1767,-0.0219,-5.9646,5.3318,-0.0,-0.6597,0.6105,0.0009,-3.2834
226713,-111.4116,17.9243,-0.0113,0.0224,138.1767,-0.0219,-5.9646,5.3318,-0.0,-0.6597,0.6105,0.0009,-3.2834
226729,-111.4116,17.9243,-0.0113,0.0224,138.1767,-0.0219,-5.9646,5.3318,-0.0,-0.6597,0.6105,0.0009,-3.2834
226745,-111.4116,17.9243,-0.0113,0.0224,138.1767,-0.0219,-5.9646,5.3318,-0.0,-0.6597,0.6105,0.0009,-3.2834
226761,-111.4116,17.9243,-0.0113,0.0224,138.1767,-0.0219,-5.9646,5.3318,-0.0,-0.6597,0.6105,0.0009,-3.2834
226777,-111.4116,17.9243,-0.0113,0.0224,138.1767,-0.0219,-5.9646,5.3318,-0.0,-0.6597,0.6105,0.0009,-3.2834
226793,-112.0117,18.461,-0.0113,0.0196,138.1767,-0.0124,-6.0336,5.3946,-0.0,-0.6419,0.5846,0.0004,-3.2504
226809,-112.0117,18.461,-0.0113,0.0196,138.1767,-0.0124,-6.0336,5.3946,-0.0,-0.6419,0.5846,0.0004,-3.2504
226825,-112.0117,18.461,-0.0113,0.0196,138.1767,-0.0124,-6.0336,5.3946,-0.0,-0.6419,0.5846,0.0004,-3.2504
226841,-112.0117,18.461,-0.0113,0.0196,138.1767,-0.0124,-6.0336,5.3946,-0.0,-0.6419,0.5846,0.0004,-3.2504
226857,-112.0117,18.461,-0.0113,0.0196,138.1767,-0.0124,-6.0336,5.3946,-0.0,-0.6419,0.5846,0.0004,-3.2504
226873,-112.0117,18.461,-0.0113,0.0196,138.1767,-0.0124,-6.0336,5.3946,-0.0,-0.6419,0.5846,0.0004,-3.2504
226897,-112.6188,19.0038,-0.0113,0.0179,138.1768,-0.007,-6.1014,5.4559,0.0,-0.6347,0.5731,0.0001,-3.2192
226905,-112.6188,19.0038,-0.0113,0.0179,138.1768,-0.007,-6.1014,5.4559,0.0,-0.6347,0.5731,0.0001,-3.2192
226921,-112.6188,19.0038,-0.0113,0.0179,138.1768,-0.007,-6.1014,5.4559,0.0,-0.6347,0.5731,0.0001,-3.2192
226937,-112.6188,19.0038,-0.0113,0.0179,138.1768,-0.007,-6.1014,5.4559,0.0,-0.6347,0.5731,0.0001,-3.2192
226953,-112.6188,19.0038,-0.0113,0.0179,138.1768,-0.007,-6.1014,5.4559,0.0,-0.6347,0.5731,0.0001,-3.2192
226969,-112.6188,19.0038,-0.0113,0.0179,138.1768,-0.007,-6.1014,5.4559,0.0,-0.6347,0.5731,0.0001,-3.2192
226985,-112.6188,19.0038,-0.0113,0.0179,138.1768,-0.007,-6.1014,5.4559,0.0,-0.6347,0.5731,0.0001,-3.2192
227001,-113.2326,19.5527,-0.0113,0.0169,138.177,-0.004,-6.1679,5.5157,0.0,-0.6076,0.5463,0.0,-3.1885
227017,-113.2326,19.5527,-0.0113,0.0169,138.177,-0.004,-6.1679,5.5157,0.0,-0.6076,0.5463,0.0,-3.1885
227033,-113.2326,19.5527,-0.0113,0.0169,138.177,-0.004,-6.1679,5.5157,0.0,-0.6076,0.5463,0.0,-3.1885
227049,-113.2326,19.5527,-0.0113,0.0169,138.177,-0.004,-6.1679,5.5157,0.0,-0.6076,0.5463,0.0,-3.1885
227065,-113.2326,19.5527,-0.0113,0.0169,138.177,-0.004,-6.1679,5.5157,0.0,-0.6076,0.5463,0.0,-3.1885
