timestamp,x,y,z,pitch,yaw,roll,vx,vy,vz,ax,ay,az,yaw_rate
78566,-106.6867,-4.8475,-0.0804,0.0,-89.3578,0.0,-0.0,0.0,0.008,-0.0,0.0,7.9948,0.0
78582,-106.6867,-4.8475,-0.0804,0.0,-89.3578,0.0,-0.0,0.0,0.008,-0.0,0.0,7.9948,0.0
78598,-106.6867,-4.8475,-0.0804,0.0,-89.3578,0.0,-0.0,0.0,0.008,-0.0,0.0,7.9948,0.0
78614,-106.6867,-4.8475,-0.0804,0.0,-89.3578,0.0,-0.0,0.0,0.008,-0.0,0.0,7.9948,0.0
78630,-106.6867,-4.8475,-0.0804,0.0,-89.3578,0.0,-0.0,0.0,0.008,-0.0,0.0,7.9948,0.0
78646,-106.6867,-4.8475,-0.0804,0.0,-89.3578,0.0,-0.0,0.0,0.008,-0.0,0.0,7.9948,0.0
78662,-106.6867,-4.8475,-0.0804,0.0,-89.3578,0.0,-0.0,0.0,0.008,-0.0,0.0,7.9948,0.0
78678,-106.6867,-4.8475,-0.0804,0.0,-89.3578,0.0,-0.0,0.0,0.008,-0.0,0.0,7.9948,0.0
78694,-106.6867,-4.8475,-0.0804,0.0,-89.3578,0.0,-0.0,0.0,0.008,-0.0,0.0,7.9948,0.0
78710,-106.6867,-4.8475,-0.0804,0.0,-89.3578,0.0,-0.0,0.0,0.008,-0.0,0.0,7.9948,0.0
78726,-106.6867,-4.8475,-0.0804,0.0,-89.3578,0.0,-0.0,0.0,0.008,-0.0,0.0,7.9948,0.0
78742,-106.6867,-4.8475,-0.0804,0.0,-89.3578,0.0,-0.0,0.0,0.008,-0.0,0.0,7.9948,0.0
78758,-106.6867,-4.8475,-0.0804,0.0,-89.3578,0.0,-0.0,0.0,0.008,-0.0,0.0,7.9948,0.0
78774,-106.6867,-4.8475,-0.0804,0.0,-89.3578,0.0,-0.0,0.0,0.008,-0.0,0.0,7.9948,0.0
78790,-106.6867,-4.8475,-0.0804,0.0,-89.3578,0.0,-0.0,0.0,0.008,-0.0,0.0,7.9948,0.0
78806,-106.6867,-4.8475,-0.0804,0.0,-89.3578,0.0,-0.0,0.0,0.008,-0.0,0.0,7.9948,0.0
78822,-106.6867,-4.8475,-0.0804,0.0,-89.3578,0.0,-0.0,0.0,0.008,-0.0,0.0,7.9948,0.0
78838,-106.6867,-4.8475,-0.0804,0.0,-89.3578,0.0,-0.0,0.0,0.008,-0.0,0.0,7.9948,0.0
78854,-106.6867,-4.8475,-0.0804,0.0,-89.3578,0.0,-0.0,0.0,0.008,-0.0,0.0,7.9948,0.0
78870,-106.6867,-4.8475,-0.0804,0.0,-89.3578,0.0,-0.0,0.0,0.008,-0.0,0.0,7.9948,0.0
78886,-106.6867,-4.8475,-0.0804,0.0,-89.3578,0.0,-0.0,0.0,0.008,-0.0,0.0,7.9948,0.0
78902,-106.6867,-4.8475,-0.0804,0.0,-89.3578,0.0,-0.0,0.0,0.008,-0.0,0.0,7.9948,0.0
78918,-106.6867,-4.8475,-0.0804,0.0,-89.3578,0.0,-0.0,0.0,0.008,-0.0,0.0,7.9948,0.0
78934,-106.6867,-4.8475,-0.0804,0.0,-89.3578,0.0,-0.0,0.0,0.008,-0.0,0.0,7.9948,0.0
78950,-106.6867,-4.8475,-0.0804,0.0,-89.3578,0.0,-0.0,0.0,0.008,-0.0,0.0,7.9948,0.0
78966,-106.6867,-4.8475,-0.0804,0.0,-89.3578,0.0,-0.0,0.0,0.008,-0.0,0.0,7.9948,0.0
78982,-106.6867,-4.8466,-0.0625,-0.001,-89.3578,-0.0,-0.0003,0.0305,0.2369,-0.0009,0.0762,0.5723,-0.0001
78998,-106.6867,-4.8466,-0.0625,-0.001,-89.3578,-0.0,-0.0003,0.0305,0.2369,-0.0009,0.0762,0.5723,-0.0001
79014,-106.6867,-4.8466,-0.0625,-0.001,-89.3578,-0.0,-0.0003,0.0305,0.2369,-0.0009,0.0762,0.5723,-0.0001
79030,-106.6867,-4.8466,-0.0625,-0.001,-89.3578,-0.0,-0.0003,0.0305,0.2369,-0.0009,0.0762,0.5723,-0.0001
79046,-106.6867,-4.8466,-0.0625,-0.001,-89.3578,-0.0,-0.0003,0.0305,0.2369,-0.0009,0.0762,0.5723,-0.0001
79062,-106.6867,-4.8466,-0.0625,-0.001,-89.3578,-0.0,-0.0003,0.0305,0.2369,-0.0009,0.0762,0.5723,-0.0001
79078,-106.6867,-4.8466,-0.0625,-0.001,-89.3578,-0.0,-0.0003,0.0305,0.2369,-0.0009,0.0762,0.5723,-0.0001
79094,-106.6868,-4.842,-0.0409,-0.0049,-89.3577,0.0,-0.001,0.0877,0.1857,-0.0058,0.5139,-0.4602,-0.0019
79110,-106.6868,-4.842,-0.0409,-0.0049,-89.3577,0.0,-0.001,0.0877,0.1857,-0.0058,0.5139,-0.4602,-0.0019
79126,-106.6868,-4.842,-0.0409,-0.0049,-89.3577,0.0,-0.001,0.0877,0.1857,-0.0058,0.5139,-0.4602,-0.0019
79142,-106.6868,-4.842,-0.0409,-0.0049,-89.3577,0.0,-0.001,0.0877,0.1857,-0.0058,0.5139,-0.4602,-0.0019
79158,-106.6868,-4.842,-0.0409,-0.0049,-89.3577,0.0,-0.001,0.0877,0.1857,-0.0058,0.5139,-0.4602,-0.0019
79174,-106.6868,-4.842,-0.0409,-0.0049,-89.3577,0.0,-0.001,0.0877,0.1857,-0.0058,0.5139,-0.4602,-0.0019
79190,-106.6868,-4.842,-0.0409,-0.0049,-89.3577,0.0,-0.001,0.0877,0.1857,-0.0058,0.5139,-0.4602,-0.0019
79206,-106.6872,-4.8048,-0.0264,-0.0299,-89.3575,0.0,-0.0069,0.6132,0.1094,-0.0543,4.8437,-0.7026,-0.0001
79222,-106.6872,-4.8048,-0.0264,-0.0299,-89.3575,0.0,-0.0069,0.6132,0.1094,-0.0543,4.8437,-0.7026,-0.0001
79238,-106.6872,-4.8048,-0.0264,-0.0299,-89.3575,0.0,-0.0069,0.6132,0.1094,-0.0543,4.8437,-0.7026,-0.0001
79254,-106.6872,-4.8048,-0.0264,-0.0299,-89.3575,0.0,-0.0069,0.6132,0.1094,-0.0543,4.8437,-0.7026,-0.0001
79270,-106.6872,-4.8048,-0.0264,-0.0299,-89.3575,0.0,-0.0069,0.6132,0.1094,-0.0543,4.8437,-0.7026,-0.0001
79286,-106.6872,-4.8048,-0.0264,-0.0299,-89.3575,0.0,-0.0069,0.6132,0.1094,-0.0543,4.8437,-0.7026,-0.0001
79307,-106.6881,-4.719,-0.0184,-0.0496,-89.3587,0.0,-0.0114,1.0114,0.0573,-0.0434,3.8104,-0.4986,-0.0198
79318,-106.6881,-4.719,-0.0184,-0.0496,-89.3587,0.0,-0.0114,1.0114,0.0573,-0.0434,3.8104,-0.4986,-0.0198
79334,-106.6881,-4.719,-0.0184,-0.0496,-89.3587,0.0,-0.0114,1.0114,0.0573,-0.0434,3.8104,-0.4986,-0.0198
79350,-106.6881,-4.719,-0.0184,-0.0496,-89.3587,0.0,-0.0114,1.0114,0.0573,-0.0434,3.8104,-0.4986,-0.0198
79366,-106.6881,-4.719,-0.0184,-0.0496,-89.3587,0.0,-0.0114,1.0114,0.0573,-0.0434,3.8104,-0.4986,-0.0198
79382,-106.6881,-4.719,-0.0184,-0.0496,-89.3587,0.0,-0.0114,1.0114,0.0573,-0.0434,3.8104,-0.4986,-0.0198
79409,-106.6896,-4.6096,-0.014,-0.0488,-89.3375,0.0004,-0.017,1.2892,0.0307,-0.0547,2.7389,-0.2622,0.5688
79414,-106.6896,-4.6096,-0.014,-0.0488,-89.3375,0.0004,-0.017,1.2892,0.0307,-0.0547,2.7389,-0.2622,0.5688
79430,-106.6896,-4.6096,-0.014,-0.0488,-89.3375,0.0004,-0.017,1.2892,0.0307,-0.0547,2.7389,-0.2622,0.5688
79446,-106.6896,-4.6096,-0.014,-0.0488,-89.3375,0.0004,-0.017,1.2892,0.0307,-0.0547,2.7389,-0.2622,0.5688
79462,-106.6896,-4.6096,-0.014,-0.0488,-89.3375,0.0004,-0.017,1.2892,0.0307,-0.0547,2.7389,-0.2622,0.5688
79478,-106.6896,-4.6096,-0.014,-0.0488,-89.3375,0.0004,-0.017,1.2892,0.0307,-0.0547,2.7389,-0.2622,0.5688
79494,-106.6896,-4.6096,-0.014,-0.0488,-89.3375,0.0004,-0.017,1.2892,0.0307,-0.0547,2.7389,-0.2622,0.5688
79514,-106.6917,-4.4864,-0.0123,-0.0333,-89.2874,0.0007,-0.018,1.2738,0.0118,-0.0096,-0.1452,-0.1792,0.3435
79526,-106.6917,-4.4864,-0.0123,-0.0333,-89.2874,0.0007,-0.018,1.2738,0.0118,-0.0096,-0.1452,-0.1792,0.3435
79542,-106.6917,-4.4864,-0.0123,-0.0333,-89.2874,0.0007,-0.018,1.2738,0.0118,-0.0096,-0.1452,-0.1792,0.3435
79558,-106.6917,-4.4864,-0.0123,-0.0333,-89.2874,0.0007,-0.018,1.2738,0.0118,-0.0096,-0.1452,-0.1792,0.3435
79574,-106.6917,-4.4864,-0.0123,-0.0333,-89.2874,0.0007,-0.018,1.2738,0.0118,-0.0096,-0.1452,-0.1792,0.3435
79590,-106.6917,-4.4864,-0.0123,-0.0333,-89.2874,0.0007,-0.018,1.2738,0.0118,-0.0096,-0.1452,-0.1792,0.3435
79613,-106.6935,-4.3612,-0.0116,-0.0284,-89.2665,0.0002,-0.0197,1.5417,0.0051,-0.0176,2.7784,-0.0698,0.1682
79622,-106.6935,-4.3612,-0.0116,-0.0284,-89.2665,0.0002,-0.0197,1.5417,0.0051,-0.0176,2.7784,-0.0698,0.1682
79638,-106.6935,-4.3612,-0.0116,-0.0284,-89.2665,0.0002,-0.0197,1.5417,0.0051,-0.0176,2.7784,-0.0698,0.1682
79654,-106.6935,-4.3612,-0.0116,-0.0284,-89.2665,0.0002,-0.0197,1.5417,0.0051,-0.0176,2.7784,-0.0698,0.1682
79670,-106.6935,-4.3612,-0.0116,-0.0284,-89.2665,0.0002,-0.0197,1.5417,0.0051,-0.0176,2.7784,-0.0698,0.1682
79686,-106.6935,-4.3612,-0.0116,-0.0284,-89.2665,0.0002,-0.0197,1.5417,0.0051,-0.0176,2.7784,-0.0698,0.1682
79702,-106.6935,-4.3612,-0.0116,-0.0284,-89.2665,0.0002,-0.0197,1.5417,0.0051,-0.0176,2.7784,-0.0698,0.1682
79718,-106.695,-4.2078,-0.0112,-0.0304,-89.3325,-0.0002,-0.0194,1.6666,0.0023,0.0022,1.1803,-0.0266,-3.9188
79734,-106.695,-4.2078,-0.0112,-0.0304,-89.3325,-0.0002,-0.0194,1.6666,0.0023,0.0022,1.1803,-0.0266,-3.9188
79750,-106.695,-4.2078,-0.0112,-0.0304,-89.3325,-0.0002,-0.0194,1.6666,0.0023,0.0022,1.1803,-0.0266,-3.9188
79766,-106.695,-4.2078,-0.0112,-0.0304,-89.3325,-0.0002,-0.0194,1.6666,0.0023,0.0022,1.1803,-0.0266,-3.9188
79782,-106.695,-4.2078,-0.0112,-0.0304,-89.3325,-0.0002,-0.0194,1.6666,0.0023,0.0022,1.1803,-0.0266,-3.9188
79798,-106.695,-4.2078,-0.0112,-0.0304,-89.3325,-0.0002,-0.0194,1.6666,0.0023,0.0022,1.1803,-0.0266,-3.9188
79814,-106.696,-4.0162,-0.0109,-0.048,-89.444,-0.0009,-0.0218,2.0511,0.0011,-0.0235,3.8301,-0.0122,-1.7228
79830,-106.696,-4.0162,-0.0109,-0.048,-89.444,-0.0009,-0.0218,2.0511,0.0011,-0.0235,3.8301,-0.0122,-1.7228
79846,-106.696,-4.0162,-0.0109,-0.048,-89.444,-0.0009,-0.0218,2.0511,0.0011,-0.0235,3.8301,-0.0122,-1.7228
79862,-106.696,-4.0162,-0.0109,-0.048,-89.444,-0.0009,-0.0218,2.0511,0.0011,-0.0235,3.8301,-0.0122,-1.7228
79878,-106.696,-4.0162,-0.0109,-0.048,-89.444,-0.0009,-0.0218,2.0511,0.0011,-0.0235,3.8301,-0.0122,-1.7228
79894,-106.696,-4.0162,-0.0109,-0.048,-89.444,-0.0009,-0.0218,2.0511,0.0011,-0.0235,3.8301,-0.0122,-1.7228
79910,-106.696,-4.0162,-0.0109,-0.048,-89.444,-0.0009,-0.0218,2.0511,0.0011,-0.0235,3.8301,-0.0122,-1.7228
79926,-106.6982,-3.7612,-0.0106,-0.0809,-89.482,-0.0006,-0.0296,3.0127,0.0005,-0.0728,9.0162,-0.0053,1.062
79942,-106.6982,-3.7612,-0.0106,-0.0809,-89.482,-0.0006,-0.0296,3.0127,0.0005,-0.0728,9.0162,-0.0053,1.062
79958,-106.6982,-3.7612,-0.0106,-0.0809,-89.482,-0.0006,-0.0296,3.0127,0.0005,-0.0728,9.0162,-0.0053,1.062
79974,-106.6982,-3.7612,-0.0106,-0.0809,-89.482,-0.0006,-0.0296,3.0127,0.0005,-0.0728,9.0162,-0.0053,1.062
79990,-106.6982,-3.7612,-0.0106,-0.0809,-89.482,-0.0006,-0.0296,3.0127,0.0005,-0.0728,9.0162,-0.0053,1.062
80006,-106.6982,-3.7612,-0.0106,-0.0809,-89.482,-0.0006,-0.0296,3.0127,0.0005,-0.0728,9.0162,-0.0053,1.062
80022,-106.6982,-3.7612,-0.0106,-0.0809,-89.482,-0.0006,-0.0296,3.0127,0.0005,-0.0728,9.0162,-0.0053,1.062
80038,-106.7012,-3.4332,-0.0105,-0.0918,-89.4898,-0.0007,-0.0329,3.6019,0.0002,-0.0328,5.8344,-0.0027,-0.6723
80054,-106.7012,-3.4332,-0.0105,-0.0918,-89.4898,-0.0007,-0.0329,3.6019,0.0002,-0.0328,5.8344,-0.0027,-0.6723
80070,-106.7012,-3.4332,-0.0105,-0.0918,-89.4898,-0.0007,-0.0329,3.6019,0.0002,-0.0328,5.8344,-0.0027,-0.6723
80086,-106.7012,-3.4332,-0.0105,-0.0918,-89.4898,-0.0007,-0.0329,3.6019,0.0002,-0.0328,5.8344,-0.0027,-0.6723
80102,-106.7012,-3.4332,-0.0105,-0.0918,-89.4898,-0.0007,-0.0329,3.6019,0.0002,-0.0328,5.8344,-0.0027,-0.6723
80118,-106.7012,-3.4332,-0.0105,-0.0918,-89.4898,-0.0007,-0.0329,3.6019,0.0002,-0.0328,5.8344,-0.0027,-0.6723
80134,-106.7043,-3.0546,-0.0105,-0.0866,-89.5198,-0.001,-0.0324,4.0342,0.0001,0.0042,3.9796,-0.0009,0.973
80150,-106.7043,-3.0546,-0.0105,-0.0866,-89.5198,-0.001,-0.0324,4.0342,0.0001,0.0042,3.9796,-0.0009,0.973
80166,-106.7043,-3.0546,-0.0105,-0.0866,-89.5198,-0.001,-0.0324,4.0342,0.0001,0.0042,3.9796,-0.0009,0.973
80182,-106.7043,-3.0546,-0.0105,-0.0866,-89.5198,-0.001,-0.0324,4.0342,0.0001,0.0042,3.9796,-0.0009,0.973
80198,-106.7043,-3.0546,-0.0105,-0.0866,-89.5198,-0.001,-0.0324,4.0342,0.0001,0.0042,3.9796,-0.0009,0.973
80214,-106.7043,-3.0546,-0.0105,-0.0866,-89.5198,-0.001,-0.0324,4.0342,0.0001,0.0042,3.9796,-0.0009,0.973
80235,-106.7068,-2.6308,-0.0106,-0.0829,-89.6159,-0.0019,-0.0318,4.5349,0.0001,0.0059,4.6864,-0.0007,-2.5619
80246,-106.7068,-2.6308,-0.0106,-0.0829,-89.6159,-0.0019,-0.0318,4.5349,0.0001,0.0059,4.6864,-0.0007,-2.5619
80262,-106.7068,-2.6308,-0.0106,-0.0829,-89.6159,-0.0019,-0.0318,4.5349,0.0001,0.0059,4.6864,-0.0007,-2.5619
80278,-106.7068,-2.6308,-0.0106,-0.0829,-89.6159,-0.0019,-0.0318,4.5349,0.0001,0.0059,4.6864,-0.0007,-2.5619
80294,-106.7068,-2.6308,-0.0106,-0.0829,-89.6159,-0.0019,-0.0318,4.5349,0.0001,0.0059,4.6864,-0.0007,-2.5619
80310,-106.7068,-2.6308,-0.0106,-0.0829,-89.6159,-0.0019,-0.0318,4.5349,0.0001,0.0059,4.6864,-0.0007,-2.5619
80326,-106.7068,-2.6308,-0.0106,-0.0829,-89.6159,-0.0019,-0.0318,4.5349,0.0001,0.0059,4.6864,-0.0007,-2.5619
80342,-106.7097,-2.1544,-0.0105,-0.0924,-89.635,-0.0019,-0.0314,5.2026,0.0,0.0035,6.7927,-0.0003,1.7349
80358,-106.7097,-2.1544,-0.0105,-0.0924,-89.635,-0.0019,-0.0314,5.2026,0.0,0.0035,6.7927,-0.0003,1.7349
80374,-106.7097,-2.1544,-0.0105,-0.0924,-89.635,-0.0019,-0.0314,5.2026,0.0,0.0035,6.7927,-0.0003,1.7349
80390,-106.7097,-2.1544,-0.0105,-0.0924,-89.635,-0.0019,-0.0314,5.2026,0.0,0.0035,6.7927,-0.0003,1.7349
80406,-106.7097,-2.1544,-0.0105,-0.0924,-89.635,-0.0019,-0.0314,5.2026,0.0,0.0035,6.7927,-0.0003,1.7349
80422,-106.7097,-2.1544,-0.0105,-0.0924,-89.635,-0.0019,-0.0314,5.2026,0.0,0.0035,6.7927,-0.0003,1.7349
80443,-106.7128,-1.6019,-0.0104,-0.101,-89.6627,-0.0013,-0.0364,5.8713,0.0,-0.0475,6.3652,-0.0,-1.8784
80454,-106.7128,-1.6019,-0.0104,-0.101,-89.6627,-0.0013,-0.0364,5.8713,0.0,-0.0475,6.3652,-0.0,-1.8784
80470,-106.7128,-1.6019,-0.0104,-0.101,-89.6627,-0.0013,-0.0364,5.8713,0.0,-0.0475,6.3652,-0.0,-1.8784
80486,-106.7128,-1.6019,-0.0104,-0.101,-89.6627,-0.0013,-0.0364,5.8713,0.0,-0.0475,6.3652,-0.0,-1.8784
80502,-106.7128,-1.6019,-0.0104,-0.101,-89.6627,-0.0013,-0.0364,5.8713,0.0,-0.0475,6.3652,-0.0,-1.8784
80518,-106.7128,-1.6019,-0.0104,-0.101,-89.6627,-0.0013,-0.0364,5.8713,0.0,-0.0475,6.3652,-0.0,-1.8784
80538,-106.7166,-0.9855,-0.0104,-0.1095,-89.6492,-0.0009,-0.0392,6.6133,0.0,-0.0278,7.5041,-0.0001,1.3939
80550,-106.7166,-0.9855,-0.0104,-0.1095,-89.6492,-0.0009,-0.0392,6.6133,0.0,-0.0278,7.5041,-0.0001,1.3939
80566,-106.7166,-0.9855,-0.0104,-0.1095,-89.6492,-0.0009,-0.0392,6.6133,0.0,-0.0278,7.5041,-0.0001,1.3939
80582,-106.7166,-0.9855,-0.0104,-0.1095,-89.6492,-0.0009,-0.0392,6.6133,0.0,-0.0278,7.5041,-0.0001,1.3939
80598,-106.7166,-0.9855,-0.0104,-0.1095,-89.6492,-0.0009,-0.0392,6.6133,0.0,-0.0278,7.5041,-0.0001,1.3939
80614,-106.7166,-0.9855,-0.0104,-0.1095,-89.6492,-0.0009,-0.0392,6.6133,0.0,-0.0278,7.5041,-0.0001,1.3939
80630,-106.7166,-0.9855,-0.0104,-0.1095,-89.6492,-0.0009,-0.0392,6.6133,0.0,-0.0278,7.5041,-0.0001,1.3939
80646,-106.7208,-0.2855,-0.0103,-0.1166,-89.659,-0.0005,-0.0447,7.3669,0.0,-0.0552,7.4979,0.0,-1.14
80662,-106.7208,-0.2855,-0.0103,-0.1166,-89.659,-0.0005,-0.0447,7.3669,0.0,-0.0552,7.4979,0.0,-1.14
80678,-106.7208,-0.2855,-0.0103,-0.1166,-89.659,-0.0005,-0.0447,7.3669,0.0,-0.0552,7.4979,0.0,-1.14
80694,-106.7208,-0.2855,-0.0103,-0.1166,-89.659,-0.0005,-0.0447,7.3669,0.0,-0.0552,7.4979,0.0,-1.14
80710,-106.7208,-0.2855,-0.0103,-0.1166,-89.659,-0.0005,-0.0447,7.3669,0.0,-0.0552,7.4979,0.0,-1.14
80726,-106.7208,-0.2855,-0.0103,-0.1166,-89.659,-0.0005,-0.0447,7.3669,0.0,-0.0552,7.4979,0.0,-1.14
80746,-106.7255,0.4869,-0.0103,-0.1172,-89.6533,-0.0003,-0.0481,8.0599,-0.0,-0.0322,6.5163,-0.0001,0.8692
80758,-106.7255,0.4869,-0.0103,-0.1172,-89.6533,-0.0003,-0.0481,8.0599,-0.0,-0.0322,6.5163,-0.0001,0.8692
80774,-106.7255,0.4869,-0.0103,-0.1172,-89.6533,-0.0003,-0.0481,8.0599,-0.0,-0.0322,6.5163,-0.0001,0.8692
80790,-106.7255,0.4869,-0.0103,-0.1172,-89.6533,-0.0003,-0.0481,8.0599,-0.0,-0.0322,6.5163,-0.0001,0.8692
80806,-106.7255,0.4869,-0.0103,-0.1172,-89.6533,-0.0003,-0.0481,8.0599,-0.0,-0.0322,6.5163,-0.0001,0.8692
80822,-106.7255,0.4869,-0.0103,-0.1172,-89.6533,-0.0003,-0.0481,8.0599,-0.0,-0.0322,6.5163,-0.0001,0.8692
80838,-106.7255,0.4869,-0.0103,-0.1172,-89.6533,-0.0003,-0.0481,8.0599,-0.0,-0.0322,6.5163,-0.0001,0.8692
80854,-106.7305,1.325,-0.0103,-0.1126,-89.6576,-0.0002,-0.0523,8.6831,-0.0,-0.041,6.0766,-0.0,-0.6116
80870,-106.7305,1.325,-0.0103,-0.1126,-89.6576,-0.0002,-0.0523,8.6831,-0.0,-0.041,6.0766,-0.0,-0.6116
80886,-106.7305,1.325,-0.0103,-0.1126,-89.6576,-0.0002,-0.0523,8.6831,-0.0,-0.041,6.0766,-0.0,-0.6116
80902,-106.7305,1.325,-0.0103,-0.1126,-89.6576,-0.0002,-0.0523,8.6831,-0.0,-0.041,6.0766,-0.0,-0.6116
80918,-106.7305,1.325,-0.0103,-0.1126,-89.6576,-0.0002,-0.0523,8.6831,-0.0,-0.041,6.0766,-0.0,-0.6116
80934,-106.7305,1.325,-0.0103,-0.1126,-89.6576,-0.0002,-0.0523,8.6831,-0.0,-0.041,6.0766,-0.0,-0.6116
80950,-106.7358,2.2108,-0.0104,-0.1069,-89.6556,-0.0001,-0.0556,9.2621,0.0,-0.0327,5.8729,0.0001,0.1698
80966,-106.7358,2.2108,-0.0104,-0.1069,-89.6556,-0.0001,-0.0556,9.2621,0.0,-0.0327,5.8729,0.0001,0.1698
80982,-106.7358,2.2108,-0.0104,-0.1069,-89.6556,-0.0001,-0.0556,9.2621,0.0,-0.0327,5.8729,0.0001,0.1698
80998,-106.7358,2.2108,-0.0104,-0.1069,-89.6556,-0.0001,-0.0556,9.2621,0.0,-0.0327,5.8729,0.0001,0.1698
81014,-106.7358,2.2108,-0.0104,-0.1069,-89.6556,-0.0001,-0.0556,9.2621,0.0,-0.0327,5.8729,0.0001,0.1698
81030,-106.7358,2.2108,-0.0104,-0.1069,-89.6556,-0.0001,-0.0556,9.2621,0.0,-0.0327,5.8729,0.0001,0.1698
81046,-106.7358,2.2108,-0.0104,-0.1069,-89.6556,-0.0001,-0.0556,9.2621,0.0,-0.0327,5.8729,0.0001,0.1698
81062,-106.7414,3.1452,-0.0104,-0.1007,-89.6561,-0.0001,-0.0588,9.7947,0.0,-0.0331,5.4387,0.0,-0.0055
81078,-106.7414,3.1452,-0.0104,-0.1007,-89.6561,-0.0001,-0.0588,9.7947,0.0,-0.0331,5.4387,0.0,-0.0055
81094,-106.7414,3.1452,-0.0104,-0.1007,-89.6561,-0.0001,-0.0588,9.7947,0.0,-0.0331,5.4387,0.0,-0.0055
81110,-106.7414,3.1452,-0.0104,-0.1007,-89.6561,-0.0001,-0.0588,9.7947,0.0,-0.0331,5.4387,0.0,-0.0055
81126,-106.7414,3.1452,-0.0104,-0.1007,-89.6561,-0.0001,-0.0588,9.7947,0.0,-0.0331,5.4387,0.0,-0.0055
81142,-106.7414,3.1452,-0.0104,-0.1007,-89.6561,-0.0001,-0.0588,9.7947,0.0,-0.0331,5.4387,0.0,-0.0055
81163,-106.7475,4.1507,-0.0105,-0.0933,-89.6561,-0.0,-0.0617,10.2803,-0.0,-0.0244,4.0816,-0.0001,-0.0001
81174,-106.7475,4.1507,-0.0105,-0.0933,-89.6561,-0.0,-0.0617,10.2803,-0.0,-0.0244,4.0816,-0.0001,-0.0001
81190,-106.7475,4.1507,-0.0105,-0.0933,-89.6561,-0.0,-0.0617,10.2803,-0.0,-0.0244,4.0816,-0.0001,-0.0001
81206,-106.7475,4.1507,-0.0105,-0.0933,-89.6561,-0.0,-0.0617,10.2803,-0.0,-0.0244,4.0816,-0.0001,-0.0001
81222,-106.7475,4.1507,-0.0105,-0.0933,-89.6561,-0.0,-0.0617,10.2803,-0.0,-0.0244,4.0816,-0.0001,-0.0001
81238,-106.7475,4.1507,-0.0105,-0.0933,-89.6561,-0.0,-0.0617,10.2803,-0.0,-0.0244,4.0816,-0.0001,-0.0001
81254,-106.7475,4.1507,-0.0105,-0.0933,-89.6561,-0.0,-0.0617,10.2803,-0.0,-0.0244,4.0816,-0.0001,-0.0001
81275,-106.7538,5.2023,-0.0105,-0.0857,-89.656,-0.0,-0.0644,10.727,-0.0,-0.025,4.156,0.0,-0.0001
81286,-106.7538,5.2023,-0.0105,-0.0857,-89.656,-0.0,-0.0644,10.727,-0.0,-0.025,4.156,0.0,-0.0001
81302,-106.7538,5.2023,-0.0105,-0.0857,-89.656,-0.0,-0.0644,10.727,-0.0,-0.025,4.156,0.0,-0.0001
81318,-106.7538,5.2023,-0.0105,-0.0857,-89.656,-0.0,-0.0644,10.727,-0.0,-0.025,4.156,0.0,-0.0001
81334,-106.7538,5.2023,-0.0105,-0.0857,-89.656,-0.0,-0.0644,10.727,-0.0,-0.025,4.156,0.0,-0.0001
81350,-106.7538,5.2023,-0.0105,-0.0857,-89.656,-0.0,-0.0644,10.727,-0.0,-0.025,4.156,0.0,-0.0001
81376,-106.7538,5.2023,-0.0105,-0.0857,-89.656,-0.0,-0.0644,10.727,-0.0,-0.025,4.156,0.0,-0.0001
81382,-106.7603,6.2974,-0.0106,-0.0794,-89.6561,-0.0,-0.0669,11.1471,-0.0,-0.0248,4.1363,-0.0002,-0.0
81398,-106.7603,6.2974,-0.0106,-0.0794,-89.6561,-0.0,-0.0669,11.1471,-0.0,-0.0248,4.1363,-0.0002,-0.0
81414,-106.7603,6.2974,-0.0106,-0.0794,-89.6561,-0.0,-0.0669,11.1471,-0.0,-0.0248,4.1363,-0.0002,-0.0
81430,-106.7603,6.2974,-0.0106,-0.0794,-89.6561,-0.0,-0.0669,11.1471,-0.0,-0.0248,4.1363,-0.0002,-0.0
81446,-106.7603,6.2974,-0.0106,-0.0794,-89.6561,-0.0,-0.0669,11.1471,-0.0,-0.0248,4.1363,-0.0002,-0.0
81462,-106.7603,6.2974,-0.0106,-0.0794,-89.6561,-0.0,-0.0669,11.1471,-0.0,-0.0248,4.1363,-0.0002,-0.0
81485,-106.7672,7.4331,-0.0106,-0.0739,-89.6561,0.0,-0.0693,11.5382,0.0,-0.0219,3.6519,0.0003,-0.0001
81494,-106.7672,7.4331,-0.0106,-0.0739,-89.6561,0.0,-0.0693,11.5382,0.0,-0.0219,3.6519,0.0003,-0.0001
81510,-106.7672,7.4331,-0.0106,-0.0739,-89.6561,0.0,-0.0693,11.5382,0.0,-0.0219,3.6519,0.0003,-0.0001
81526,-106.7672,7.4331,-0.0106,-0.0739,-89.6561,0.0,-0.0693,11.5382,0.0,-0.0219,3.6519,0.0003,-0.0001
81542,-106.7672,7.4331,-0.0106,-0.0739,-89.6561,0.0,-0.0693,11.5382,0.0,-0.0219,3.6519,0.0003,-0.0001
81558,-106.7672,7.4331,-0.0106,-0.0739,-89.6561,0.0,-0.0693,11.5382,0.0,-0.0219,3.6519,0.0003,-0.0001
81595,-106.7742,8.6065,-0.0106,-0.0689,-89.656,0.0,-0.0715,11.9032,0.0,-0.0198,3.2974,-0.0,-0.0001
81606,-106.7742,8.6065,-0.0106,-0.0689,-89.656,0.0,-0.0715,11.9032,0.0,-0.0198,3.2974,-0.0,-0.0001
81622,-106.7742,8.6065,-0.0106,-0.0689,-89.656,0.0,-0.0715,11.9032,0.0,-0.0198,3.2974,-0.0,-0.0001
81638,-106.7742,8.6065,-0.0106,-0.0689,-89.656,0.0,-0.0715,11.9032,0.0,-0.0198,3.2974,-0.0,-0.0001
81654,-106.7742,8.6065,-0.0106,-0.0689,-89.656,0.0,-0.0715,11.9032,0.0,-0.0198,3.2974,-0.0,-0.0001
81670,-106.7742,8.6065,-0.0106,-0.0689,-89.656,0.0,-0.0715,11.9032,0.0,-0.0198,3.2974,-0.0,-0.0001
81691,-106.8109,9.7979,-0.0107,-0.0547,-91.0457,0.1236,-0.9024,12.0326,0.001,-8.3739,1.3037,0.0101,-30.5725
81702,-106.8109,9.7979,-0.0107,-0.0547,-91.0457,0.1236,-0.9024,12.0326,0.001,-8.3739,1.3037,0.0101,-30.5725
81718,-106.8109,9.7979,-0.0107,-0.0547,-91.0457,0.1236,-0.9024,12.0326,0.001,-8.3739,1.3037,0.0101,-30.5725
81734,-106.8109,9.7979,-0.0107,-0.0547,-91.0457,0.1236,-0.9024,12.0326,0.001,-8.3739,1.3037,0.0101,-30.5725
81750,-106.8109,9.7979,-0.0107,-0.0547,-91.0457,0.1236,-0.9024,12.0326,0.001,-8.3739,1.3037,0.0101,-30.5725
81766,-106.8109,9.7979,-0.0107,-0.0547,-91.0457,0.1236,-0.9024,12.0326,0.001,-8.3739,1.3037,0.0101,-30.5725
81786,-106.9131,10.9788,-0.0109,-0.0182,-96.6351,0.2586,-1.8355,11.8574,0.0011,-9.4227,-1.7691,0.0007,-79.7368
81798,-106.9131,10.9788,-0.0109,-0.0182,-96.6351,0.2586,-1.8355,11.8574,0.0011,-9.4227,-1.7691,0.0007,-79.7368
81814,-106.9131,10.9788,-0.0109,-0.0182,-96.6351,0.2586,-1.8355,11.8574,0.0011,-9.4227,-1.7691,0.0007,-79.7368
81830,-106.9131,10.9788,-0.0109,-0.0182,-96.6351,0.2586,-1.8355,11.8574,0.0011,-9.4227,-1.7691,0.0007,-79.7368
81846,-106.9131,10.9788,-0.0109,-0.0182,-96.6351,0.2586,-1.8355,11.8574,0.0011,-9.4227,-1.7691,0.0007,-79.7368
81862,-106.9131,10.9788,-0.0109,-0.0182,-96.6351,0.2586,-1.8355,11.8574,0.0011,-9.4227,-1.7691,0.0007,-79.7368
81878,-106.9131,10.9788,-0.0109,-0.0182,-96.6351,0.2586,-1.8355,11.8574,0.0011,-9.4227,-1.7691,0.0007,-79.7368
81894,-107.0465,12.1354,-0.011,0.0122,-107.6434,0.2529,-2.2749,11.6361,-0.0001,-4.2354,-2.1335,-0.0114,-136.3855
81910,-107.0465,12.1354,-0.011,0.0122,-107.6434,0.2529,-2.2749,11.6361,-0.0001,-4.2354,-2.1335,-0.0114,-136.3855
81926,-107.0465,12.1354,-0.011,0.0122,-107.6434,0.2529,-2.2749,11.6361,-0.0001,-4.2354,-2.1335,-0.0114,-136.3855
81942,-107.0465,12.1354,-0.011,0.0122,-107.6434,0.2529,-2.2749,11.6361,-0.0001,-4.2354,-2.1335,-0.0114,-136.3855
81958,-107.0465,12.1354,-0.011,0.0122,-107.6434,0.2529,-2.2749,11.6361,-0.0001,-4.2354,-2.1335,-0.0114,-136.3855
81974,-107.0465,12.1354,-0.011,0.0122,-107.6434,0.2529,-2.2749,11.6361,-0.0001,-4.2354,-2.1335,-0.0114,-136.3855
81990,-107.0465,12.1354,-0.011,0.0122,-107.6434,0.2529,-2.2749,11.6361,-0.0001,-4.2354,-2.1335,-0.0114,-136.3855
82006,-107.1492,13.2406,-0.011,-0.0028,-124.1965,0.1029,-1.7966,11.5869,-0.0012,4.3331,-0.4456,-0.01,-186.4253
82022,-107.1492,13.2406,-0.011,-0.0028,-124.1965,0.1029,-1.7966,11.5869,-0.0012,4.3331,-0.4456,-0.01,-186.4253
82038,-107.1492,13.2406,-0.011,-0.0028,-124.1965,0.1029,-1.7966,11.5869,-0.0012,4.3331,-0.4456,-0.01,-186.4253
82054,-107.1492,13.2406,-0.011,-0.0028,-124.1965,0.1029,-1.7966,11.5869,-0.0012,4.3331,-0.4456,-0.01,-186.4253
82070,-107.1492,13.2406,-0.011,-0.0028,-124.1965,0.1029,-1.7966,11.5869,-0.0012,4.3331,-0.4456,-0.01,-186.4253
82086,-107.1492,13.2406,-0.011,-0.0028,-124.1965,0.1029,-1.7966,11.5869,-0.0012,4.3331,-0.4456,-0.01,-186.4253
82102,-107.1254,14.2979,-0.0103,-0.1031,-144.1001,-0.1729,0.1066,11.5324,0.0011,19.0322,-0.5446,0.0227,-207.0156
82118,-107.1254,14.2979,-0.0103,-0.1031,-144.1001,-0.1729,0.1066,11.5324,0.0011,19.0322,-0.5446,0.0227,-207.0156
82134,-107.1254,14.2979,-0.0103,-0.1031,-144.1001,-0.1729,0.1066,11.5324,0.0011,19.0322,-0.5446,0.0227,-207.0156
82150,-107.1254,14.2979,-0.0103,-0.1031,-144.1001,-0.1729,0.1066,11.5324,0.0011,19.0322,-0.5446,0.0227,-207.0156
82166,-107.1254,14.2979,-0.0103,-0.1031,-144.1001,-0.1729,0.1066,11.5324,0.0011,19.0322,-0.5446,0.0227,-207.0156
82202,-106.9194,15.2737,-0.0093,-0.2164,-165.3671,-0.4181,2.4445,10.762,0.0021,23.3683,-7.7011,0.0101,-216.619
82214,-106.9194,15.2737,-0.0093,-0.2164,-165.3671,-0.4181,2.4445,10.762,0.0021,23.3683,-7.7011,0.0101,-216.619
82230,-106.9194,15.2737,-0.0093,-0.2164,-165.3671,-0.4181,2.4445,10.762,0.0021,23.3683,-7.7011,0.0101,-216.619
82246,-106.9194,15.2737,-0.0093,-0.2164,-165.3671,-0.4181,2.4445,10.762,0.0021,23.3683,-7.7011,0.0101,-216.619
82262,-106.9194,15.2737,-0.0093,-0.2164,-165.3671,-0.4181,2.4445,10.762,0.0021,23.3683,-7.7011,0.0101,-216.619
82278,-106.9194,15.2737,-0.0093,-0.2164,-165.3671,-0.4181,2.4445,10.762,0.0021,23.3683,-7.7011,0.0101,-216.619
82299,-106.5835,16.0639,-0.0087,-0.269,173.3214,-0.6674,3.8084,8.6181,0.0023,13.9406,-21.9133,0.0021,-217.4926
82310,-106.5835,16.0639,-0.0087,-0.269,173.3214,-0.6674,3.8084,8.6181,0.0023,13.9406,-21.9133,0.0021,-217.4926
82326,-106.5835,16.0639,-0.0087,-0.269,173.3214,-0.6674,3.8084,8.6181,0.0023,13.9406,-21.9133,0.0021,-217.4926
82342,-106.5835,16.0639,-0.0087,-0.269,173.3214,-0.6674,3.8084,8.6181,0.0023,13.9406,-21.9133,0.0021,-217.4926
82358,-106.5835,16.0639,-0.0087,-0.269,173.3214,-0.6674,3.8084,8.6181,0.0023,13.9406,-21.9133,0.0021,-217.4926
82374,-106.5835,16.0639,-0.0087,-0.269,173.3214,-0.6674,3.8084,8.6181,0.0023,13.9406,-21.9133,0.0021,-217.4926
82394,-106.2993,16.6398,-0.0091,-0.2035,153.6064,-0.8608,2.6596,6.6338,-0.0023,-11.9354,-20.6172,-0.0478,-191.5806
82406,-106.2993,16.6398,-0.0091,-0.2035,153.6064,-0.8608,2.6596,6.6338,-0.0023,-11.9354,-20.6172,-0.0478,-191.5806
82422,-106.2993,16.6398,-0.0091,-0.2035,153.6064,-0.8608,2.6596,6.6338,-0.0023,-11.9354,-20.6172,-0.0478,-191.5806
82438,-106.2993,16.6398,-0.0091,-0.2035,153.6064,-0.8608,2.6596,6.6338,-0.0023,-11.9354,-20.6172,-0.0478,-191.5806
82454,-106.2993,16.6398,-0.0091,-0.2035,153.6064,-0.8608,2.6596,6.6338,-0.0023,-11.9354,-20.6172,-0.0478,-191.5806
82470,-106.2993,16.6398,-0.0091,-0.2035,153.6064,-0.8608,2.6596,6.6338,-0.0023,-11.9354,-20.6172,-0.0478,-191.5806
82492,-106.2313,17.118,-0.0101,-0.0497,137.279,-0.93,0.4554,6.0786,0.0015,-23.5617,-5.934,0.041,-153.5249
82502,-106.2313,17.118,-0.0101,-0.0497,137.279,-0.93,0.4554,6.0786,0.0015,-23.5617,-5.934,0.041,-153.5249
82518,-106.2313,17.118,-0.0101,-0.0497,137.279,-0.93,0.4554,6.0786,0.0015,-23.5617,-5.934,0.041,-153.5249
82534,-106.2313,17.118,-0.0101,-0.0497,137.279,-0.93,0.4554,6.0786,0.0015,-23.5617,-5.934,0.041,-153.5249
82550,-106.2313,17.118,-0.0101,-0.0497,137.279,-0.93,0.4554,6.0786,0.0015,-23.5617,-5.934,0.041,-153.5249
82566,-106.2313,17.118,-0.0101,-0.0497,137.279,-0.93,0.4554,6.0786,0.0015,-23.5617,-5.934,0.041,-153.5249
82587,-106.3684,17.6845,-0.0114,0.1237,125.4013,-0.7855,-1.5327,6.9955,-0.0009,-20.8522,9.6166,-0.0252,-103.0725
82598,-106.3684,17.6845,-0.0114,0.1237,125.4013,-0.7855,-1.5327,6.9955,-0.0009,-20.8522,9.6166,-0.0252,-103.0725
82614,-106.3684,17.6845,-0.0114,0.1237,125.4013,-0.7855,-1.5327,6.9955,-0.0009,-20.8522,9.6166,-0.0252,-103.0725
82630,-106.3684,17.6845,-0.0114,0.1237,125.4013,-0.7855,-1.5327,6.9955,-0.0009,-20.8522,9.6166,-0.0252,-103.0725
82646,-106.3684,17.6845,-0.0114,0.1237,125.4013,-0.7855,-1.5327,6.9955,-0.0009,-20.8522,9.6166,-0.0252,-103.0725
82662,-106.3684,17.6845,-0.0114,0.1237,125.4013,-0.7855,-1.5327,6.9955,-0.0009,-20.8522,9.6166,-0.0252,-103.0725
82694,-106.5878,18.3714,-0.0121,0.1944,116.6441,-0.4502,-1.6792,8.015,-0.0026,-1.546,10.7626,-0.0177,-89.0556
82710,-106.5878,18.3714,-0.0121,0.1944,116.6441,-0.4502,-1.6792,8.015,-0.0026,-1.546,10.7626,-0.0177,-89.0556
82726,-106.5878,18.3714,-0.0121,0.1944,116.6441,-0.4502,-1.6792,8.015,-0.0026,-1.546,10.7626,-0.0177,-89.0556
82742,-106.5878,18.3714,-0.0121,0.1944,116.6441,-0.4502,-1.6792,8.015,-0.0026,-1.546,10.7626,-0.0177,-89.0556
82758,-106.5878,18.3714,-0.0121,0.1944,116.6441,-0.4502,-1.6792,8.015,-0.0026,-1.546,10.7626,-0.0177,-89.0556
82782,-106.8133,19.1588,-0.0123,0.1869,110.0568,-0.2736,-2.2584,8.4806,-0.002,-6.0044,4.8261,0.0066,-42.7856
82790,-106.8133,19.1588,-0.0123,0.1869,110.0568,-0.2736,-2.2584,8.4806,-0.002,-6.0044,4.8261,0.0066,-42.7856
82806,-106.8133,19.1588,-0.0123,0.1869,110.0568,-0.2736,-2.2584,8.4806,-0.002,-6.0044,4.8261,0.0066,-42.7856
82822,-106.8133,19.1588,-0.0123,0.1869,110.0568,-0.2736,-2.2584,8.4806,-0.002,-6.0044,4.8261,0.0066,-42.7856
82838,-106.8133,19.1588,-0.0123,0.1869,110.0568,-0.2736,-2.2584,8.4806,-0.002,-6.0044,4.8261,0.0066,-42.7856
82854,-106.8133,19.1588,-0.0123,0.1869,110.0568,-0.2736,-2.2584,8.4806,-0.002,-6.0044,4.8261,0.0066,-42.7856
82870,-106.8133,19.1588,-0.0123,0.1869,110.0568,-0.2736,-2.2584,8.4806,-0.002,-6.0044,4.8261,0.0066,-42.7856
82886,-107.0856,20.0055,-0.012,0.1333,107.8972,-0.2472,-2.7052,8.5607,-0.0004,-4.2388,0.7596,0.0146,-9.6962
82902,-107.0856,20.0055,-0.012,0.1333,107.8972,-0.2472,-2.7052,8.5607,-0.0004,-4.2388,0.7596,0.0146,-9.6962
82918,-107.0856,20.0055,-0.012,0.1333,107.8972,-0.2472,-2.7052,8.5607,-0.0004,-4.2388,0.7596,0.0146,-9.6962
82934,-107.0856,20.0055,-0.012,0.1333,107.8972,-0.2472,-2.7052,8.5607,-0.0004,-4.2388,0.7596,0.0146,-9.6962
82950,-107.0856,20.0055,-0.012,0.1333,107.8972,-0.2472,-2.7052,8.5607,-0.0004,-4.2388,0.7596,0.0146,-9.6962
82966,-107.0856,20.0055,-0.012,0.1333,107.8972,-0.2472,-2.7052,8.5607,-0.0004,-4.2388,0.7596,0.0146,-9.6962
82986,-107.3624,20.8662,-0.0117,0.0857,107.3467,-0.1531,-2.7447,8.6701,-0.0007,-0.3775,1.0472,-0.0024,-1.8637
82998,-107.3624,20.8662,-0.0117,0.0857,107.3467,-0.1531,-2.7447,8.6701,-0.0007,-0.3775,1.0472,-0.0024,-1.8637
83014,-107.3624,20.8662,-0.0117,0.0857,107.3467,-0.1531,-2.7447,8.6701,-0.0007,-0.3775,1.0472,-0.0024,-1.8637
83030,-107.3624,20.8662,-0.0117,0.0857,107.3467,-0.1531,-2.7447,8.6701,-0.0007,-0.3775,1.0472,-0.0024,-1.8637
83046,-107.3624,20.8662,-0.0117,0.0857,107.3467,-0.1531,-2.7447,8.6701,-0.0007,-0.3775,1.0472,-0.0024,-1.8637
83062,-107.3624,20.8662,-0.0117,0.0857,107.3467,-0.1531,-2.7447,8.6701,-0.0007,-0.3775,1.0472,-0.0024,-1.8637
83078,-107.3624,20.8662,-0.0117,0.0857,107.3467,-0.1531,-2.7447,8.6701,-0.0007,-0.3775,1.0472,-0.0024,-1.8637
83094,-107.6371,21.7383,-0.0115,0.055,107.1989,-0.0824,-2.7406,8.7655,-0.0005,0.0389,0.9127,0.0014,0.1726
83110,-107.6371,21.7383,-0.0115,0.055,107.1989,-0.0824,-2.7406,8.7655,-0.0005,0.0389,0.9127,0.0014,0.1726
83126,-107.6371,21.7383,-0.0115,0.055,107.1989,-0.0824,-2.7406,8.7655,-0.0005,0.0389,0.9127,0.0014,0.1726
83142,-107.6371,21.7383,-0.0115,0.055,107.1989,-0.0824,-2.7406,8.7655,-0.0005,0.0389,0.9127,0.0014,0.1726
83158,-107.6371,21.7383,-0.0115,0.055,107.1989,-0.0824,-2.7406,8.7655,-0.0005,0.0389,0.9127,0.0014,0.1726
83174,-107.6371,21.7383,-0.0115,0.055,107.1989,-0.0824,-2.7406,8.7655,-0.0005,0.0389,0.9127,0.0014,0.1726
83195,-107.9113,22.6192,-0.0114,0.0366,107.1581,-0.0428,-2.7444,8.8454,-0.0003,-0.0376,0.7906,0.0025,0.7134
83206,-107.9113,22.6192,-0.0114,0.0366,107.1581,-0.0428,-2.7444,8.8454,-0.0003,-0.0376,0.7906,0.0025,0.7134
83222,-107.9113,22.6192,-0.0114,0.0366,107.1581,-0.0428,-2.7444,8.8454,-0.0003,-0.0376,0.7906,0.0025,0.7134
83238,-107.9113,22.6192,-0.0114,0.0366,107.1581,-0.0428,-2.7444,8.8454,-0.0003,-0.0376,0.7906,0.0025,0.7134
83254,-107.9113,22.6192,-0.0114,0.0366,107.1581,-0.0428,-2.7444,8.8454,-0.0003,-0.0376,0.7906,0.0025,0.7134
83270,-107.9113,22.6192,-0.0114,0.0366,107.1581,-0.0428,-2.7444,8.8454,-0.0003,-0.0376,0.7906,0.0025,0.7134
83286,-107.9113,22.6192,-0.0114,0.0366,107.1581,-0.0428,-2.7444,8.8454,-0.0003,-0.0376,0.7906,0.0025,0.7134
83302,-108.1863,23.5076,-0.0113,0.0258,107.1465,-0.0222,-2.7563,8.9159,-0.0001,-0.1152,0.6791,0.0016,0.8556
83318,-108.1863,23.5076,-0.0113,0.0258,107.1465,-0.0222,-2.7563,8.9159,-0.0001,-0.1152,0.6791,0.0016,0.8556
83334,-108.1863,23.5076,-0.0113,0.0258,107.1465,-0.0222,-2.7563,8.9159,-0.0001,-0.1152,0.6791,0.0016,0.8556
83350,-108.1863,23.5076,-0.0113,0.0258,107.1465,-0.0222,-2.7563,8.9159,-0.0001,-0.1152,0.6791,0.0016,0.8556
83366,-108.1863,23.5076,-0.0113,0.0258,107.1465,-0.0222,-2.7563,8.9159,-0.0001,-0.1152,0.6791,0.0016,0.8556
83382,-108.1863,23.5076,-0.0113,0.0258,107.1465,-0.0222,-2.7563,8.9159,-0.0001,-0.1152,0.6791,0.0016,0.8556
83402,-108.4627,24.4028,-0.0113,0.0195,107.1431,-0.0117,-2.7723,8.9812,-0.0,-0.1459,0.5972,0.0006,0.889
83414,-108.4627,24.4028,-0.0113,0.0195,107.1431,-0.0117,-2.7723,8.9812,-0.0,-0.1459,0.5972,0.0006,0.889
83430,-108.4627,24.4028,-0.0113,0.0195,107.1431,-0.0117,-2.7723,8.9812,-0.0,-0.1459,0.5972,0.0006,0.889
83446,-108.4627,24.4028,-0.0113,0.0195,107.1431,-0.0117,-2.7723,8.9812,-0.0,-0.1459,0.5972,0.0006,0.889
83462,-108.4627,24.4028,-0.0113,0.0195,107.1431,-0.0117,-2.7723,8.9812,-0.0,-0.1459,0.5972,0.0006,0.889
83478,-108.4627,24.4028,-0.0113,0.0195,107.1431,-0.0117,-2.7723,8.9812,-0.0,-0.1459,0.5972,0.0006,0.889
83494,-108.4627,24.4028,-0.0113,0.0195,107.1431,-0.0117,-2.7723,8.9812,-0.0,-0.1459,0.5972,0.0006,0.889
83510,-108.7409,25.3043,-0.0113,0.0159,107.142,-0.0063,-2.7898,9.0436,0.0,-0.1687,0.6011,0.0004,0.892
83526,-108.7409,25.3043,-0.0113,0.0159,107.142,-0.0063,-2.7898,9.0436,0.0,-0.1687,0.6011,0.0004,0.892
83542,-108.7409,25.3043,-0.0113,0.0159,107.142,-0.0063,-2.7898,9.0436,0.0,-0.1687,0.6011,0.0004,0.892
83558,-108.7409,25.3043,-0.0113,0.0159,107.142,-0.0063,-2.7898,9.0436,0.0,-0.1687,0.6011,0.0004,0.892
83574,-108.7409,25.3043,-0.0113,0.0159,107.142,-0.0063,-2.7898,9.0436,0.0,-0.1687,0.6011,0.0004,0.892
83590,-108.7409,25.3043,-0.0113,0.0159,107.142,-0.0063,-2.7898,9.0436,0.0,-0.1687,0.6011,0.0004,0.892
83606,-108.7409,25.3043,-0.0113,0.0159,107.142,-0.0063,-2.7898,9.0436,0.0,-0.1687,0.6011,0.0004,0.892
83622,-109.0208,26.212,-0.0113,0.0138,107.1416,-0.0035,-2.8077,9.1038,0.0,-0.169,0.5699,0.0001,0.8866
83638,-109.0208,26.212,-0.0113,0.0138,107.1416,-0.0035,-2.8077,9.1038,0.0,-0.169,0.5699,0.0001,0.8866
83654,-109.0208,26.212,-0.0113,0.0138,107.1416,-0.0035,-2.8077,9.1038,0.0,-0.169,0.5699,0.0001,0.8866
83670,-109.0208,26.212,-0.0113,0.0138,107.1416,-0.0035,-2.8077,9.1038,0.0,-0.169,0.5699,0.0001,0.8866
83686,-109.0208,26.212,-0.0113,0.0138,107.1416,-0.0035,-2.8077,9.1038,0.0,-0.169,0.5699,0.0001,0.8866
83702,-109.0208,26.212,-0.0113,0.0138,107.1416,-0.0035,-2.8077,9.1038,0.0,-0.169,0.5699,0.0001,0.8866
83718,-109.3025,27.1256,-0.0112,0.0125,107.1415,-0.0019,-2.8254,9.1624,0.0,-0.176,0.5805,-0.0001,0.8791
83734,-109.3025,27.1256,-0.0112,0.0125,107.1415,-0.0019,-2.8254,9.1624,0.0,-0.176,0.5805,-0.0001,0.8791
83750,-109.3025,27.1256,-0.0112,0.0125,107.1415,-0.0019,-2.8254,9.1624,0.0,-0.176,0.5805,-0.0001,0.8791
83766,-109.3025,27.1256,-0.0112,0.0125,107.1415,-0.0019,-2.8254,9.1624,0.0,-0.176,0.5805,-0.0001,0.8791
83782,-109.3025,27.1256,-0.0112,0.0125,107.1415,-0.0019,-2.8254,9.1624,0.0,-0.176,0.5805,-0.0001,0.8791
83798,-109.3025,27.1256,-0.0112,0.0125,107.1415,-0.0019,-2.8254,9.1624,0.0,-0.176,0.5805,-0.0001,0.8791
83814,-109.3025,27.1256,-0.0112,0.0125,107.1415,-0.0019,-2.8254,9.1624,0.0,-0.176,0.5805,-0.0001,0.8791
83830,-109.5758,28.0117,-0.0112,0.0122,107.1411,-0.0011,-2.8455,9.2278,-0.0,-0.2083,0.6787,-0.0002,0.788
83846,-109.5758,28.0117,-0.0112,0.0122,107.1411,-0.0011,-2.8455,9.2278,-0.0,-0.2083,0.6787,-0.0002,0.788
83862,-109.5758,28.0117,-0.0112,0.0122,107.1411,-0.0011,-2.8455,9.2278,-0.0,-0.2083,0.6787,-0.0002,0.788
83878,-109.5758,28.0117,-0.0112,0.0122,107.1411,-0.0011,-2.8455,9.2278,-0.0,-0.2083,0.6787,-0.0002,0.788
