timestamp,x,y,z,pitch,yaw,roll,vx,vy,vz,ax,ay,az,yaw_rate
59704,-106.6867,-4.8475,-0.08,0.0,-89.3578,0.0,0.0,0.0,0.0429,0.0,-0.0,7.242,0.0
59720,-106.6867,-4.8475,-0.08,0.0,-89.3578,0.0,0.0,0.0,0.0429,0.0,-0.0,7.242,0.0
59736,-106.6867,-4.8475,-0.08,0.0,-89.3578,0.0,0.0,0.0,0.0429,0.0,-0.0,7.242,0.0
59752,-106.6867,-4.8475,-0.08,0.0,-89.3578,0.0,0.0,0.0,0.0429,0.0,-0.0,7.242,0.0
59768,-106.6867,-4.8475,-0.08,0.0,-89.3578,0.0,0.0,0.0,0.0429,0.0,-0.0,7.242,0.0
59784,-106.6867,-4.8475,-0.08,0.0,-89.3578,0.0,0.0,0.0,0.0429,0.0,-0.0,7.242,0.0
59800,-106.6867,-4.8475,-0.08,0.0,-89.3578,0.0,0.0,0.0,0.0429,0.0,-0.0,7.242,0.0
59816,-106.6867,-4.8475,-0.08,0.0,-89.3578,0.0,0.0,0.0,0.0429,0.0,-0.0,7.242,0.0
59832,-106.6867,-4.8475,-0.08,0.0,-89.3578,0.0,0.0,0.0,0.0429,0.0,-0.0,7.242,0.0
59848,-106.6867,-4.8475,-0.08,0.0,-89.3578,0.0,0.0,0.0,0.0429,0.0,-0.0,7.242,0.0
59864,-106.6867,-4.8475,-0.08,0.0,-89.3578,0.0,0.0,0.0,0.0429,0.0,-0.0,7.242,0.0
59880,-106.6867,-4.8475,-0.08,0.0,-89.3578,0.0,0.0,0.0,0.0429,0.0,-0.0,7.242,0.0
59896,-106.6867,-4.8459,-0.0609,-0.0015,-89.3578,0.0,-0.0004,0.0391,0.237,-0.0023,0.207,1.0286,-0.0001
59912,-106.6867,-4.8459,-0.0609,-0.0015,-89.3578,0.0,-0.0004,0.0391,0.237,-0.0023,0.207,1.0286,-0.0001
59928,-106.6867,-4.8459,-0.0609,-0.0015,-89.3578,0.0,-0.0004,0.0391,0.237,-0.0023,0.207,1.0286,-0.0001
59944,-106.6867,-4.8459,-0.0609,-0.0015,-89.3578,0.0,-0.0004,0.0391,0.237,-0.0023,0.207,1.0286,-0.0001
59960,-106.6867,-4.8459,-0.0609,-0.0015,-89.3578,0.0,-0.0004,0.0391,0.237,-0.0023,0.207,1.0286,-0.0001
59976,-106.6867,-4.8459,-0.0609,-0.0015,-89.3578,0.0,-0.0004,0.0391,0.237,-0.0023,0.207,1.0286,-0.0001
59992,-106.6867,-4.8459,-0.0609,-0.0015,-89.3578,0.0,-0.0004,0.0391,0.237,-0.0023,0.207,1.0286,-0.0001
60008,-106.6867,-4.8459,-0.0609,-0.0015,-89.3578,0.0,-0.0004,0.0391,0.237,-0.0023,0.207,1.0286,-0.0001
60024,-106.6867,-4.8459,-0.0609,-0.0015,-89.3578,0.0,-0.0004,0.0391,0.237,-0.0023,0.207,1.0286,-0.0001
60040,-106.6868,-4.841,-0.0397,-0.0051,-89.358,0.0,-0.0012,0.1107,0.1802,-0.0059,0.5291,-0.4195,-0.0345
60056,-106.6868,-4.841,-0.0397,-0.0051,-89.358,0.0,-0.0012,0.1107,0.1802,-0.0059,0.5291,-0.4195,-0.0345
60072,-106.6868,-4.841,-0.0397,-0.0051,-89.358,0.0,-0.0012,0.1107,0.1802,-0.0059,0.5291,-0.4195,-0.0345
60088,-106.6868,-4.841,-0.0397,-0.0051,-89.358,0.0,-0.0012,0.1107,0.1802,-0.0059,0.5291,-0.4195,-0.0345
60104,-106.6868,-4.841,-0.0397,-0.0051,-89.358,0.0,-0.0012,0.1107,0.1802,-0.0059,0.5291,-0.4195,-0.0345
60121,-106.6868,-4.841,-0.0397,-0.0051,-89.358,0.0,-0.0012,0.1107,0.1802,-0.0059,0.5291,-0.4195,-0.0345
60136,-106.6872,-4.8022,-0.026,-0.031,-89.3609,-0.0,-0.0068,0.6216,0.1068,-0.0569,5.2496,-0.7542,-0.0311
60152,-106.6872,-4.8022,-0.026,-0.031,-89.3609,-0.0,-0.0068,0.6216,0.1068,-0.0569,5.2496,-0.7542,-0.0311
60168,-106.6872,-4.8022,-0.026,-0.031,-89.3609,-0.0,-0.0068,0.6216,0.1068,-0.0569,5.2496,-0.7542,-0.0311
60184,-106.6872,-4.8022,-0.026,-0.031,-89.3609,-0.0,-0.0068,0.6216,0.1068,-0.0569,5.2496,-0.7542,-0.0311
60200,-106.6872,-4.8022,-0.026,-0.031,-89.3609,-0.0,-0.0068,0.6216,0.1068,-0.0569,5.2496,-0.7542,-0.0311
60217,-106.688,-4.7266,-0.0186,-0.0455,-89.3621,-0.0,-0.0102,0.9088,0.0586,-0.037,3.0951,-0.5198,0.1392
60232,-106.688,-4.7266,-0.0186,-0.0455,-89.3621,-0.0,-0.0102,0.9088,0.0586,-0.037,3.0951,-0.5198,0.1392
60248,-106.688,-4.7266,-0.0186,-0.0455,-89.3621,-0.0,-0.0102,0.9088,0.0586,-0.037,3.0951,-0.5198,0.1392
60264,-106.688,-4.7266,-0.0186,-0.0455,-89.3621,-0.0,-0.0102,0.9088,0.0586,-0.037,3.0951,-0.5198,0.1392
60280,-106.688,-4.7266,-0.0186,-0.0455,-89.3621,-0.0,-0.0102,0.9088,0.0586,-0.037,3.0951,-0.5198,0.1392
60296,-106.688,-4.7266,-0.0186,-0.0455,-89.3621,-0.0,-0.0102,0.9088,0.0586,-0.037,3.0951,-0.5198,0.1392
60312,-106.688,-4.7266,-0.0186,-0.0455,-89.3621,-0.0,-0.0102,0.9088,0.0586,-0.037,3.0951,-0.5198,0.1392
60328,-106.6885,-4.6249,-0.0143,-0.0416,-89.4084,-0.001,-0.0069,1.0965,0.0325,0.0337,1.9219,-0.2669,-3.524
60344,-106.6885,-4.6249,-0.0143,-0.0416,-89.4084,-0.001,-0.0069,1.0965,0.0325,0.0337,1.9219,-0.2669,-3.524
60360,-106.6885,-4.6249,-0.0143,-0.0416,-89.4084,-0.001,-0.0069,1.0965,0.0325,0.0337,1.9219,-0.2669,-3.524
60376,-106.6885,-4.6249,-0.0143,-0.0416,-89.4084,-0.001,-0.0069,1.0965,0.0325,0.0337,1.9219,-0.2669,-3.524
60392,-106.6885,-4.6249,-0.0143,-0.0416,-89.4084,-0.001,-0.0069,1.0965,0.0325,0.0337,1.9219,-0.2669,-3.524
60408,-106.6885,-4.6249,-0.0143,-0.0416,-89.4084,-0.001,-0.0069,1.0965,0.0325,0.0337,1.9219,-0.2669,-3.524
60426,-106.6895,-4.5215,-0.0125,-0.0261,-89.3909,0.0,-0.0133,1.1525,0.0052,-0.0645,0.5696,-0.278,-0.2312
60440,-106.6895,-4.5215,-0.0125,-0.0261,-89.3909,0.0,-0.0133,1.1525,0.0052,-0.0645,0.5696,-0.278,-0.2312
60456,-106.6895,-4.5215,-0.0125,-0.0261,-89.3909,0.0,-0.0133,1.1525,0.0052,-0.0645,0.5696,-0.278,-0.2312
60472,-106.6895,-4.5215,-0.0125,-0.0261,-89.3909,0.0,-0.0133,1.1525,0.0052,-0.0645,0.5696,-0.278,-0.2312
60488,-106.6895,-4.5215,-0.0125,-0.0261,-89.3909,0.0,-0.0133,1.1525,0.0052,-0.0645,0.5696,-0.278,-0.2312
60504,-106.6895,-4.5215,-0.0125,-0.0261,-89.3909,0.0,-0.0133,1.1525,0.0052,-0.0645,0.5696,-0.278,-0.2312
60521,-106.6908,-4.3956,-0.0116,-0.0315,-89.4022,-0.0,-0.013,1.2936,0.0058,0.0023,1.4739,0.0061,-0.3762
60536,-106.6908,-4.3956,-0.0116,-0.0315,-89.4022,-0.0,-0.013,1.2936,0.0058,0.0023,1.4739,0.0061,-0.3762
60552,-106.6908,-4.3956,-0.0116,-0.0315,-89.4022,-0.0,-0.013,1.2936,0.0058,0.0023,1.4739,0.0061,-0.3762
60568,-106.6908,-4.3956,-0.0116,-0.0315,-89.4022,-0.0,-0.013,1.2936,0.0058,0.0023,1.4739,0.0061,-0.3762
60584,-106.6908,-4.3956,-0.0116,-0.0315,-89.4022,-0.0,-0.013,1.2936,0.0058,0.0023,1.4739,0.0061,-0.3762
60600,-106.6908,-4.3956,-0.0116,-0.0315,-89.4022,-0.0,-0.013,1.2936,0.0058,0.0023,1.4739,0.0061,-0.3762
60616,-106.692,-4.2478,-0.0112,-0.0364,-89.451,0.0,-0.0181,1.6955,0.0025,-0.053,4.1946,-0.0338,-2.6988
60632,-106.692,-4.2478,-0.0112,-0.0364,-89.451,0.0,-0.0181,1.6955,0.0025,-0.053,4.1946,-0.0338,-2.6988
60648,-106.692,-4.2478,-0.0112,-0.0364,-89.451,0.0,-0.0181,1.6955,0.0025,-0.053,4.1946,-0.0338,-2.6988
60664,-106.692,-4.2478,-0.0112,-0.0364,-89.451,0.0,-0.0181,1.6955,0.0025,-0.053,4.1946,-0.0338,-2.6988
60680,-106.692,-4.2478,-0.0112,-0.0364,-89.451,0.0,-0.0181,1.6955,0.0025,-0.053,4.1946,-0.0338,-2.6988
60696,-106.692,-4.2478,-0.0112,-0.0364,-89.451,0.0,-0.0181,1.6955,0.0025,-0.053,4.1946,-0.0338,-2.6988
60714,-106.695,-4.0536,-0.0109,-0.054,-89.3703,0.0006,-0.0267,2.2079,0.0012,-0.0868,5.2009,-0.0141,2.6603
60728,-106.695,-4.0536,-0.0109,-0.054,-89.3703,0.0006,-0.0267,2.2079,0.0012,-0.0868,5.2009,-0.0141,2.6603
60744,-106.695,-4.0536,-0.0109,-0.054,-89.3703,0.0006,-0.0267,2.2079,0.0012,-0.0868,5.2009,-0.0141,2.6603
60760,-106.695,-4.0536,-0.0109,-0.054,-89.3703,0.0006,-0.0267,2.2079,0.0012,-0.0868,5.2009,-0.0141,2.6603
60776,-106.695,-4.0536,-0.0109,-0.054,-89.3703,0.0006,-0.0267,2.2079,0.0012,-0.0868,5.2009,-0.0141,2.6603
60792,-106.695,-4.0536,-0.0109,-0.054,-89.3703,0.0006,-0.0267,2.2079,0.0012,-0.0868,5.2009,-0.0141,2.6603
60810,-106.698,-3.8204,-0.0107,-0.0716,-89.3314,0.0007,-0.0345,2.8471,0.0006,-0.0825,6.7373,-0.0063,0.628
60824,-106.698,-3.8204,-0.0107,-0.0716,-89.3314,0.0007,-0.0345,2.8471,0.0006,-0.0825,6.7373,-0.0063,0.628
60840,-106.698,-3.8204,-0.0107,-0.0716,-89.3314,0.0007,-0.0345,2.8471,0.0006,-0.0825,6.7373,-0.0063,0.628
60856,-106.698,-3.8204,-0.0107,-0.0716,-89.3314,0.0007,-0.0345,2.8471,0.0006,-0.0825,6.7373,-0.0063,0.628
60872,-106.698,-3.8204,-0.0107,-0.0716,-89.3314,0.0007,-0.0345,2.8471,0.0006,-0.0825,6.7373,-0.0063,0.628
60888,-106.7012,-3.5427,-0.0105,-0.0888,-89.346,0.0003,-0.0397,3.3706,0.0003,-0.0582,5.8766,-0.0032,-0.606
60904,-106.7012,-3.5427,-0.0105,-0.0888,-89.346,0.0003,-0.0397,3.3706,0.0003,-0.0582,5.8766,-0.0032,-0.606
60920,-106.7012,-3.5427,-0.0105,-0.0888,-89.346,0.0003,-0.0397,3.3706,0.0003,-0.0582,5.8766,-0.0032,-0.606
60936,-106.7012,-3.5427,-0.0105,-0.0888,-89.346,0.0003,-0.0397,3.3706,0.0003,-0.0582,5.8766,-0.0032,-0.606
60952,-106.7012,-3.5427,-0.0105,-0.0888,-89.346,0.0003,-0.0397,3.3706,0.0003,-0.0582,5.8766,-0.0032,-0.606
60968,-106.7012,-3.5427,-0.0105,-0.0888,-89.346,0.0003,-0.0397,3.3706,0.0003,-0.0582,5.8766,-0.0032,-0.606
60984,-106.7058,-3.1783,-0.0104,-0.101,-89.3016,0.0003,-0.0483,4.1332,0.0001,-0.0895,7.8774,-0.0013,1.4705
61000,-106.7058,-3.1783,-0.0104,-0.101,-89.3016,0.0003,-0.0483,4.1332,0.0001,-0.0895,7.8774,-0.0013,1.4705
61016,-106.7058,-3.1783,-0.0104,-0.101,-89.3016,0.0003,-0.0483,4.1332,0.0001,-0.0895,7.8774,-0.0013,1.4705
61032,-106.7058,-3.1783,-0.0104,-0.101,-89.3016,0.0003,-0.0483,4.1332,0.0001,-0.0895,7.8774,-0.0013,1.4705
61048,-106.7058,-3.1783,-0.0104,-0.101,-89.3016,0.0003,-0.0483,4.1332,0.0001,-0.0895,7.8774,-0.0013,1.4705
61064,-106.7058,-3.1783,-0.0104,-0.101,-89.3016,0.0003,-0.0483,4.1332,0.0001,-0.0895,7.8774,-0.0013,1.4705
61082,-106.7106,-2.7674,-0.0103,-0.1142,-89.3112,0.0002,-0.0584,4.8516,0.0001,-0.1119,7.9687,-0.0008,-1.4608
61096,-106.7106,-2.7674,-0.0103,-0.1142,-89.3112,0.0002,-0.0584,4.8516,0.0001,-0.1119,7.9687,-0.0008,-1.4608
61112,-106.7106,-2.7674,-0.0103,-0.1142,-89.3112,0.0002,-0.0584,4.8516,0.0001,-0.1119,7.9687,-0.0008,-1.4608
61128,-106.7106,-2.7674,-0.0103,-0.1142,-89.3112,0.0002,-0.0584,4.8516,0.0001,-0.1119,7.9687,-0.0008,-1.4608
61144,-106.7106,-2.7674,-0.0103,-0.1142,-89.3112,0.0002,-0.0584,4.8516,0.0001,-0.1119,7.9687,-0.0008,-1.4608
61160,-106.7106,-2.7674,-0.0103,-0.1142,-89.3112,0.0002,-0.0584,4.8516,0.0001,-0.1119,7.9687,-0.0008,-1.4608
61178,-106.7161,-2.267,-0.0104,-0.1053,-89.3513,-0.0005,-0.0614,5.3982,0.0001,-0.0301,5.5557,-0.0002,0.6207
61192,-106.7161,-2.267,-0.0104,-0.1053,-89.3513,-0.0005,-0.0614,5.3982,0.0001,-0.0301,5.5557,-0.0002,0.6207
61208,-106.7161,-2.267,-0.0104,-0.1053,-89.3513,-0.0005,-0.0614,5.3982,0.0001,-0.0301,5.5557,-0.0002,0.6207
61224,-106.7161,-2.267,-0.0104,-0.1053,-89.3513,-0.0005,-0.0614,5.3982,0.0001,-0.0301,5.5557,-0.0002,0.6207
61240,-106.7161,-2.267,-0.0104,-0.1053,-89.3513,-0.0005,-0.0614,5.3982,0.0001,-0.0301,5.5557,-0.0002,0.6207
61256,-106.7161,-2.267,-0.0104,-0.1053,-89.3513,-0.0005,-0.0614,5.3982,0.0001,-0.0301,5.5557,-0.0002,0.6207
61273,-106.7219,-1.7509,-0.0104,-0.1017,-89.3641,-0.0006,-0.0671,5.9359,0.0,-0.0627,5.8728,-0.0003,-1.3576
61288,-106.7219,-1.7509,-0.0104,-0.1017,-89.3641,-0.0006,-0.0671,5.9359,0.0,-0.0627,5.8728,-0.0003,-1.3576
61304,-106.7219,-1.7509,-0.0104,-0.1017,-89.3641,-0.0006,-0.0671,5.9359,0.0,-0.0627,5.8728,-0.0003,-1.3576
61320,-106.7219,-1.7509,-0.0104,-0.1017,-89.3641,-0.0006,-0.0671,5.9359,0.0,-0.0627,5.8728,-0.0003,-1.3576
61336,-106.7219,-1.7509,-0.0104,-0.1017,-89.3641,-0.0006,-0.0671,5.9359,0.0,-0.0627,5.8728,-0.0003,-1.3576
61352,-106.7219,-1.7509,-0.0104,-0.1017,-89.3641,-0.0006,-0.0671,5.9359,0.0,-0.0627,5.8728,-0.0003,-1.3576
61370,-106.7286,-1.1608,-0.0104,-0.102,-89.3502,-0.0003,-0.073,6.5333,0.0,-0.0621,6.2982,-0.0001,1.3573
61384,-106.7286,-1.1608,-0.0104,-0.102,-89.3502,-0.0003,-0.073,6.5333,0.0,-0.0621,6.2982,-0.0001,1.3573
61400,-106.7286,-1.1608,-0.0104,-0.102,-89.3502,-0.0003,-0.073,6.5333,0.0,-0.0621,6.2982,-0.0001,1.3573
61416,-106.7286,-1.1608,-0.0104,-0.102,-89.3502,-0.0003,-0.073,6.5333,0.0,-0.0621,6.2982,-0.0001,1.3573
61432,-106.7286,-1.1608,-0.0104,-0.102,-89.3502,-0.0003,-0.073,6.5333,0.0,-0.0621,6.2982,-0.0001,1.3573
61448,-106.7286,-1.1608,-0.0104,-0.102,-89.3502,-0.0003,-0.073,6.5333,0.0,-0.0621,6.2982,-0.0001,1.3573
61464,-106.7358,-0.5207,-0.0104,-0.1071,-89.355,-0.0001,-0.0815,7.1971,-0.0,-0.0912,7.1171,-0.0003,-0.9013
61480,-106.7358,-0.5207,-0.0104,-0.1071,-89.355,-0.0001,-0.0815,7.1971,-0.0,-0.0912,7.1171,-0.0003,-0.9013
61496,-106.7358,-0.5207,-0.0104,-0.1071,-89.355,-0.0001,-0.0815,7.1971,-0.0,-0.0912,7.1171,-0.0003,-0.9013
61512,-106.7358,-0.5207,-0.0104,-0.1071,-89.355,-0.0001,-0.0815,7.1971,-0.0,-0.0912,7.1171,-0.0003,-0.9013
61528,-106.7358,-0.5207,-0.0104,-0.1071,-89.355,-0.0001,-0.0815,7.1971,-0.0,-0.0912,7.1171,-0.0003,-0.9013
61544,-106.7436,0.1691,-0.0103,-0.1122,-89.351,-0.0001,-0.0886,7.8554,0.0,-0.0776,7.1921,0.0001,0.4713
61560,-106.7436,0.1691,-0.0103,-0.1122,-89.351,-0.0001,-0.0886,7.8554,0.0,-0.0776,7.1921,0.0001,0.4713
61576,-106.7436,0.1691,-0.0103,-0.1122,-89.351,-0.0001,-0.0886,7.8554,0.0,-0.0776,7.1921,0.0001,0.4713
61592,-106.7436,0.1691,-0.0103,-0.1122,-89.351,-0.0001,-0.0886,7.8554,0.0,-0.0776,7.1921,0.0001,0.4713
61608,-106.7436,0.1691,-0.0103,-0.1122,-89.351,-0.0001,-0.0886,7.8554,0.0,-0.0776,7.1921,0.0001,0.4713
61624,-106.7436,0.1691,-0.0103,-0.1122,-89.351,-0.0001,-0.0886,7.8554,0.0,-0.0776,7.1921,0.0001,0.4713
61640,-106.7524,0.9521,-0.0104,-0.1078,-89.3531,-0.0011,-0.0953,8.413,0.0002,-0.0691,5.8048,0.0019,-0.3932
61656,-106.7524,0.9521,-0.0104,-0.1078,-89.3531,-0.0011,-0.0953,8.413,0.0002,-0.0691,5.8048,0.0019,-0.3932
61672,-106.7524,0.9521,-0.0104,-0.1078,-89.3531,-0.0011,-0.0953,8.413,0.0002,-0.0691,5.8048,0.0019,-0.3932
61688,-106.7524,0.9521,-0.0104,-0.1078,-89.3531,-0.0011,-0.0953,8.413,0.0002,-0.0691,5.8048,0.0019,-0.3932
61704,-106.7524,0.9521,-0.0104,-0.1078,-89.3531,-0.0011,-0.0953,8.413,0.0002,-0.0691,5.8048,0.0019,-0.3932
61720,-106.7524,0.9521,-0.0104,-0.1078,-89.3531,-0.0011,-0.0953,8.413,0.0002,-0.0691,5.8048,0.0019,-0.3932
61736,-106.7524,0.9521,-0.0104,-0.1078,-89.3531,-0.0011,-0.0953,8.413,0.0002,-0.0691,5.8048,0.0019,-0.3932
61752,-106.7621,1.8059,-0.0104,-0.0999,-89.3514,-0.0001,-0.1008,8.9289,0.0,-0.0563,5.2412,-0.0014,0.3829
61768,-106.7621,1.8059,-0.0104,-0.0999,-89.3514,-0.0001,-0.1008,8.9289,0.0,-0.0563,5.2412,-0.0014,0.3829
61784,-106.7621,1.8059,-0.0104,-0.0999,-89.3514,-0.0001,-0.1008,8.9289,0.0,-0.0563,5.2412,-0.0014,0.3829
61800,-106.7621,1.8059,-0.0104,-0.0999,-89.3514,-0.0001,-0.1008,8.9289,0.0,-0.0563,5.2412,-0.0014,0.3829
61816,-106.7621,1.8059,-0.0104,-0.0999,-89.3514,-0.0001,-0.1008,8.9289,0.0,-0.0563,5.2412,-0.0014,0.3829
61832,-106.7621,1.8059,-0.0104,-0.0999,-89.3514,-0.0001,-0.1008,8.9289,0.0,-0.0563,5.2412,-0.0014,0.3829
61850,-106.7723,2.7141,-0.0105,-0.0945,-89.3528,-0.0001,-0.1068,9.4456,0.0,-0.0605,5.2323,-0.0003,-0.1089
61864,-106.7723,2.7141,-0.0105,-0.0945,-89.3528,-0.0001,-0.1068,9.4456,0.0,-0.0605,5.2323,-0.0003,-0.1089
61880,-106.7723,2.7141,-0.0105,-0.0945,-89.3528,-0.0001,-0.1068,9.4456,0.0,-0.0605,5.2323,-0.0003,-0.1089
61896,-106.7723,2.7141,-0.0105,-0.0945,-89.3528,-0.0001,-0.1068,9.4456,0.0,-0.0605,5.2323,-0.0003,-0.1089
61912,-106.7723,2.7141,-0.0105,-0.0945,-89.3528,-0.0001,-0.1068,9.4456,0.0,-0.0605,5.2323,-0.0003,-0.1089
61928,-106.7822,3.5835,-0.0105,-0.0898,-89.3526,-0.0,-0.1114,9.8617,0.0,-0.0519,4.6309,-0.0001,-0.003
61944,-106.7822,3.5835,-0.0105,-0.0898,-89.3526,-0.0,-0.1114,9.8617,0.0,-0.0519,4.6309,-0.0001,-0.003
61960,-106.7822,3.5835,-0.0105,-0.0898,-89.3526,-0.0,-0.1114,9.8617,0.0,-0.0519,4.6309,-0.0001,-0.003
61976,-106.7822,3.5835,-0.0105,-0.0898,-89.3526,-0.0,-0.1114,9.8617,0.0,-0.0519,4.6309,-0.0001,-0.003
61992,-106.7822,3.5835,-0.0105,-0.0898,-89.3526,-0.0,-0.1114,9.8617,0.0,-0.0519,4.6309,-0.0001,-0.003
62008,-106.7822,3.5835,-0.0105,-0.0898,-89.3526,-0.0,-0.1114,9.8617,0.0,-0.0519,4.6309,-0.0001,-0.003
62026,-106.7928,4.5223,-0.0105,-0.0895,-89.3526,-0.0,-0.1174,10.3856,0.0,-0.064,5.6686,-0.0,-0.0
62040,-106.7928,4.5223,-0.0105,-0.0895,-89.3526,-0.0,-0.1174,10.3856,0.0,-0.064,5.6686,-0.0,-0.0
62056,-106.7928,4.5223,-0.0105,-0.0895,-89.3526,-0.0,-0.1174,10.3856,0.0,-0.064,5.6686,-0.0,-0.0
62072,-106.7928,4.5223,-0.0105,-0.0895,-89.3526,-0.0,-0.1174,10.3856,0.0,-0.064,5.6686,-0.0,-0.0
62088,-106.7928,4.5223,-0.0105,-0.0895,-89.3526,-0.0,-0.1174,10.3856,0.0,-0.064,5.6686,-0.0,-0.0
62104,-106.7928,4.5223,-0.0105,-0.0895,-89.3526,-0.0,-0.1174,10.3856,0.0,-0.064,5.6686,-0.0,-0.0
62122,-106.8039,5.5087,-0.0105,-0.088,-89.3526,-0.0,-0.1226,10.848,-0.0,-0.0564,4.9921,-0.0001,0.0
62136,-106.8039,5.5087,-0.0105,-0.088,-89.3526,-0.0,-0.1226,10.848,-0.0,-0.0564,4.9921,-0.0001,0.0
62152,-106.8039,5.5087,-0.0105,-0.088,-89.3526,-0.0,-0.1226,10.848,-0.0,-0.0564,4.9921,-0.0001,0.0
62168,-106.8039,5.5087,-0.0105,-0.088,-89.3526,-0.0,-0.1226,10.848,-0.0,-0.0564,4.9921,-0.0001,0.0
62184,-106.8039,5.5087,-0.0105,-0.088,-89.3526,-0.0,-0.1226,10.848,-0.0,-0.0564,4.9921,-0.0001,0.0
62200,-106.8039,5.5087,-0.0105,-0.088,-89.3526,-0.0,-0.1226,10.848,-0.0,-0.0564,4.9921,-0.0001,0.0
62217,-106.8162,6.5994,-0.0106,-0.082,-89.3526,0.0,-0.1272,11.2605,0.0,-0.0474,4.1924,0.0001,0.0002
62232,-106.8162,6.5994,-0.0106,-0.082,-89.3526,0.0,-0.1272,11.2605,0.0,-0.0474,4.1924,0.0001,0.0002
62248,-106.8162,6.5994,-0.0106,-0.082,-89.3526,0.0,-0.1272,11.2605,0.0,-0.0474,4.1924,0.0001,0.0002
62264,-106.8162,6.5994,-0.0106,-0.082,-89.3526,0.0,-0.1272,11.2605,0.0,-0.0474,4.1924,0.0001,0.0002
62280,-106.8162,6.5994,-0.0106,-0.082,-89.3526,0.0,-0.1272,11.2605,0.0,-0.0474,4.1924,0.0001,0.0002
62296,-106.8162,6.5994,-0.0106,-0.082,-89.3526,0.0,-0.1272,11.2605,0.0,-0.0474,4.1924,0.0001,0.0002
62314,-106.8288,7.707,-0.0106,-0.0744,-89.3526,-0.0,-0.1313,11.6204,-0.0,-0.0421,3.7252,-0.0001,0.0001
62328,-106.8288,7.707,-0.0106,-0.0744,-89.3526,-0.0,-0.1313,11.6204,-0.0,-0.0421,3.7252,-0.0001,0.0001
62344,-106.8288,7.707,-0.0106,-0.0744,-89.3526,-0.0,-0.1313,11.6204,-0.0,-0.0421,3.7252,-0.0001,0.0001
62360,-106.8288,7.707,-0.0106,-0.0744,-89.3526,-0.0,-0.1313,11.6204,-0.0,-0.0421,3.7252,-0.0001,0.0001
62376,-106.8288,7.707,-0.0106,-0.0744,-89.3526,-0.0,-0.1313,11.6204,-0.0,-0.0421,3.7252,-0.0001,0.0001
62392,-106.8288,7.707,-0.0106,-0.0744,-89.3526,-0.0,-0.1313,11.6204,-0.0,-0.0421,3.7252,-0.0001,0.0001
62408,-106.8417,8.8505,-0.0107,-0.0681,-89.3526,0.0,-0.1352,11.9625,0.0,-0.0399,3.5346,0.0001,0.0001
62424,-106.8417,8.8505,-0.0107,-0.0681,-89.3526,0.0,-0.1352,11.9625,0.0,-0.0399,3.5346,0.0001,0.0001
62440,-106.8417,8.8505,-0.0107,-0.0681,-89.3526,0.0,-0.1352,11.9625,0.0,-0.0399,3.5346,0.0001,0.0001
62456,-106.8417,8.8505,-0.0107,-0.0681,-89.3526,0.0,-0.1352,11.9625,0.0,-0.0399,3.5346,0.0001,0.0001
62472,-106.8417,8.8505,-0.0107,-0.0681,-89.3526,0.0,-0.1352,11.9625,0.0,-0.0399,3.5346,0.0001,0.0001
62488,-106.8417,8.8505,-0.0107,-0.0681,-89.3526,0.0,-0.1352,11.9625,0.0,-0.0399,3.5346,0.0001,0.0001
62506,-106.8544,9.9822,-0.0107,-0.0637,-89.3526,0.0,-0.1388,12.2799,0.0,-0.0385,3.4048,0.0001,0.0001
62520,-106.8544,9.9822,-0.0107,-0.0637,-89.3526,0.0,-0.1388,12.2799,0.0,-0.0385,3.4048,0.0001,0.0001
62536,-106.8544,9.9822,-0.0107,-0.0637,-89.3526,0.0,-0.1388,12.2799,0.0,-0.0385,3.4048,0.0001,0.0001
62552,-106.8544,9.9822,-0.0107,-0.0637,-89.3526,0.0,-0.1388,12.2799,0.0,-0.0385,3.4048,0.0001,0.0001
62568,-106.8544,9.9822,-0.0107,-0.0637,-89.3526,0.0,-0.1388,12.2799,0.0,-0.0385,3.4048,0.0001,0.0001
62584,-106.8544,9.9822,-0.0107,-0.0637,-89.3526,0.0,-0.1388,12.2799,0.0,-0.0385,3.4048,0.0001,0.0001
62602,-106.8675,11.1352,-0.0107,-0.0597,-89.3526,0.0,-0.1421,12.5725,-0.0,-0.0357,3.1574,-0.0001,0.0001
62616,-106.8675,11.1352,-0.0107,-0.0597,-89.3526,0.0,-0.1421,12.5725,-0.0,-0.0357,3.1574,-0.0001,0.0001
62632,-106.8675,11.1352,-0.0107,-0.0597,-89.3526,0.0,-0.1421,12.5725,-0.0,-0.0357,3.1574,-0.0001,0.0001
62648,-106.8675,11.1352,-0.0107,-0.0597,-89.3526,0.0,-0.1421,12.5725,-0.0,-0.0357,3.1574,-0.0001,0.0001
62664,-106.8675,11.1352,-0.0107,-0.0597,-89.3526,0.0,-0.1421,12.5725,-0.0,-0.0357,3.1574,-0.0001,0.0001
62680,-106.8675,11.1352,-0.0107,-0.0597,-89.3526,0.0,-0.1421,12.5725,-0.0,-0.0357,3.1574,-0.0001,0.0001
62698,-106.8817,12.395,-0.0108,-0.0542,-89.3526,0.0,-0.145,12.8288,0.0,-0.0293,2.5888,0.0,0.0002
62728,-106.8817,12.395,-0.0108,-0.0542,-89.3526,0.0,-0.145,12.8288,0.0,-0.0293,2.5888,0.0,0.0002
62744,-106.8817,12.395,-0.0108,-0.0542,-89.3526,0.0,-0.145,12.8288,0.0,-0.0293,2.5888,0.0,0.0002
62760,-106.8817,12.395,-0.0108,-0.0542,-89.3526,0.0,-0.145,12.8288,0.0,-0.0293,2.5888,0.0,0.0002
62776,-106.8817,12.395,-0.0108,-0.0542,-89.3526,0.0,-0.145,12.8288,0.0,-0.0293,2.5888,0.0,0.0002
62792,-106.9192,13.5701,-0.0108,-0.0395,-90.4811,0.1071,-0.8871,12.8406,0.0009,-8.1234,0.1282,0.0101,-27.044
62808,-106.9192,13.5701,-0.0108,-0.0395,-90.4811,0.1071,-0.8871,12.8406,0.0009,-8.1234,0.1282,0.0101,-27.044
62824,-106.9192,13.5701,-0.0108,-0.0395,-90.4811,0.1071,-0.8871,12.8406,0.0009,-8.1234,0.1282,0.0101,-27.044
62840,-106.9192,13.5701,-0.0108,-0.0395,-90.4811,0.1071,-0.8871,12.8406,0.0009,-8.1234,0.1282,0.0101,-27.044
62856,-106.9192,13.5701,-0.0108,-0.0395,-90.4811,0.1071,-0.8871,12.8406,0.0009,-8.1234,0.1282,0.0101,-27.044
62872,-106.9192,13.5701,-0.0108,-0.0395,-90.4811,0.1071,-0.8871,12.8406,0.0009,-8.1234,0.1282,0.0101,-27.044
62888,-107.0174,14.7644,-0.011,-0.006,-95.3201,0.2477,-1.8143,12.5955,0.0012,-9.8598,-2.6059,0.0031,-73.4331
62904,-107.0174,14.7644,-0.011,-0.006,-95.3201,0.2477,-1.8143,12.5955,0.0012,-9.8598,-2.6059,0.0031,-73.4331
62920,-107.0174,14.7644,-0.011,-0.006,-95.3201,0.2477,-1.8143,12.5955,0.0012,-9.8598,-2.6059,0.0031,-73.4331
62936,-107.0174,14.7644,-0.011,-0.006,-95.3201,0.2477,-1.8143,12.5955,0.0012,-9.8598,-2.6059,0.0031,-73.4331
62952,-107.0174,14.7644,-0.011,-0.006,-95.3201,0.2477,-1.8143,12.5955,0.0012,-9.8598,-2.6059,0.0031,-73.4331
62969,-107.1451,15.8912,-0.0111,0.0234,-104.6464,0.2664,-2.3121,12.3257,0.0002,-5.44,-2.9484,-0.0113,-126.1504
62984,-107.1451,15.8912,-0.0111,0.0234,-104.6464,0.2664,-2.3121,12.3257,0.0002,-5.44,-2.9484,-0.0113,-126.1504
63000,-107.1451,15.8912,-0.0111,0.0234,-104.6464,0.2664,-2.3121,12.3257,0.0002,-5.44,-2.9484,-0.0113,-126.1504
63016,-107.1451,15.8912,-0.0111,0.0234,-104.6464,0.2664,-2.3121,12.3257,0.0002,-5.44,-2.9484,-0.0113,-126.1504
63032,-107.1451,15.8912,-0.0111,0.0234,-104.6464,0.2664,-2.3121,12.3257,0.0002,-5.44,-2.9484,-0.0113,-126.1504
63048,-107.1451,15.8912,-0.0111,0.0234,-104.6464,0.2664,-2.3121,12.3257,0.0002,-5.44,-2.9484,-0.0113,-126.1504
63066,-107.2613,17.0293,-0.0111,0.0193,-119.8486,0.1486,-2.1162,12.1723,-0.001,2.0295,-1.5899,-0.0121,-182.2641
63080,-107.2613,17.0293,-0.0111,0.0193,-119.8486,0.1486,-2.1162,12.1723,-0.001,2.0295,-1.5899,-0.0121,-182.2641
63096,-107.2613,17.0293,-0.0111,0.0193,-119.8486,0.1486,-2.1162,12.1723,-0.001,2.0295,-1.5899,-0.0121,-182.2641
63112,-107.2613,17.0293,-0.0111,0.0193,-119.8486,0.1486,-2.1162,12.1723,-0.001,2.0295,-1.5899,-0.0121,-182.2641
63128,-107.2613,17.0293,-0.0111,0.0193,-119.8486,0.1486,-2.1162,12.1723,-0.001,2.0295,-1.5899,-0.0121,-182.2641
63144,-107.2613,17.0293,-0.0111,0.0193,-119.8486,0.1486,-2.1162,12.1723,-0.001,2.0295,-1.5899,-0.0121,-182.2641
63161,-107.2806,18.0957,-0.0106,-0.0621,-138.7377,-0.1014,-0.5507,12.1651,-0.0,16.5273,-0.0754,0.0102,-209.5888
63176,-107.2806,18.0957,-0.0106,-0.0621,-138.7377,-0.1014,-0.5507,12.1651,-0.0,16.5273,-0.0754,0.0102,-209.5888
63192,-107.2806,18.0957,-0.0106,-0.0621,-138.7377,-0.1014,-0.5507,12.1651,-0.0,16.5273,-0.0754,0.0102,-209.5888
63208,-107.2806,18.0957,-0.0106,-0.0621,-138.7377,-0.1014,-0.5507,12.1651,-0.0,16.5273,-0.0754,0.0102,-209.5888
63224,-107.2806,18.0957,-0.0106,-0.0621,-138.7377,-0.1014,-0.5507,12.1651,-0.0,16.5273,-0.0754,0.0102,-209.5888
63240,-107.2806,18.0957,-0.0106,-0.0621,-138.7377,-0.1014,-0.5507,12.1651,-0.0,16.5273,-0.0754,0.0102,-209.5888
63258,-107.1495,19.0621,-0.0097,-0.175,-158.5125,-0.3495,1.5703,11.6436,0.0021,23.2023,-5.7047,0.0228,-220.7614
63272,-107.1495,19.0621,-0.0097,-0.175,-158.5125,-0.3495,1.5703,11.6436,0.0021,23.2023,-5.7047,0.0228,-220.7614
63288,-107.1495,19.0621,-0.0097,-0.175,-158.5125,-0.3495,1.5703,11.6436,0.0021,23.2023,-5.7047,0.0228,-220.7614
63304,-107.1495,19.0621,-0.0097,-0.175,-158.5125,-0.3495,1.5703,11.6436,0.0021,23.2023,-5.7047,0.0228,-220.7614
63336,-107.1495,19.0621,-0.0097,-0.175,-158.5125,-0.3495,1.5703,11.6436,0.0021,23.2023,-5.7047,0.0228,-220.7614
63352,-106.8792,19.9221,-0.0089,-0.2463,-179.5718,-0.6183,3.1492,9.7324,0.0026,16.6816,-20.1926,0.0052,-222.9676
63368,-106.8792,19.9221,-0.0089,-0.2463,-179.5718,-0.6183,3.1492,9.7324,0.0026,16.6816,-20.1926,0.0052,-222.9676
63384,-106.8792,19.9221,-0.0089,-0.2463,-179.5718,-0.6183,3.1492,9.7324,0.0026,16.6816,-20.1926,0.0052,-222.9676
63400,-106.8792,19.9221,-0.0089,-0.2463,-179.5718,-0.6183,3.1492,9.7324,0.0026,16.6816,-20.1926,0.0052,-222.9676
63416,-106.8792,19.9221,-0.0089,-0.2463,-179.5718,-0.6183,3.1492,9.7324,0.0026,16.6816,-20.1926,0.0052,-222.9676
63432,-106.8792,19.9221,-0.0089,-0.2463,-179.5718,-0.6183,3.1492,9.7324,0.0026,16.6816,-20.1926,0.0052,-222.9676
63449,-106.6342,20.5767,-0.0092,-0.1957,160.5301,-0.8355,2.2838,7.5885,-0.0025,-9.1982,-22.7853,-0.0539,-200.38
63464,-106.6342,20.5767,-0.0092,-0.1957,160.5301,-0.8355,2.2838,7.5885,-0.0025,-9.1982,-22.7853,-0.0539,-200.38
63480,-106.6342,20.5767,-0.0092,-0.1957,160.5301,-0.8355,2.2838,7.5885,-0.0025,-9.1982,-22.7853,-0.0539,-200.38
63496,-106.6342,20.5767,-0.0092,-0.1957,160.5301,-0.8355,2.2838,7.5885,-0.0025,-9.1982,-22.7853,-0.0539,-200.38
63512,-106.6342,20.5767,-0.0092,-0.1957,160.5301,-0.8355,2.2838,7.5885,-0.0025,-9.1982,-22.7853,-0.0539,-200.38
63530,-106.582,21.0582,-0.0099,-0.0739,144.4919,-0.9449,0.415,6.5997,0.0021,-22.0506,-11.6675,0.0539,-174.3278
63544,-106.582,21.0582,-0.0099,-0.0739,144.4919,-0.9449,0.415,6.5997,0.0021,-22.0506,-11.6675,0.0539,-174.3278
63560,-106.582,21.0582,-0.0099,-0.0739,144.4919,-0.9449,0.415,6.5997,0.0021,-22.0506,-11.6675,0.0539,-174.3278
63576,-106.582,21.0582,-0.0099,-0.0739,144.4919,-0.9449,0.415,6.5997,0.0021,-22.0506,-11.6675,0.0539,-174.3278
63592,-106.582,21.0582,-0.0099,-0.0739,144.4919,-0.9449,0.415,6.5997,0.0021,-22.0506,-11.6675,0.0539,-174.3278
63608,-106.582,21.0582,-0.0099,-0.0739,144.4919,-0.9449,0.415,6.5997,0.0021,-22.0506,-11.6675,0.0539,-174.3278
63626,-106.7261,21.6133,-0.0111,0.0923,131.0994,-0.8454,-1.7624,7.1456,-0.0007,-23.6965,5.9412,-0.0298,-122.3499
63640,-106.7261,21.6133,-0.0111,0.0923,131.0994,-0.8454,-1.7624,7.1456,-0.0007,-23.6965,5.9412,-0.0298,-122.3499
63656,-106.7261,21.6133,-0.0111,0.0923,131.0994,-0.8454,-1.7624,7.1456,-0.0007,-23.6965,5.9412,-0.0298,-122.3499
63672,-106.7261,21.6133,-0.0111,0.0923,131.0994,-0.8454,-1.7624,7.1456,-0.0007,-23.6965,5.9412,-0.0298,-122.3499
63688,-106.7261,21.6133,-0.0111,0.0923,131.0994,-0.8454,-1.7624,7.1456,-0.0007,-23.6965,5.9412,-0.0298,-122.3499
63705,-106.9644,22.2171,-0.0119,0.1858,122.3051,-0.5895,-2.3774,8.0809,-0.0021,-7.3658,11.2027,-0.0165,-97.4544
63720,-106.9644,22.2171,-0.0119,0.1858,122.3051,-0.5895,-2.3774,8.0809,-0.0021,-7.3658,11.2027,-0.0165,-97.4544
63736,-106.9644,22.2171,-0.0119,0.1858,122.3051,-0.5895,-2.3774,8.0809,-0.0021,-7.3658,11.2027,-0.0165,-97.4544
63752,-106.9644,22.2171,-0.0119,0.1858,122.3051,-0.5895,-2.3774,8.0809,-0.0021,-7.3658,11.2027,-0.0165,-97.4544
63768,-106.9644,22.2171,-0.0119,0.1858,122.3051,-0.5895,-2.3774,8.0809,-0.0021,-7.3658,11.2027,-0.0165,-97.4544
63785,-106.9644,22.2171,-0.0119,0.1858,122.3051,-0.5895,-2.3774,8.0809,-0.0021,-7.3658,11.2027,-0.0165,-97.4544
63800,-107.2051,22.9532,-0.0123,0.1955,113.7864,-0.2106,-1.7882,8.902,-0.0033,6.6053,9.2053,-0.014,-95.4657
63816,-107.2051,22.9532,-0.0123,0.1955,113.7864,-0.2106,-1.7882,8.902,-0.0033,6.6053,9.2053,-0.014,-95.4657
63848,-107.2051,22.9532,-0.0123,0.1955,113.7864,-0.2106,-1.7882,8.902,-0.0033,6.6053,9.2053,-0.014,-95.4657
63864,-107.2051,22.9532,-0.0123,0.1955,113.7864,-0.2106,-1.7882,8.902,-0.0033,6.6053,9.2053,-0.014,-95.4657
63882,-107.4065,23.7461,-0.0124,0.1746,107.0588,-0.0679,-1.9905,9.3783,-0.0021,-2.3032,5.4216,0.0142,-53.6919
63896,-107.4065,23.7461,-0.0124,0.1746,107.0588,-0.0679,-1.9905,9.3783,-0.0021,-2.3032,5.4216,0.0142,-53.6919
63912,-107.4065,23.7461,-0.0124,0.1746,107.0588,-0.0679,-1.9905,9.3783,-0.0021,-2.3032,5.4216,0.0142,-53.6919
63928,-107.4065,23.7461,-0.0124,0.1746,107.0588,-0.0679,-1.9905,9.3783,-0.0021,-2.3032,5.4216,0.0142,-53.6919
63944,-107.4065,23.7461,-0.0124,0.1746,107.0588,-0.0679,-1.9905,9.3783,-0.0021,-2.3032,5.4216,0.0142,-53.6919
63960,-107.4065,23.7461,-0.0124,0.1746,107.0588,-0.0679,-1.9905,9.3783,-0.0021,-2.3032,5.4216,0.0142,-53.6919
63978,-107.6434,24.6398,-0.0121,0.1292,104.3413,-0.1086,-2.4005,9.5181,0.0002,-4.3094,1.4692,0.0233,-13.3093
63992,-107.6434,24.6398,-0.0121,0.1292,104.3413,-0.1086,-2.4005,9.5181,0.0002,-4.3094,1.4692,0.0233,-13.3093
64008,-107.6434,24.6398,-0.0121,0.1292,104.3413,-0.1086,-2.4005,9.5181,0.0002,-4.3094,1.4692,0.0233,-13.3093
64024,-107.6434,24.6398,-0.0121,0.1292,104.3413,-0.1086,-2.4005,9.5181,0.0002,-4.3094,1.4692,0.0233,-13.3093
64040,-107.6434,24.6398,-0.0121,0.1292,104.3413,-0.1086,-2.4005,9.5181,0.0002,-4.3094,1.4692,0.0233,-13.3093
64056,-107.6434,24.6398,-0.0121,0.1292,104.3413,-0.1086,-2.4005,9.5181,0.0002,-4.3094,1.4692,0.0233,-13.3093
64072,-107.8635,25.4965,-0.0118,0.0878,103.6494,-0.0703,-2.3971,9.623,-0.0001,0.0379,1.1716,-0.0028,-5.0549
64088,-107.8635,25.4965,-0.0118,0.0878,103.6494,-0.0703,-2.3971,9.623,-0.0001,0.0379,1.1716,-0.0028,-5.0549
64104,-107.8635,25.4965,-0.0118,0.0878,103.6494,-0.0703,-2.3971,9.623,-0.0001,0.0379,1.1716,-0.0028,-5.0549
64120,-107.8635,25.4965,-0.0118,0.0878,103.6494,-0.0703,-2.3971,9.623,-0.0001,0.0379,1.1716,-0.0028,-5.0549
64136,-107.8635,25.4965,-0.0118,0.0878,103.6494,-0.0703,-2.3971,9.623,-0.0001,0.0379,1.1716,-0.0028,-5.0549
64152,-107.8635,25.4965,-0.0118,0.0878,103.6494,-0.0703,-2.3971,9.623,-0.0001,0.0379,1.1716,-0.0028,-5.0549
64169,-108.0984,26.447,-0.0116,0.0558,103.4295,-0.0305,-2.3613,9.7089,-0.0002,0.3639,0.8736,-0.0012,-1.976
64184,-108.0984,26.447,-0.0116,0.0558,103.4295,-0.0305,-2.3613,9.7089,-0.0002,0.3639,0.8736,-0.0012,-1.976
64200,-108.0984,26.447,-0.0116,0.0558,103.4295,-0.0305,-2.3613,9.7089,-0.0002,0.3639,0.8736,-0.0012,-1.976
64216,-108.0984,26.447,-0.0116,0.0558,103.4295,-0.0305,-2.3613,9.7089,-0.0002,0.3639,0.8736,-0.0012,-1.976
64232,-108.0984,26.447,-0.0116,0.0558,103.4295,-0.0305,-2.3613,9.7089,-0.0002,0.3639,0.8736,-0.0012,-1.976
64248,-108.0984,26.447,-0.0116,0.0558,103.4295,-0.0305,-2.3613,9.7089,-0.0002,0.3639,0.8736,-0.0012,-1.976
64266,-108.3238,27.3804,-0.0114,0.037,103.3689,-0.0105,-2.3456,9.7805,-0.0001,0.1644,0.7478,0.0012,-1.0597
64280,-108.3238,27.3804,-0.0114,0.037,103.3689,-0.0105,-2.3456,9.7805,-0.0001,0.1644,0.7478,0.0012,-1.0597
64296,-108.3238,27.3804,-0.0114,0.037,103.3689,-0.0105,-2.3456,9.7805,-0.0001,0.1644,0.7478,0.0012,-1.0597
64312,-108.3238,27.3804,-0.0114,0.037,103.3689,-0.0105,-2.3456,9.7805,-0.0001,0.1644,0.7478,0.0012,-1.0597
64328,-108.3238,27.3804,-0.0114,0.037,103.3689,-0.0105,-2.3456,9.7805,-0.0001,0.1644,0.7478,0.0012,-1.0597
64344,-108.3238,27.3804,-0.0114,0.037,103.3689,-0.0105,-2.3456,9.7805,-0.0001,0.1644,0.7478,0.0012,-1.0597
64360,-108.5402,28.2859,-0.0114,0.0263,103.3523,-0.0027,-2.3459,9.8445,-0.0,-0.0036,0.6932,0.0009,-0.7242
64376,-108.5402,28.2859,-0.0114,0.0263,103.3523,-0.0027,-2.3459,9.8445,-0.0,-0.0036,0.6932,0.0009,-0.7242
64392,-108.5402,28.2859,-0.0114,0.0263,103.3523,-0.0027,-2.3459,9.8445,-0.0,-0.0036,0.6932,0.0009,-0.7242
64408,-108.5402,28.2859,-0.0114,0.0263,103.3523,-0.0027,-2.3459,9.8445,-0.0,-0.0036,0.6932,0.0009,-0.7242
64424,-108.5402,28.2859,-0.0114,0.0263,103.3523,-0.0027,-2.3459,9.8445,-0.0,-0.0036,0.6932,0.0009,-0.7242
64440,-108.5402,28.2859,-0.0114,0.0263,103.3523,-0.0027,-2.3459,9.8445,-0.0,-0.0036,0.6932,0.0009,-0.7242
64456,-108.7676,29.2418,-0.0113,0.0188,103.3469,0.0001,-2.3504,9.8897,0.0,-0.0467,0.4675,0.0004,-0.7518
64472,-108.7676,29.2418,-0.0113,0.0188,103.3469,0.0001,-2.3504,9.8897,0.0,-0.0467,0.4675,0.0004,-0.7518
64488,-108.7676,29.2418,-0.0113,0.0188,103.3469,0.0001,-2.3504,9.8897,0.0,-0.0467,0.4675,0.0004,-0.7518
64504,-108.7676,29.2418,-0.0113,0.0188,103.3469,0.0001,-2.3504,9.8897,0.0,-0.0467,0.4675,0.0004,-0.7518
64520,-108.7676,29.2418,-0.0113,0.0188,103.3469,0.0001,-2.3504,9.8897,0.0,-0.0467,0.4675,0.0004,-0.7518
64537,-108.9826,30.1472,-0.0113,0.0151,103.346,0.0007,-2.3608,9.9437,0.0,-0.114,0.5911,0.0002,-0.5908
64552,-108.9826,30.1472,-0.0113,0.0151,103.346,0.0007,-2.3608,9.9437,0.0,-0.114,0.5911,0.0002,-0.5908
64568,-108.9826,30.1472,-0.0113,0.0151,103.346,0.0007,-2.3608,9.9437,0.0,-0.114,0.5911,0.0002,-0.5908
64584,-108.9826,30.1472,-0.0113,0.0151,103.346,0.0007,-2.3608,9.9437,0.0,-0.114,0.5911,0.0002,-0.5908
64600,-108.9826,30.1472,-0.0113,0.0151,103.346,0.0007,-2.3608,9.9437,0.0,-0.114,0.5911,0.0002,-0.5908
64616,-108.9826,30.1472,-0.0113,0.0151,103.346,0.0007,-2.3608,9.9437,0.0,-0.114,0.5911,0.0002,-0.5908
64633,-109.2061,31.0888,-0.0113,0.0124,103.3454,0.0006,-2.3701,9.9866,0.0,-0.0983,0.4539,-0.0003,-0.6544
64648,-109.2061,31.0888,-0.0113,0.0124,103.3454,0.0006,-2.3701,9.9866,0.0,-0.0983,0.4539,-0.0003,-0.6544
64664,-109.2061,31.0888,-0.0113,0.0124,103.3454,0.0006,-2.3701,9.9866,0.0,-0.0983,0.4539,-0.0003,-0.6544
64680,-109.2061,31.0888,-0.0113,0.0124,103.3454,0.0006,-2.3701,9.9866,0.0,-0.0983,0.4539,-0.0003,-0.6544
64696,-109.2061,31.0888,-0.0113,0.0124,103.3454,0.0006,-2.3701,9.9866,0.0,-0.0983,0.4539,-0.0003,-0.6544
64712,-109.2061,31.0888,-0.0113,0.0124,103.3454,0.0006,-2.3701,9.9866,0.0,-0.0983,0.4539,-0.0003,-0.6544
64730,-109.432,32.0403,-0.0112,0.0106,103.3453,0.0005,-2.3796,10.0277,0.0,-0.0994,0.4325,-0.0,-0.6603
64744,-109.432,32.0403,-0.0112,0.0106,103.3453,0.0005,-2.3796,10.0277,0.0,-0.0994,0.4325,-0.0,-0.6603
64760,-109.432,32.0403,-0.0112,0.0106,103.3453,0.0005,-2.3796,10.0277,0.0,-0.0994,0.4325,-0.0,-0.6603
64776,-109.432,32.0403,-0.0112,0.0106,103.3453,0.0005,-2.3796,10.0277,0.0,-0.0994,0.4325,-0.0,-0.6603
64792,-109.432,32.0403,-0.0112,0.0106,103.3453,0.0005,-2.3796,10.0277,0.0,-0.0994,0.4325,-0.0,-0.6603
64808,-109.432,32.0403,-0.0112,0.0106,103.3453,0.0005,-2.3796,10.0277,0.0,-0.0994,0.4325,-0.0,-0.6603
64825,-109.6587,32.9957,-0.0112,0.0095,103.3452,0.0003,-2.3892,10.0689,0.0,-0.1018,0.4337,-0.0001,-0.6529
64840,-109.6587,32.9957,-0.0112,0.0095,103.3452,0.0003,-2.3892,10.0689,0.0,-0.1018,0.4337,-0.0001,-0.6529
64856,-109.6587,32.9957,-0.0112,0.0095,103.3452,0.0003,-2.3892,10.0689,0.0,-0.1018,0.4337,-0.0001,-0.6529
64872,-109.6587,32.9957,-0.0112,0.0095,103.3452,0.0003,-2.3892,10.0689,0.0,-0.1018,0.4337,-0.0001,-0.6529
64888,-109.6587,32.9957,-0.0112,0.0095,103.3452,0.0003,-2.3892,10.0689,0.0,-0.1018,0.4337,-0.0001,-0.6529
64904,-109.6587,32.9957,-0.0112,0.0095,103.3452,0.0003,-2.3892,10.0689,0.0,-0.1018,0.4337,-0.0001,-0.6529
64920,-109.8861,33.954,-0.0112,0.0088,103.3453,0.0002,-2.3989,10.1099,0.0,-0.1021,0.4319,0.0,-0.6433
64936,-109.8861,33.954,-0.0112,0.0088,103.3453,0.0002,-2.3989,10.1099,0.0,-0.1021,0.4319,0.0,-0.6433
64952,-109.8861,33.954,-0.0112,0.0088,103.3453,0.0002,-2.3989,10.1099,0.0,-0.1021,0.4319,0.0,-0.6433
64968,-109.8861,33.954,-0.0112,0.0088,103.3453,0.0002,-2.3989,10.1099,0.0,-0.1021,0.4319,0.0,-0.6433
64984,-109.8861,33.954,-0.0112,0.0088,103.3453,0.0002,-2.3989,10.1099,0.0,-0.1021,0.4319,0.0,-0.6433
65000,-109.8861,33.954,-0.0112,0.0088,103.3453,0.0002,-2.3989,10.1099,0.0,-0.1021,0.4319,0.0,-0.6433
65018,-110.12,34.9399,-0.0112,0.0081,103.3451,0.0001,-2.4075,10.1461,-0.0,-0.0882,0.3712,-0.0001,-0.6936
