timestamp,x,y,z,pitch,yaw,roll,vx,vy,vz,ax,ay,az,yaw_rate
6232,-106.6867,-4.8475,0.5186,0.0,-89.3578,0.0,0.0,0.0,-1.2044,0.0,0.0,-9.8,0.0
6248,-106.6867,-4.8475,0.5057,0.0,-89.3578,0.0,0.0,0.0,-1.3013,0.0,0.0,-9.8,0.0
6264,-106.6867,-4.8475,0.5057,0.0,-89.3578,0.0,0.0,0.0,-1.3013,0.0,0.0,-9.8,0.0
6282,-106.6867,-4.8475,0.4523,0.0,-89.3578,0.0,0.0,0.0,-1.6467,0.0,0.0,-9.8,0.0
6296,-106.6867,-4.8475,0.4184,0.0,-89.3578,0.0,0.0,0.0,-1.8326,0.0,0.0,-9.8,0.0
6312,-106.6867,-4.8475,0.4184,0.0,-89.3578,0.0,0.0,0.0,-1.8326,0.0,0.0,-9.8,0.0
6328,-106.6867,-4.8475,0.3838,0.0,-89.3578,0.0,0.0,0.0,-2.0056,0.0,0.0,-9.8,0.0
6344,-106.6867,-4.8475,0.3418,0.0,-89.3578,0.0,0.0,0.0,-2.1968,0.0,0.0,-9.8,0.0
6362,-106.6867,-4.8475,0.3008,0.0,-89.3578,0.0,0.0,0.0,-2.3696,0.0,0.0,-9.8,0.0
6376,-106.6867,-4.8475,0.2598,0.0,-89.3578,0.0,0.0,0.0,-2.5309,0.0,0.0,-9.8,0.0
6392,-106.6867,-4.8475,0.2127,0.0,-89.3578,0.0,0.0,0.0,-2.7045,0.0,0.0,-9.8,0.0
6410,-106.6867,-4.8475,0.164,0.0,-89.3578,0.0,0.0,0.0,-2.8731,0.0,0.0,-9.8,0.0
6426,-106.6867,-4.8475,0.1123,0.0,-89.3578,0.0,0.0,0.0,-3.0418,0.0,0.0,-9.8,0.0
6441,-106.6867,-4.8475,0.0582,0.0,-89.3578,0.0,0.0,0.0,-3.2094,0.0,0.0,-9.8,0.0
6457,-106.6867,-4.8457,0.0129,-0.0025,-89.3578,0.0,-0.0006,0.0521,-2.4335,-0.0339,3.0223,45.0323,0.0008
6472,-106.6869,-4.8424,-0.0202,-0.0065,-89.3423,0.0,-0.0017,0.1471,-1.7861,-0.0663,5.5503,37.8223,1.8049
6488,-106.687,-4.8394,-0.0437,-0.0086,-89.3384,0.0001,-0.003,0.1704,-1.2853,-0.079,1.3929,29.9007,0.141
6504,-106.6869,-4.8359,-0.0604,-0.0106,-89.3613,0.0001,-0.0028,0.212,-0.8883,0.0169,2.4406,23.3128,-2.6819
6520,-106.6869,-4.8359,-0.0604,-0.0106,-89.3613,0.0001,-0.0028,0.212,-0.8883,0.0169,2.4406,23.3128,-2.6819
6536,-106.6869,-4.8314,-0.0725,-0.0128,-89.3574,0.0,-0.0023,0.2636,-0.5517,0.0212,2.6991,17.6045,-0.2528
6553,-106.687,-4.8256,-0.0792,-0.0155,-89.3499,-0.0002,-0.0021,0.3049,-0.302,0.0139,2.212,13.3509,-0.95
6570,-106.6869,-4.8183,-0.082,-0.0201,-89.3709,-0.0003,-0.0028,0.4524,-0.1313,-0.0419,8.6875,10.0578,-1.562
6585,-106.687,-4.8095,-0.0826,-0.0247,-89.36,-0.0003,-0.0053,0.5273,-0.0031,-0.1439,4.3183,7.3883,1.0096
6602,-106.6872,-4.7986,-0.0813,-0.0303,-89.3494,-0.0002,-0.0063,0.6595,0.0898,-0.058,7.6196,5.3578,0.5799
6618,-106.6874,-4.784,-0.0784,-0.0368,-89.3544,-0.0001,-0.0091,0.773,0.1619,-0.1411,5.7264,3.6371,-0.0181
6632,-106.6874,-4.784,-0.0784,-0.0368,-89.3544,-0.0001,-0.0091,0.773,0.1619,-0.1411,5.7264,3.6371,-0.0181
6649,-106.6876,-4.7633,-0.0734,-0.0433,-89.3529,0.0,-0.0103,0.8943,0.2154,-0.048,4.9266,2.1723,0.0417
6664,-106.6877,-4.7468,-0.0695,-0.0479,-89.3582,-0.0001,-0.0095,0.9887,0.235,0.049,5.5728,1.1544,-1.2971
6681,-106.6877,-4.7265,-0.0645,-0.0533,-89.396,-0.0001,-0.0132,1.1438,0.2804,-0.1976,8.2753,2.425,-5.0483
6697,-106.6879,-4.7051,-0.0596,-0.0578,-89.3914,-0.0005,-0.0091,1.2084,0.2693,0.2252,3.5475,-0.6091,-2.6953
6714,-106.6882,-4.685,-0.0553,-0.0598,-89.3773,-0.0002,-0.0172,1.2775,0.2534,-0.488,4.1667,-0.9597,-0.6716
6728,-106.6886,-4.6643,-0.0514,-0.0616,-89.3597,0.0002,-0.0135,1.2665,0.239,0.2273,-0.6903,-0.9009,-1.5009
6744,-106.6889,-4.6414,-0.0474,-0.0609,-89.3398,0.0001,-0.0126,1.2659,0.2265,0.055,-0.0306,-0.708,-1.7042
6760,-106.6889,-4.6414,-0.0474,-0.0609,-89.3398,0.0001,-0.0126,1.2659,0.2265,0.055,-0.0306,-0.708,-1.7042
6776,-106.6894,-4.6169,-0.0433,-0.0584,-89.3202,0.0002,-0.013,1.2649,0.2098,-0.0252,-0.0537,-0.8898,-1.9279
6792,-106.6897,-4.5924,-0.0397,-0.0547,-89.3066,0.0002,-0.0131,1.2625,0.1903,-0.0039,-0.1302,-1.0308,-2.2487
6809,-106.6899,-4.5702,-0.0367,-0.0508,-89.307,0.0002,-0.0127,1.26,0.1707,0.0216,-0.1441,-1.1439,-2.7985
6825,-106.6902,-4.5482,-0.034,-0.047,-89.3107,0.0002,-0.0134,1.2645,0.1553,-0.0403,0.2677,-0.9111,-2.8573
6841,-106.6905,-4.5248,-0.0315,-0.0431,-89.3077,0.0004,-0.017,1.267,0.1414,-0.1998,0.1398,-0.7715,-2.5715
6857,-106.6908,-4.5012,-0.0293,-0.0428,-89.3053,0.0004,-0.0154,1.398,0.1264,0.0959,7.8396,-0.8957,0.7389
6873,-106.6909,-4.4766,-0.0274,-0.044,-89.3303,0.0004,-0.0187,1.5206,0.1143,-0.1988,7.4733,-0.7416,-3.6206
6889,-106.6913,-4.4489,-0.0255,-0.0456,-89.3243,0.0009,-0.0248,1.5662,0.1036,-0.351,2.5923,-0.6054,-1.6456
6906,-106.6917,-4.4183,-0.0237,-0.0478,-89.3167,0.0005,-0.0142,1.6811,0.0927,0.577,6.2374,-0.5941,-3.0549
6920,-106.6918,-4.3877,-0.0222,-0.0488,-89.3396,-0.0002,-0.0153,1.6642,0.0819,-0.061,-0.9439,-0.6042,-1.1957
6936,-106.6918,-4.3877,-0.0222,-0.0488,-89.3396,-0.0002,-0.0153,1.6642,0.0819,-0.061,-0.9439,-0.6042,-1.1957
6952,-106.6919,-4.3571,-0.0209,-0.0505,-89.3688,-0.0006,-0.0149,1.7785,0.0726,0.0238,6.6963,-0.5456,-0.448
6968,-106.6922,-4.3215,-0.0196,-0.0538,-89.3671,-0.0007,-0.0185,1.9051,0.065,-0.1975,6.8528,-0.4103,-1.4888
6984,-106.6925,-4.2872,-0.0186,-0.0578,-89.3729,-0.0007,-0.0199,2.0599,0.057,-0.081,9.2464,-0.475,2.1108
7000,-106.6928,-4.2519,-0.0177,-0.059,-89.3709,-0.0008,-0.0184,2.0639,0.051,0.0881,0.2331,-0.3527,1.517
7018,-106.6931,-4.2173,-0.0169,-0.0583,-89.3764,-0.0008,-0.0187,2.0756,0.0453,-0.0211,0.6942,-0.3381,1.1464
7032,-106.6934,-4.1808,-0.0162,-0.0562,-89.3799,-0.0006,-0.0208,2.0776,0.0405,-0.1187,0.1183,-0.2758,1.5738
7050,-106.6938,-4.1409,-0.0155,-0.0533,-89.383,-0.0004,-0.021,2.092,0.0359,-0.0076,0.7537,-0.2423,1.606
7065,-106.6941,-4.1009,-0.0149,-0.0502,-89.3906,-0.0004,-0.0208,2.1103,0.0312,0.0075,0.9667,-0.2443,1.4037
7082,-106.6945,-4.0648,-0.0145,-0.0493,-89.3932,-0.0002,-0.0227,2.2435,0.0271,-0.112,8.0538,-0.2485,0.938
7096,-106.6949,-4.0239,-0.014,-0.0517,-89.4007,0.0003,-0.0317,2.359,0.0242,-0.5146,6.5969,-0.165,2.994
7112,-106.6956,-3.9813,-0.0136,-0.0537,-89.3825,0.0007,-0.0294,2.3421,0.0214,0.1287,-0.9601,-0.1612,1.9645
7128,-106.6962,-3.9384,-0.0133,-0.0571,-89.3731,0.0009,-0.0328,2.5393,0.0189,-0.2014,11.7103,-0.1507,-0.5056
7145,-106.6969,-3.8936,-0.013,-0.0603,-89.3506,0.001,-0.032,2.6468,0.0168,0.0456,6.328,-0.124,3.1271
7160,-106.6969,-3.8936,-0.013,-0.0603,-89.3506,0.001,-0.032,2.6468,0.0168,0.0456,6.328,-0.124,3.1271
7176,-106.6977,-3.8439,-0.0127,-0.063,-89.3282,0.0012,-0.0364,2.7344,0.0149,-0.2414,4.8115,-0.1037,4.9998
7194,-106.6987,-3.795,-0.0124,-0.0649,-89.2947,0.0018,-0.0401,2.7435,0.013,-0.2123,0.5211,-0.107,2.3001
7208,-106.6998,-3.7444,-0.0122,-0.0685,-89.2482,0.0022,-0.0445,2.9516,0.0115,-0.2569,12.1503,-0.0897,3.283
7224,-106.7008,-3.6909,-0.012,-0.0705,-89.2233,0.0023,-0.044,2.994,0.0102,0.0315,2.395,-0.0739,0.4998
7242,-106.7017,-3.6343,-0.0118,-0.0745,-89.2056,0.0022,-0.0457,3.1671,0.0089,-0.0958,9.7485,-0.0692,1.5332
7257,-106.7027,-3.5678,-0.0116,-0.0777,-89.1968,0.0021,-0.0483,3.3295,0.0074,-0.1314,8.0203,-0.0744,2.1808
7272,-106.7027,-3.5678,-0.0116,-0.0777,-89.1968,0.0021,-0.0483,3.3295,0.0074,-0.1314,8.0203,-0.0744,2.1808
7289,-106.7045,-3.4443,-0.0113,-0.0822,-89.1906,0.0016,-0.0484,3.4612,0.0059,-0.0558,2.0787,-0.052,-0.0949
7304,-106.7045,-3.4443,-0.0113,-0.0822,-89.1906,0.0016,-0.0484,3.4612,0.0059,-0.0558,2.0787,-0.052,-0.0949
7320,-106.7053,-3.3837,-0.0112,-0.0847,-89.1957,0.0014,-0.0506,3.6356,0.0053,-0.132,10.5061,-0.0418,-0.1922
7337,-106.7064,-3.3109,-0.0111,-0.0852,-89.1861,0.0013,-0.0514,3.6594,0.0047,-0.042,1.2135,-0.0303,0.4335
7354,-106.7071,-3.2439,-0.011,-0.0865,-89.2212,0.001,-0.0528,3.8322,0.004,-0.0782,9.8931,-0.0376,-2.9403
7370,-106.7082,-3.1701,-0.011,-0.0865,-89.2074,0.0007,-0.0527,3.8626,0.0035,0.0055,1.6085,-0.0252,0.3618
7385,-106.7092,-3.0934,-0.0109,-0.0885,-89.2049,0.0006,-0.0555,4.0716,0.0031,-0.1493,11.0909,-0.0248,0.7029
7400,-106.7092,-3.0934,-0.0109,-0.0885,-89.2049,0.0006,-0.0555,4.0716,0.0031,-0.1493,11.0909,-0.0248,0.7029
7417,-106.7102,-3.0118,-0.0108,-0.0887,-89.2289,0.0004,-0.0554,4.11,0.0027,0.0015,1.955,-0.02,-1.5205
7432,-106.7112,-2.9332,-0.0108,-0.0873,-89.2256,0.0003,-0.0562,4.1511,0.0023,-0.039,2.195,-0.0203,-0.7288
7450,-106.7121,-2.8573,-0.0108,-0.0883,-89.2427,0.0001,-0.0577,4.3636,0.002,-0.0865,12.2115,-0.0168,-1.0716
7464,-106.7129,-2.7823,-0.0107,-0.0896,-89.268,-0.0002,-0.0579,4.4599,0.0018,-0.0114,5.7485,-0.0144,-1.1848
7480,-106.714,-2.6984,-0.0107,-0.0903,-89.2619,-0.0003,-0.0589,4.5359,0.0016,-0.0586,4.1424,-0.011,-0.3319
7498,-106.7148,-2.6202,-0.0107,-0.0905,-89.2901,-0.0006,-0.0584,4.6478,0.0014,0.0322,6.6716,-0.0108,-1.106
7514,-106.7159,-2.5398,-0.0106,-0.091,-89.2844,-0.0007,-0.0597,4.7477,0.0012,-0.0793,5.9096,-0.0095,-0.2744
7530,-106.7167,-2.4549,-0.0106,-0.0914,-89.3091,-0.0009,-0.0594,4.8488,0.0011,0.0202,5.7978,-0.0075,-0.7059
7546,-106.7178,-2.3706,-0.0106,-0.092,-89.3,-0.001,-0.0612,4.9585,0.0009,-0.1054,6.4657,-0.0077,-0.1775
7560,-106.7188,-2.2834,-0.0106,-0.0928,-89.3186,-0.0011,-0.061,5.0723,0.0008,0.0107,6.6324,-0.0062,-0.3265
7576,-106.7188,-2.2834,-0.0106,-0.0928,-89.3186,-0.0011,-0.061,5.0723,0.0008,0.0107,6.6324,-0.0062,-0.3265
7592,-106.7201,-2.1819,-0.0106,-0.0932,-89.3026,-0.0011,-0.0626,5.1579,0.0007,-0.0806,4.3757,-0.0053,0.0249
7608,-106.7211,-2.0838,-0.0106,-0.093,-89.3262,-0.0012,-0.0626,5.2611,0.0006,-0.0028,5.5583,-0.0051,-0.4502
7624,-106.7225,-1.982,-0.0105,-0.0928,-89.3093,-0.0011,-0.0646,5.3667,0.0005,-0.1045,5.5849,-0.0052,0.185
7642,-106.7235,-1.886,-0.0105,-0.093,-89.3264,-0.0011,-0.0648,5.4886,0.0005,-0.0144,6.9764,-0.0044,-0.2173
7657,-106.7248,-1.7852,-0.0105,-0.0939,-89.3135,-0.001,-0.0674,5.6199,0.0004,-0.1399,7.321,-0.0029,0.0967
7674,-106.7258,-1.689,-0.0105,-0.0954,-89.326,-0.001,-0.0679,5.7562,0.0004,-0.0319,8.1491,-0.0022,-0.0985
7690,-106.7271,-1.5879,-0.0105,-0.0978,-89.3173,-0.0009,-0.0705,5.9134,0.0003,-0.1534,9.1833,-0.0024,0.0613
7704,-106.7283,-1.4846,-0.0105,-0.101,-89.326,-0.0009,-0.0717,6.0745,0.0003,-0.0701,9.447,-0.0036,-0.2055
7720,-106.7297,-1.3713,-0.0104,-0.1045,-89.3165,-0.0008,-0.074,6.2245,0.0003,-0.1281,8.2397,-0.0007,0.3165
7736,-106.7297,-1.3713,-0.0104,-0.1045,-89.3165,-0.0008,-0.074,6.2245,0.0003,-0.1281,8.2397,-0.0007,0.3165
7752,-106.7309,-1.2606,-0.0104,-0.107,-89.3285,-0.0008,-0.0748,6.3448,0.0002,-0.0438,6.8926,-0.002,-0.4697
7768,-106.7324,-1.1444,-0.0104,-0.1087,-89.3152,-0.0006,-0.0768,6.4632,0.0002,-0.1121,6.5899,-0.0018,0.4232
7785,-106.7337,-1.0228,-0.0104,-0.1097,-89.3306,-0.0007,-0.0775,6.5797,0.0002,-0.0379,6.3091,-0.0011,-0.4705
7802,-106.7351,-0.9091,-0.0104,-0.1103,-89.3188,-0.0006,-0.0795,6.7073,0.0001,-0.1192,7.5246,-0.0017,0.3604
7818,-106.7364,-0.7936,-0.0104,-0.1115,-89.3268,-0.0006,-0.0808,6.8579,0.0001,-0.0774,8.9228,-0.0006,-0.2469
7834,-106.738,-0.6653,-0.0103,-0.1133,-89.3216,-0.0005,-0.083,7.0155,0.0001,-0.1169,8.5955,-0.001,0.1265
7850,-106.7396,-0.5271,-0.0103,-0.1147,-89.3275,-0.0005,-0.0842,7.1428,0.0001,-0.0612,6.5755,-0.0008,-0.1877
7864,-106.7411,-0.4004,-0.0103,-0.1146,-89.3216,-0.0004,-0.0856,7.2392,0.0001,-0.079,5.5052,-0.0011,0.2497
7880,-106.7411,-0.4004,-0.0103,-0.1146,-89.3216,-0.0004,-0.0856,7.2392,0.0001,-0.079,5.5052,-0.0011,0.2497
7898,-106.7442,-0.1377,-0.0103,-0.114,-89.3215,-0.0004,-0.0883,7.4778,0.0001,-0.0985,6.7488,-0.0009,0.2664
7912,-106.7442,-0.1377,-0.0103,-0.114,-89.3215,-0.0004,-0.0883,7.4778,0.0001,-0.0985,6.7488,-0.0009,0.2664
7930,-106.7458,-0.0012,-0.0103,-0.1137,-89.3287,-0.0004,-0.0894,7.6017,0.0001,-0.0616,6.8911,0.0002,-0.2041
7944,-106.7473,0.1292,-0.0103,-0.1136,-89.3233,-0.0003,-0.0911,7.7245,0.0001,-0.0992,7.2559,-0.0005,0.1577
7961,-106.749,0.2709,-0.0103,-0.1138,-89.3268,-0.0003,-0.0925,7.8609,0.0001,-0.0782,7.5564,-0.0001,-0.0571
7978,-106.7507,0.4181,-0.0103,-0.114,-89.325,-0.0003,-0.0941,7.9905,0.0,-0.0867,7.0233,-0.0003,0.0353
7993,-106.7524,0.5606,-0.0103,-0.1139,-89.3259,-0.0003,-0.0954,8.1047,0.0,-0.0735,6.4846,-0.0009,-0.0213
8010,-106.7541,0.7014,-0.0103,-0.1137,-89.3252,-0.0002,-0.0968,8.2205,0.0,-0.0811,6.7479,-0.0002,0.0152
8026,-106.7558,0.8468,-0.0103,-0.1135,-89.3255,-0.0002,-0.0982,8.3414,0.0,-0.0808,6.9194,-0.0005,-0.0019
8040,-106.7577,1.0057,-0.0103,-0.1132,-89.3254,-0.0002,-0.0996,8.4627,0.0,-0.0762,6.4522,-0.0002,0.0016
8056,-106.7577,1.0057,-0.0103,-0.1132,-89.3254,-0.0002,-0.0996,8.4627,0.0,-0.0762,6.4522,-0.0002,0.0016
8072,-106.7595,1.1617,-0.0103,-0.1125,-89.3254,-0.0002,-0.1009,8.5695,0.0,-0.069,5.8556,-0.0001,0.0006
8088,-106.7613,1.3144,-0.0103,-0.1115,-89.3254,-0.0002,-0.1021,8.6721,0.0,-0.0686,5.8187,-0.0003,0.0007
8105,-106.7633,1.4848,-0.0103,-0.1102,-89.3254,-0.0002,-0.1034,8.7792,0.0,-0.0649,5.5108,0.0001,0.0005
8122,-106.7652,1.6457,-0.0104,-0.1085,-89.3254,-0.0001,-0.1044,8.8676,0.0,-0.0574,4.8645,0.0006,0.0005
8138,-106.7672,1.8139,-0.0104,-0.1065,-89.3254,-0.0001,-0.1055,8.9619,0.0,-0.0591,5.0201,-0.0003,0.0004
8152,-106.7692,1.984,-0.0104,-0.1044,-89.3254,-0.0001,-0.1066,9.0519,-0.0,-0.0565,4.7885,-0.0011,0.0002
8168,-106.771,2.1376,-0.0104,-0.1026,-89.3254,-0.0001,-0.1077,9.1446,0.0,-0.065,5.5101,0.0006,0.0006
8184,-106.771,2.1376,-0.0104,-0.1026,-89.3254,-0.0001,-0.1077,9.1446,0.0,-0.065,5.5101,0.0006,0.0006
8200,-106.773,2.3057,-0.0104,-0.1013,-89.3253,-0.0001,-0.109,9.2553,0.0,-0.0717,6.0815,0.0008,0.0003
8216,-106.7751,2.4855,-0.0104,-0.1002,-89.3254,-0.0001,-0.1102,9.363,0.0,-0.066,5.6015,-0.0001,0.0001
8234,-106.7771,2.6566,-0.0104,-0.0992,-89.3254,-0.0001,-0.1114,9.4606,0.0,-0.0635,5.3871,-0.0009,0.0
8250,-106.7791,2.826,-0.0104,-0.0983,-89.3254,-0.0001,-0.1126,9.5595,0.0,-0.0656,5.5691,-0.0001,0.0
8266,-106.7811,2.997,-0.0104,-0.0975,-89.3254,-0.0001,-0.1137,9.6586,0.0,-0.0659,5.5903,0.0001,0.0
8282,-106.7832,3.176,-0.0104,-0.0967,-89.3254,-0.0001,-0.1149,9.7583,0.0,-0.0639,5.4265,-0.0,0.0
8296,-106.7854,3.3601,-0.0105,-0.0959,-89.3254,-0.0,-0.116,9.8552,0.0,-0.061,5.1767,-0.0,-0.0
8312,-106.7854,3.3601,-0.0105,-0.0959,-89.3254,-0.0,-0.116,9.8552,0.0,-0.061,5.1767,-0.0,-0.0
8328,-106.7879,3.5716,-0.0105,-0.0951,-89.3254,-0.0,-0.1175,9.9788,0.0,-0.0684,5.8077,-0.0001,-0.0
8345,-106.79,3.7536,-0.0105,-0.0945,-89.3254,-0.0001,-0.1186,10.0755,-0.0,-0.0629,5.3421,-0.0013,-0.0
8362,-106.792,3.9234,-0.0105,-0.0939,-89.3254,-0.0001,-0.1197,10.1622,-0.0,-0.061,5.1733,0.0002,-0.0
8378,-106.794,4.0943,-0.0105,-0.0932,-89.3254,-0.0,-0.1207,10.2464,0.0,-0.0594,5.0411,0.0014,0.0
8394,-106.7961,4.2727,-0.0105,-0.0925,-89.3254,-0.0,-0.1217,10.3316,0.0,-0.0579,4.9215,0.0003,-0.0
8410,-106.7982,4.452,-0.0105,-0.0916,-89.3254,-0.0,-0.1226,10.4145,0.0,-0.0566,4.8028,-0.0007,-0.0
8426,-106.8004,4.6362,-0.0105,-0.0906,-89.3254,-0.0,-0.1236,10.497,0.0,-0.0553,4.695,-0.0,0.0
8442,-106.8026,4.8257,-0.0105,-0.0896,-89.3253,-0.0,-0.1246,10.5795,0.0,-0.0541,4.5935,0.0001,0.0
8456,-106.8026,4.8257,-0.0105,-0.0896,-89.3253,-0.0,-0.1246,10.5795,0.0,-0.0541,4.5935,0.0001,0.0
8472,-106.8049,5.0188,-0.0105,-0.0884,-89.3253,-0.0,-0.1255,10.6611,0.0,-0.0529,4.4977,0.0002,0.0001
8488,-106.8072,5.2136,-0.0105,-0.0873,-89.3253,-0.0,-0.1265,10.7412,0.0,-0.0519,4.4079,-0.0001,0.0001
8505,-106.8096,5.4167,-0.0105,-0.086,-89.3253,0.0,-0.1274,10.8225,0.0,-0.0509,4.3252,-0.0001,0.0001
8521,-106.8119,5.6169,-0.0105,-0.0847,-89.3253,0.0,-0.1284,10.9006,0.0,-0.05,4.2443,-0.0002,0.0001
8538,-106.8143,5.8148,-0.0105,-0.0834,-89.3254,0.0,-0.1292,10.9759,-0.0,-0.0491,4.1704,-0.0009,0.0002
8553,-106.8165,6.0032,-0.0106,-0.0822,-89.3254,-0.0,-0.1301,11.046,0.0,-0.0485,4.1016,0.0014,0.0001
8570,-106.8188,6.1958,-0.0106,-0.081,-89.3253,-0.0,-0.1309,11.1161,-0.0,-0.0475,4.0418,-0.0007,0.0002
8584,-106.8211,6.3905,-0.0106,-0.0798,-89.3253,0.0,-0.1317,11.1856,-0.0,-0.0469,3.9834,0.0,0.0001
8600,-106.8233,6.5856,-0.0106,-0.0786,-89.3253,0.0,-0.1325,11.2538,0.0,-0.0462,3.927,0.0002,0.0001
8616,-106.8233,6.5856,-0.0106,-0.0786,-89.3253,0.0,-0.1325,11.2538,0.0,-0.0462,3.927,0.0002,0.0001
8632,-106.8259,6.8014,-0.0106,-0.0774,-89.3253,0.0,-0.1334,11.3277,0.0,-0.0456,3.8724,0.0001,0.0002
8650,-106.8284,7.0151,-0.0106,-0.0761,-89.3253,0.0,-0.1342,11.3993,0.0,-0.0449,3.8151,-0.0001,0.0002
8666,-106.8307,7.2066,-0.0106,-0.075,-89.3253,0.0,-0.135,11.4622,0.0,-0.0443,3.7614,0.0,0.0002
8680,-106.833,7.4035,-0.0106,-0.074,-89.3254,0.0,-0.1357,11.5258,0.0,-0.0438,3.7151,0.0003,0.0001
8698,-106.8353,7.5998,-0.0106,-0.073,-89.3254,0.0,-0.1365,11.588,0.0,-0.0432,3.6688,-0.0003,0.0001
8713,-106.8376,7.7959,-0.0106,-0.0719,-89.3254,-0.0,-0.1372,11.6491,-0.0,-0.0426,3.624,-0.0007,0.0001
8730,-106.8401,8.0049,-0.0106,-0.0709,-89.3254,-0.0,-0.1379,11.7131,-0.0,-0.0423,3.5797,0.0002,0.0001
8746,-106.8424,8.2082,-0.0106,-0.0699,-89.3254,-0.0,-0.1386,11.7742,-0.0,-0.0416,3.535,-0.0003,0.0001
8760,-106.845,8.4245,-0.0107,-0.0689,-89.3254,0.0,-0.1394,11.8381,-0.0,-0.0411,3.4914,0.0006,0.0001
8776,-106.845,8.4245,-0.0107,-0.0689,-89.3254,0.0,-0.1394,11.8381,-0.0,-0.0411,3.4914,0.0006,0.0001
8792,-106.8476,8.6417,-0.0107,-0.0679,-89.3254,0.0,-0.1401,11.9011,0.0,-0.0405,3.447,0.0001,0.0001
8808,-106.85,8.8512,-0.0107,-0.067,-89.3254,0.0,-0.1408,11.9608,0.0,-0.0401,3.4043,-0.0,0.0001
8825,-106.853,9.1019,-0.0107,-0.0659,-89.3254,0.0,-0.1417,12.0309,0.0,-0.0396,3.3586,0.0001,-0.0
8842,-106.8553,9.3023,-0.0107,-0.0651,-89.3253,0.0,-0.1423,12.086,0.0,-0.0391,3.3172,-0.0001,-0.0
8857,-106.8577,9.5046,-0.0107,-0.0643,-89.3253,0.0,-0.143,12.1407,-0.0,-0.0386,3.2796,-0.0008,-0.0
8875,-106.8601,9.7061,-0.0107,-0.0635,-89.3253,0.0,-0.1436,12.1943,-0.0,-0.0381,3.2427,0.0004,-0.0
8891,-106.8627,9.9247,-0.0107,-0.0627,-89.3253,0.0,-0.1443,12.2516,-0.0,-0.0377,3.2057,-0.0003,-0.0
8904,-106.8655,10.1614,-0.0107,-0.0618,-89.3254,0.0,-0.145,12.3125,0.0,-0.0372,3.1661,0.0009,-0.0
8920,-106.8655,10.1614,-0.0107,-0.0618,-89.3254,0.0,-0.145,12.3125,0.0,-0.0372,3.1661,0.0009,-0.0
8936,-106.8681,10.389,-0.0107,-0.061,-89.3254,0.0,-0.1457,12.3701,0.0,-0.0369,3.1259,0.0,-0.0
8952,-106.8707,10.6075,-0.0107,-0.0602,-89.3254,0.0,-0.1463,12.4245,0.0,-0.0365,3.0883,-0.0001,-0.0
8968,-106.8733,10.83,-0.0107,-0.0594,-89.3254,0.0,-0.1469,12.479,0.0,-0.0359,3.0522,-0.0003,-0.0
8985,-106.8762,11.0739,-0.0107,-0.0586,-89.3254,0.0,-0.1476,12.5377,0.0,-0.0355,3.015,0.0003,-0.0
9000,-106.8788,11.2926,-0.0107,-0.058,-89.3254,0.0,-0.1482,12.5895,0.0,-0.035,2.9774,-0.0002,-0.0
9018,-106.8813,11.5043,-0.0107,-0.0573,-89.3254,0.0,-0.1488,12.6386,-0.0,-0.0345,2.9292,-0.0003,-0.0
9034,-106.8838,11.7208,-0.0107,-0.0566,-89.3254,0.0,-0.1494,12.6857,-0.0,-0.0324,2.7581,-0.0013,-0.0
9048,-106.8838,11.7208,-0.0107,-0.0566,-89.3254,0.0,-0.1494,12.6857,-0.0,-0.0324,2.7581,-0.0013,-0.0
9066,-106.8871,11.994,-0.0107,-0.0555,-89.3254,0.0,-0.15,12.7403,-0.0,-0.03,2.5448,0.0008,-0.0
9080,-106.89,12.2417,-0.0108,-0.0543,-89.3254,0.0,-0.1506,12.7863,-0.0,-0.0279,2.3694,-0.0003,-0.0
9096,-106.8926,12.462,-0.0108,-0.0533,-89.3254,0.0,-0.151,12.8241,0.0,-0.0259,2.2007,0.001,-0.0
9114,-106.8951,12.6765,-0.0108,-0.0521,-89.3254,0.0,-0.1514,12.8584,-0.0,-0.0242,2.0532,-0.0004,-0.0
9129,-106.8979,12.9141,-0.0108,-0.0506,-89.3254,0.0,-0.1518,12.8939,0.0,-0.0227,1.9234,0.0006,-0.0
9145,-106.9004,13.1291,-0.0108,-0.0492,-89.3254,0.0,-0.1522,12.9236,0.0,-0.021,1.7882,-0.0004,-0.0
9162,-106.903,13.3467,-0.0108,-0.0477,-89.3254,0.0,-0.1525,12.9517,0.0,-0.0197,1.6709,-0.0002,-0.0
9178,-106.9055,13.5639,-0.0108,-0.0462,-89.3254,0.0,-0.1528,12.9779,0.0,-0.0184,1.563,-0.0,-0.0
9194,-106.9082,13.7887,-0.0108,-0.0446,-89.3254,0.0,-0.1531,13.0032,-0.0,-0.0172,1.4634,-0.0012,-0.0
9210,-106.9109,14.0167,-0.0108,-0.0429,-89.3253,0.0,-0.1534,13.0272,0.0,-0.0162,1.3679,0.0013,-0.0
9224,-106.9135,14.2442,-0.0109,-0.0412,-89.3253,0.0,-0.1537,13.0494,-0.0,-0.015,1.2759,-0.0002,-0.0
9256,-106.9162,14.4682,-0.0109,-0.0396,-89.3253,0.0,-0.1539,13.0698,-0.0,-0.014,1.1891,-0.0,-0.0
9272,-106.9189,14.7005,-0.0109,-0.0379,-89.3253,0.0,-0.1541,13.0895,0.0,-0.0131,1.1117,0.0004,-0.0
9288,-106.9222,14.9318,-0.0109,-0.0362,-89.3491,0.0043,-0.2105,13.104,0.0,-3.191,0.8204,0.0008,-1.9235
9304,-106.9267,15.1612,-0.0109,-0.0342,-89.4294,0.0161,-0.3156,13.1078,0.0001,-6.0046,0.2177,0.0054,-5.5543
9321,-106.9328,15.3855,-0.0109,-0.0319,-89.5849,0.0346,-0.4503,13.1012,0.0003,-7.87,-0.3897,0.0107,-10.3128
9337,-106.9424,15.6444,-0.0109,-0.0284,-89.8884,0.0641,-0.6352,13.0801,0.0006,-9.3491,-1.0658,0.0129,-17.07
9353,-106.9531,15.8704,-0.0109,-0.0248,-90.2698,0.092,-0.8076,13.0519,0.0008,-9.9575,-1.6268,0.013,-23.7011
9369,-106.966,16.0979,-0.011,-0.0205,-90.7795,0.1218,-0.988,13.0148,0.001,-10.3288,-2.1246,0.0127,-31.0322
9384,-106.9808,16.3208,-0.011,-0.0158,-91.4124,0.1508,-1.1663,12.9711,0.0011,-10.3726,-2.5407,0.0074,-38.7734
9400,-106.9975,16.541,-0.011,-0.0105,-92.1766,0.1782,-1.3399,12.9221,0.0012,-10.1919,-2.8781,0.0066,-46.9047
9416,-107.0166,16.7665,-0.011,-0.0047,-93.1147,0.204,-1.5125,12.8668,0.0013,-9.8419,-3.1529,0.0016,-55.7106
9432,-107.0166,16.7665,-0.011,-0.0047,-93.1147,0.204,-1.5125,12.8668,0.0013,-9.8419,-3.1529,0.0016,-55.7106
9448,-107.0366,16.9827,-0.011,0.0011,-94.1675,0.2255,-1.6687,12.8108,0.0012,-9.2476,-3.3182,-0.0023,-64.5334
9466,-107.0593,17.2107,-0.0111,0.0075,-95.4549,0.2446,-1.8229,12.7489,0.0012,-8.6037,-3.4501,-0.0038,-74.2629
9480,-107.0822,17.4275,-0.0111,0.0134,-96.8519,0.2581,-1.9548,12.6898,0.001,-7.6875,-3.4503,-0.0075,-83.8322
9497,-107.1062,17.6451,-0.0111,0.0191,-98.4338,0.2672,-2.0715,12.6307,0.0009,-6.7381,-3.4076,-0.0093,-93.7399
9512,-107.1302,17.8571,-0.0111,0.0242,-100.153,0.2714,-2.1675,12.5749,0.0007,-5.646,-3.2819,-0.0114,-103.6313
9530,-107.1553,18.075,-0.0112,0.0288,-102.1157,0.2707,-2.2472,12.5198,0.0005,-4.5263,-3.1319,-0.0117,-114.0582
9546,-107.1795,18.2846,-0.0112,0.0323,-104.193,0.2653,-2.3022,12.4705,0.0002,-3.2248,-2.8893,-0.0132,-124.2557
9561,-107.2051,18.5092,-0.0112,0.035,-106.6394,0.2541,-2.339,12.421,-0.0,-1.9912,-2.6807,-0.0133,-135.4193
9578,-107.2279,18.7137,-0.0112,0.0362,-109.0634,0.2396,-2.3465,12.3816,-0.0002,-0.4452,-2.3285,-0.0133,-145.6455
9592,-107.2512,18.9334,-0.0112,0.036,-111.8944,0.2191,-2.3311,12.3429,-0.0004,0.8391,-2.1035,-0.0121,-156.8236
9608,-107.2512,18.9334,-0.0112,0.036,-111.8944,0.2191,-2.3311,12.3429,-0.0004,0.8391,-2.1035,-0.0121,-156.8236
9624,-107.2728,19.1499,-0.0112,0.034,-114.9143,0.1946,-2.288,12.31,-0.0007,2.3541,-1.8024,-0.0128,-167.9225
9642,-107.2927,19.3703,-0.0112,0.0299,-118.2283,0.1648,-2.1976,12.2883,-0.0009,4.8046,-1.1519,-0.0117,-178.6797
9656,-107.3084,19.5749,-0.0112,0.0229,-121.487,0.1311,-2.0359,12.2894,-0.0011,9.1789,0.0658,-0.0105,-186.8469
9674,-107.3201,19.7745,-0.0111,0.0126,-124.8097,0.0916,-1.8163,12.299,-0.0013,12.6798,0.5542,-0.0117,-193.4115
9689,-107.3277,19.9736,-0.011,-0.0012,-128.2501,0.0465,-1.5473,12.3076,-0.0015,15.4504,0.493,-0.0149,-198.9147
9706,-107.3305,20.1728,-0.0109,-0.0182,-131.8035,-0.0027,-1.2366,12.3083,-0.0018,17.7008,0.0372,-0.015,-203.5702
9721,-107.3283,20.3659,-0.0108,-0.037,-135.3496,-0.0526,-0.9004,12.2958,-0.001,19.5776,-0.7267,0.0477,-207.4068
9737,-107.321,20.5538,-0.0107,-0.0571,-138.8888,-0.102,-0.5463,12.2671,-0.0,20.9949,-1.7042,0.0566,-210.6041
9752,-107.3065,20.761,-0.0105,-0.0812,-142.9005,-0.1585,-0.13,12.2129,0.0007,22.0966,-2.8745,0.0413,-213.6505
9768,-107.3065,20.761,-0.0105,-0.0812,-142.9005,-0.1585,-0.13,12.2129,0.0007,22.0966,-2.8745,0.0413,-213.6505
9784,-107.2877,20.9477,-0.0103,-0.1033,-146.6046,-0.2071,0.2647,12.1395,0.0013,22.9462,-4.2651,0.0329,-215.9496
9800,-107.264,21.1275,-0.0101,-0.1248,-150.2607,-0.2531,0.6597,12.044,0.0017,23.4938,-5.6829,0.0205,-217.9402
9816,-107.2314,21.323,-0.0099,-0.1487,-154.3472,-0.3032,1.103,11.9101,0.0019,23.8097,-7.1927,0.0146,-219.9486
9833,-107.194,21.5074,-0.0097,-0.1706,-158.3123,-0.3481,1.5309,11.7514,0.0021,23.8763,-8.8528,0.0087,-221.6868
9865,-107.1051,21.8536,-0.0093,-0.21,-166.1091,-0.428,2.3517,11.3593,0.0021,23.3817,-11.9874,0.0001,-224.9288
9881,-107.0528,22.0208,-0.0092,-0.2275,-170.0712,-0.4666,2.7274,11.0842,0.0021,21.3876,-15.6662,0.0015,-225.6273
9897,-106.9962,22.1831,-0.009,-0.242,-174.088,-0.5092,3.0371,10.729,0.0022,17.4585,-20.0194,0.0032,-226.6684
9914,-106.9423,22.3253,-0.0089,-0.2525,-177.7694,-0.5494,3.2791,10.3697,0.0023,14.9429,-22.1842,0.0029,-227.4888
9928,-106.8828,22.4699,-0.0088,-0.2614,178.2885,-0.5947,3.4947,9.9561,0.0023,12.4619,-23.9168,0.002,-228.0922
9944,-106.8238,22.6039,-0.0087,-0.2677,174.4354,-0.6392,3.657,9.5269,0.0023,9.6234,-25.4328,0.0005,-228.398
9960,-106.7674,22.7248,-0.0086,-0.2717,170.7649,-0.6812,3.7655,9.1005,0.0023,6.7486,-26.5386,-0.002,-228.4232
9976,-106.7122,22.8414,-0.0086,-0.271,167.0757,-0.7219,3.6617,8.7206,0.0022,-6.3618,-23.2898,-0.0033,-224.1266
9992,-106.6636,22.9541,-0.0087,-0.2585,163.5458,-0.7534,3.3526,8.4409,0.002,-19.0674,-17.2511,-0.0124,-215.4963
10008,-106.6219,23.0618,-0.0088,-0.2412,160.2205,-0.7745,3.0548,8.1846,-0.0018,-18.7521,-16.1469,-0.2385,-207.3825
10024,-106.5862,23.1675,-0.009,-0.2191,156.9905,-0.7953,2.7205,7.9334,-0.0013,-20.9121,-15.7098,0.0317,-200.401
10040,-106.5547,23.2797,-0.0092,-0.1924,153.5636,-0.8193,2.345,7.6652,-0.0015,-21.505,-15.3587,-0.0106,-195.0569
10056,-106.5547,23.2797,-0.0092,-0.1924,153.5636,-0.8193,2.345,7.6652,-0.0015,-21.505,-15.3587,-0.0106,-195.0569
10072,-106.5316,23.3854,-0.0094,-0.1629,150.3085,-0.8488,1.9642,7.4121,0.0035,-22.4425,-14.9148,0.2903,-190.9839
10089,-106.5163,23.4859,-0.0095,-0.1356,147.1883,-0.8751,1.5783,7.2073,0.0028,-23.3314,-12.3828,-0.0396,-187.9305
10104,-106.5083,23.5926,-0.0097,-0.1058,143.9166,-0.8982,1.1317,7.0685,0.0023,-25.0944,-7.8021,-0.0296,-182.2096
10120,-106.5082,23.6873,-0.0099,-0.0795,141.1259,-0.9103,0.7248,7.0183,0.0018,-25.8099,-3.1813,-0.0328,-175.2042
10136,-106.5152,23.7881,-0.0101,-0.0504,138.3308,-0.9149,0.2973,7.0215,0.0013,-25.836,0.1897,-0.0269,-166.712
10152,-106.5307,23.8996,-0.0103,-0.0176,135.4788,-0.9109,-0.1567,7.0779,0.0009,-25.3527,3.1491,-0.0261,-156.7495
10168,-106.5515,24.0053,-0.0105,0.0119,133.0083,-0.9012,-0.5589,7.1593,0.0004,-24.3409,4.9298,-0.0275,-147.0126
10186,-106.5788,24.1159,-0.0107,0.0411,130.6681,-0.8867,-0.9454,7.2623,0.0001,-22.9693,6.1192,-0.0205,-136.42
10200,-106.61,24.2249,-0.0109,0.0672,128.5974,-0.8689,-1.283,7.3827,-0.0002,-20.9881,7.4832,-0.0186,-126.1376
10218,-106.6483,24.346,-0.0111,0.0933,126.5475,-0.8433,-1.5927,7.5357,-0.0006,-17.8774,8.8389,-0.0194,-115.8932
10234,-106.6891,24.4679,-0.0113,0.1155,124.6912,-0.8096,-1.8061,7.7041,-0.0008,-12.6356,9.9667,-0.0159,-108.1259
10249,-106.732,24.5942,-0.0114,0.1341,122.9221,-0.7637,-1.9215,7.881,-0.0012,-6.7929,10.4165,-0.0199,-102.9927
10266,-106.7764,24.7265,-0.0116,0.1491,121.1889,-0.7058,-1.9674,8.0577,-0.0015,-2.6587,10.2164,-0.0182,-99.4604
10280,-106.8209,24.8628,-0.0117,0.1602,119.4907,-0.6388,-1.952,8.2289,-0.0019,0.8858,9.8556,-0.0228,-97.2899
10298,-106.8673,25.012,-0.0118,0.1684,117.7069,-0.5596,-1.884,8.4028,-0.0023,3.6681,9.3826,-0.0219,-95.9758
10312,-106.8673,25.012,-0.0118,0.1684,117.7069,-0.5596,-1.884,8.4028,-0.0023,3.6681,9.3826,-0.0219,-95.9758
10328,-106.9127,25.1678,-0.0119,0.1734,115.9029,-0.4754,-1.7729,8.57,-0.0027,5.8781,8.8415,-0.0204,-95.3028
10344,-106.9526,25.3148,-0.012,0.1755,114.2404,-0.3988,-1.6402,8.7155,-0.003,7.5793,8.3112,-0.0165,-95.0374
10376,-107.0242,25.6152,-0.0121,0.1742,110.9388,-0.2498,-1.3136,8.978,-0.0033,9.929,7.294,-0.0079,-95.0988
10394,-107.0579,25.7781,-0.0121,0.1721,109.2252,-0.1797,-1.1977,9.1125,-0.0034,6.3082,7.3158,-0.005,-92.6507
10410,-107.0894,25.939,-0.0122,0.1701,107.6499,-0.1281,-1.1655,9.2342,-0.0033,1.8027,6.8162,0.003,-87.1088
10426,-107.1217,26.1089,-0.0122,0.1675,106.1604,-0.0931,-1.2013,9.3403,-0.0031,-1.933,5.7132,0.0128,-78.6922
10440,-107.1548,26.284,-0.0122,0.1639,104.8397,-0.0765,-1.2955,9.4203,-0.0027,-4.9856,4.2385,0.0236,-67.9708
10456,-107.1548,26.284,-0.0122,0.1639,104.8397,-0.0765,-1.2955,9.4203,-0.0027,-4.9856,4.2385,0.0236,-67.9708
10472,-107.19,26.4654,-0.0122,0.1584,103.7199,-0.0773,-1.4461,9.4676,-0.0021,-7.7625,2.4366,0.0295,-55.2741
10490,-107.2276,26.6521,-0.0122,0.151,102.8276,-0.0905,-1.6072,9.4932,-0.0014,-8.1198,1.2897,0.0355,-42.7018
10506,-107.2669,26.8437,-0.0122,0.143,102.1222,-0.1038,-1.7223,9.53,-0.0006,-5.6831,1.8168,0.0394,-31.5117
10520,-107.2669,26.8437,-0.0122,0.143,102.1222,-0.1038,-1.7223,9.53,-0.0006,-5.6831,1.8168,0.0394,-31.5117
10536,-107.312,27.0625,-0.0121,0.1331,101.5394,-0.1144,-1.8048,9.5719,-0.0001,-3.5874,1.8236,0.02,-22.5658
10554,-107.3509,27.2519,-0.012,0.124,101.1834,-0.1171,-1.8435,9.6066,0.0001,-1.9541,1.7561,0.0108,-16.7998
10570,-107.3874,27.4312,-0.012,0.1157,100.9322,-0.1145,-1.8595,9.6373,0.0002,-0.8609,1.6434,0.0039,-12.9365
10586,-107.4239,27.6135,-0.0119,0.1075,100.7401,-0.108,-1.8632,9.6664,0.0001,-0.1931,1.5395,-0.0015,-10.2103
10600,-107.4591,27.7914,-0.0119,0.0997,100.5987,-0.0994,-1.8598,9.6921,0.0001,0.1859,1.3979,-0.0033,-8.1421
10616,-107.4591,27.7914,-0.0119,0.0997,100.5987,-0.0994,-1.8598,9.6921,0.0001,0.1859,1.3979,-0.0033,-8.1421
10632,-107.4941,27.9739,-0.0112,0.1239,100.4814,0.0107,-1.853,9.6973,0.0471,0.3591,0.2756,2.4971,-7.225
10650,-107.5291,28.1577,-0.0105,0.1477,100.3933,0.1071,-1.8504,9.7183,0.0452,0.137,1.1082,-0.0996,-5.6304
10665,-107.5645,28.34,-0.0107,0.1219,100.3313,0.0427,-1.8387,9.7525,-0.0184,0.625,1.8238,-3.3852,-3.3236
10682,-107.5984,28.5182,-0.0109,0.1034,100.286,0.0111,-1.8226,9.7648,-0.015,0.8798,0.6668,0.189,-2.4636
10697,-107.6343,28.7096,-0.011,0.0882,100.2494,-0.0049,-1.8119,9.7816,-0.0119,0.5454,0.8607,0.1543,-1.8862
10712,-107.6343,28.7096,-0.011,0.0882,100.2494,-0.0049,-1.8119,9.7816,-0.0119,0.5454,0.8607,0.1543,-1.8862
10728,-107.67,28.9021,-0.0111,0.0762,100.2207,-0.0113,-1.8042,9.7954,-0.009,0.3891,0.7011,0.1495,-1.4505
10744,-107.7035,29.0835,-0.0112,0.0672,100.1985,-0.0129,-1.798,9.8052,-0.0069,0.3333,0.5244,0.1155,-1.1348
10761,-107.7369,29.2653,-0.0112,0.0598,100.1808,-0.0124,-1.7931,9.8168,-0.0053,0.266,0.6278,0.0831,-0.8972
10778,-107.7702,29.4474,-0.0113,0.0536,100.1666,-0.0109,-1.789,9.8285,-0.0042,0.2174,0.63,0.0624,-0.7114
10794,-107.8066,29.6476,-0.0113,0.0483,100.1545,-0.009,-1.7843,9.8368,-0.003,0.2354,0.4051,0.0548,-0.5379
10808,-107.8401,29.8326,-0.0113,0.0442,100.1464,-0.007,-1.7818,9.8522,-0.0025,0.1288,0.8229,0.027,-0.4038
10825,-107.8401,29.8326,-0.0113,0.0442,100.1464,-0.007,-1.7818,9.8522,-0.0025,0.1288,0.8229,0.027,-0.4038
10840,-107.8737,30.0183,-0.0113,0.0405,100.1403,-0.0053,-1.7793,9.8608,-0.002,0.1328,0.4554,0.0305,-0.3127
10858,-107.9122,30.2321,-0.0113,0.0371,100.1347,-0.0037,-1.7809,9.8912,-0.0014,-0.0731,1.4061,0.0241,-0.2275
10874,-107.9451,30.4148,-0.0113,0.0345,100.1313,-0.0025,-1.7809,9.9071,-0.0012,-0.0005,0.8608,0.0141,-0.1726
10888,-107.9789,30.6044,-0.0108,0.0028,100.1288,0.0364,-1.7827,9.9213,0.0176,-0.0931,0.7408,0.9822,-0.19
10905,-108.0129,30.7935,-0.0106,-0.0048,100.1311,0.0388,-1.7875,9.9449,-0.0085,-0.25,1.2407,-1.3704,0.2845
10920,-108.0129,30.7935,-0.0106,-0.0048,100.1311,0.0388,-1.7875,9.9449,-0.0085,-0.25,1.2407,-1.3704,0.2845
10936,-108.0477,30.9868,-0.0108,0.0064,100.1289,0.0196,-1.7833,9.9457,-0.0067,0.2148,0.0411,0.0923,0.1328
10953,-108.0855,31.1975,-0.011,0.0133,100.1272,0.0094,-1.7805,9.9446,-0.0048,0.1319,-0.0531,0.0891,-0.0695
10969,-108.1217,31.3993,-0.0111,0.0172,100.1259,0.0044,-1.7826,9.9655,-0.0036,-0.1062,1.0306,0.0611,-0.0571
10984,-108.1217,31.3993,-0.0111,0.0172,100.1259,0.0044,-1.7826,9.9655,-0.0036,-0.1062,1.0306,0.0611,-0.0571
11000,-108.1597,31.6117,-0.0112,0.0195,100.125,0.0018,-1.7839,9.9786,-0.0026,-0.0603,0.6144,0.045,-0.0378
11018,-108.1919,31.7923,-0.0112,0.0203,100.1244,0.0006,-1.7853,9.9897,-0.002,-0.0762,0.6126,0.0321,-0.0273
11034,-108.2248,31.9758,-0.0113,0.0205,100.1239,0.0001,-1.7864,9.9979,-0.0015,-0.0575,0.4486,0.0305,-0.0207
11050,-108.2577,32.1602,-0.0113,0.0202,100.1236,-0.0002,-1.7869,10.0025,-0.0011,-0.0287,0.2491,0.0229,-0.0174
11066,-108.2921,32.3527,-0.0113,0.0194,100.1233,-0.0003,-1.7869,10.0036,-0.0007,0.001,0.0582,0.017,-0.0143
11080,-108.3268,32.5474,-0.0113,0.0183,100.1231,-0.0004,-1.7869,10.0044,-0.0005,0.001,0.0427,0.0126,-0.0108
11096,-108.3268,32.5474,-0.0113,0.0183,100.1231,-0.0004,-1.7869,10.0044,-0.0005,0.001,0.0427,0.0126,-0.0108
11112,-108.3625,32.7468,-0.0113,0.0171,100.1229,-0.0004,-1.7869,10.0055,-0.0003,-0.0026,0.0529,0.0095,-0.0083
11129,-108.3979,32.9453,-0.0113,0.0158,100.1228,-0.0003,-1.7874,10.0088,-0.0002,-0.0245,0.1678,0.0065,-0.0066
11145,-108.4342,33.1482,-0.0113,0.0151,100.1227,-0.0003,-1.7935,10.0433,-0.0001,-0.2996,1.7063,0.0049,-0.0049
11160,-108.4681,33.3384,-0.0113,0.0146,100.1226,-0.0002,-1.7962,10.059,-0.0,-0.1433,0.8272,0.0028,-0.0037
11177,-108.5027,33.5321,-0.0113,0.0142,100.1226,-0.0002,-1.7985,10.0727,0.0,-0.1239,0.7131,0.0024,-0.0028
11192,-108.5027,33.5321,-0.0113,0.0142,100.1226,-0.0002,-1.7985,10.0727,0.0,-0.1239,0.7131,0.0024,-0.0028
11209,-108.5386,33.7328,-0.0113,0.0136,100.1225,-0.0002,-1.8003,10.0827,0.0001,-0.0871,0.5022,0.0007,-0.0022
11225,-108.5726,33.9233,-0.0113,0.0129,100.1225,-0.0001,-1.8011,10.0874,0.0001,-0.0426,0.2499,0.0013,-0.0018
11241,-108.6081,34.1224,-0.0113,0.0122,100.1224,-0.0001,-1.8022,10.0939,0.0001,-0.0569,0.3287,0.0003,-0.0015
11256,-108.6419,34.3115,-0.0113,0.0116,100.1224,-0.0001,-1.803,10.0987,0.0001,-0.0443,0.2567,-0.0001,-0.0012
11272,-108.6419,34.3115,-0.0113,0.0116,100.1224,-0.0001,-1.803,10.0987,0.0001,-0.0443,0.2567,-0.0001,-0.0012
11288,-108.6774,34.5107,-0.0113,0.011,100.1224,-0.0001,-1.8044,10.1063,0.0001,-0.0675,0.3842,0.0002,-0.001
11306,-108.7095,34.6902,-0.0112,0.0106,100.1223,-0.0001,-1.8053,10.1117,0.0001,-0.0527,0.3008,-0.001,-0.0008
11322,-108.7439,34.8828,-0.0112,0.0103,100.1223,-0.0001,-1.807,10.1214,0.0001,-0.0902,0.5103,0.0006,-0.0007
11338,-108.7794,35.0817,-0.0112,0.0099,100.1223,-0.0,-1.8085,10.1297,0.0001,-0.0749,0.4234,-0.0002,-0.0005
11353,-108.814,35.2757,-0.0112,0.0096,100.1223,-0.0,-1.8096,10.136,0.0001,-0.058,0.3284,0.0,-0.0004
11368,-108.814,35.2757,-0.0112,0.0096,100.1223,-0.0,-1.8096,10.136,0.0001,-0.058,0.3284,0.0,-0.0004
11384,-108.8514,35.4851,-0.0112,0.0095,100.1223,-0.0,-1.8102,10.1395,0.0001,-0.0296,0.1684,-0.0006,-0.0003
11402,-108.8866,35.682,-0.0112,0.0096,100.1223,0.0,-1.8124,10.1515,0.0001,-0.1105,0.6212,0.0,-0.0002
11418,-108.9203,35.871,-0.0112,0.0096,100.1223,0.0,-1.8136,10.1584,0.0001,-0.0659,0.3707,-0.0004,-0.0002
11432,-108.9549,36.065,-0.0112,0.0096,100.1223,0.0,-1.8144,10.1627,0.0,-0.0401,0.2261,-0.0005,-0.0001
11449,-108.9931,36.279,-0.0112,0.0098,100.1223,0.0,-1.8194,10.1909,0.0,-0.2393,1.3417,-0.0012,-0.0001
11464,-108.9931,36.279,-0.0112,0.0098,100.1223,0.0,-1.8194,10.1909,0.0,-0.2393,1.3417,-0.0012,-0.0001
11480,-109.0299,36.4847,-0.0112,0.01,100.1223,0.0,-1.8214,10.2021,0.0,-0.0987,0.5543,-0.0001,-0.0001
11498,-109.0637,36.6741,-0.0112,0.0101,100.1223,0.0,-1.8234,10.2134,0.0,-0.108,0.6057,0.0009,-0.0001
11514,-109.0982,36.8674,-0.0112,0.0102,100.1223,0.0,-1.8249,10.2216,0.0,-0.0776,0.4351,-0.0005,-0.0001
11528,-109.132,37.0568,-0.0112,0.0102,100.1223,0.0,-1.8257,10.2263,0.0,-0.0458,0.2566,-0.0,-0.0001
11544,-109.132,37.0568,-0.0112,0.0102,100.1223,0.0,-1.8257,10.2263,0.0,-0.0458,0.2566,-0.0,-0.0001
11560,-109.1678,37.2575,-0.0112,0.01,100.1223,0.0,-1.8259,10.2273,0.0,-0.0087,0.0493,0.0002,-0.0001
