timestamp,x,y,z,pitch,yaw,roll,vx,vy,vz,ax,ay,az,yaw_rate
141141,-106.6867,-4.8475,-0.0267,0.0,-89.3578,0.0,-0.0,0.0,0.1071,0.0,0.0,-0.166,-0.0
141157,-106.6867,-4.8475,-0.0267,0.0,-89.3578,0.0,-0.0,0.0,0.1071,0.0,0.0,-0.166,-0.0
141173,-106.6867,-4.8475,-0.0267,0.0,-89.3578,0.0,-0.0,0.0,0.1071,0.0,0.0,-0.166,-0.0
141189,-106.6867,-4.8475,-0.0267,0.0,-89.3578,0.0,-0.0,0.0,0.1071,0.0,0.0,-0.166,-0.0
141205,-106.6867,-4.8475,-0.0267,0.0,-89.3578,0.0,-0.0,0.0,0.1071,0.0,0.0,-0.166,-0.0
141221,-106.6867,-4.8475,-0.0267,0.0,-89.3578,0.0,-0.0,0.0,0.1071,0.0,0.0,-0.166,-0.0
141237,-106.6867,-4.8475,-0.0267,0.0,-89.3578,0.0,-0.0,0.0,0.1071,0.0,0.0,-0.166,-0.0
141253,-106.6867,-4.8475,-0.0267,0.0,-89.3578,0.0,-0.0,0.0,0.1071,0.0,0.0,-0.166,-0.0
141269,-106.6867,-4.8475,-0.0267,0.0,-89.3578,0.0,-0.0,0.0,0.1071,0.0,0.0,-0.166,-0.0
141285,-106.6867,-4.8475,-0.0267,0.0,-89.3578,0.0,-0.0,0.0,0.1071,0.0,0.0,-0.166,-0.0
141301,-106.6867,-4.8475,-0.0267,0.0,-89.3578,0.0,-0.0,0.0,0.1071,0.0,0.0,-0.166,-0.0
141317,-106.6867,-4.8475,-0.0267,0.0,-89.3578,0.0,-0.0,0.0,0.1071,0.0,0.0,-0.166,-0.0
141333,-106.6867,-4.8475,-0.0189,0.0,-89.3578,0.0,0.0,-0.0,0.0574,0.0,-0.0,-0.1379,-0.0
141349,-106.6867,-4.8475,-0.0189,0.0,-89.3578,0.0,0.0,-0.0,0.0574,0.0,-0.0,-0.1379,-0.0
141365,-106.6867,-4.8456,-0.0149,-0.0016,-89.3578,0.0,-0.0005,0.041,0.0286,-0.0044,0.3947,-0.2776,-0.0001
141384,-106.6867,-4.8456,-0.0149,-0.0016,-89.3578,0.0,-0.0005,0.041,0.0286,-0.0044,0.3947,-0.2776,-0.0001
141400,-106.6867,-4.8456,-0.0149,-0.0016,-89.3578,0.0,-0.0005,0.041,0.0286,-0.0044,0.3947,-0.2776,-0.0001
141416,-106.6867,-4.8456,-0.0149,-0.0016,-89.3578,0.0,-0.0005,0.041,0.0286,-0.0044,0.3947,-0.2776,-0.0001
141432,-106.6867,-4.8456,-0.0149,-0.0016,-89.3578,0.0,-0.0005,0.041,0.0286,-0.0044,0.3947,-0.2776,-0.0001
141448,-106.6867,-4.8456,-0.0149,-0.0016,-89.3578,0.0,-0.0005,0.041,0.0286,-0.0044,0.3947,-0.2776,-0.0001
141474,-106.6867,-4.8456,-0.0149,-0.0016,-89.3578,0.0,-0.0005,0.041,0.0286,-0.0044,0.3947,-0.2776,-0.0001
141481,-106.6868,-4.8399,-0.0129,-0.0066,-89.3577,-0.0,-0.0024,0.2111,0.0136,-0.0154,1.3717,-0.1209,-0.0052
141497,-106.6868,-4.8399,-0.0129,-0.0066,-89.3577,-0.0,-0.0024,0.2111,0.0136,-0.0154,1.3717,-0.1209,-0.0052
141513,-106.6868,-4.8399,-0.0129,-0.0066,-89.3577,-0.0,-0.0024,0.2111,0.0136,-0.0154,1.3717,-0.1209,-0.0052
141529,-106.6868,-4.8399,-0.0129,-0.0066,-89.3577,-0.0,-0.0024,0.2111,0.0136,-0.0154,1.3717,-0.1209,-0.0052
141545,-106.6868,-4.8399,-0.0129,-0.0066,-89.3577,-0.0,-0.0024,0.2111,0.0136,-0.0154,1.3717,-0.1209,-0.0052
141561,-106.6868,-4.8399,-0.0129,-0.0066,-89.3577,-0.0,-0.0024,0.2111,0.0136,-0.0154,1.3717,-0.1209,-0.0052
141577,-106.6868,-4.8399,-0.0129,-0.0066,-89.3577,-0.0,-0.0024,0.2111,0.0136,-0.0154,1.3717,-0.1209,-0.0052
141600,-106.6868,-4.8399,-0.0129,-0.0066,-89.3577,-0.0,-0.0024,0.2111,0.0136,-0.0154,1.3717,-0.1209,-0.0052
141609,-106.6872,-4.7996,-0.0119,-0.0281,-89.3665,0.0,-0.0061,0.5329,0.0062,-0.0292,2.5384,-0.0577,-1.271
141631,-106.6872,-4.7996,-0.0119,-0.0281,-89.3665,0.0,-0.0061,0.5329,0.0062,-0.0292,2.5384,-0.0577,-1.271
141647,-106.6872,-4.7996,-0.0119,-0.0281,-89.3665,0.0,-0.0061,0.5329,0.0062,-0.0292,2.5384,-0.0577,-1.271
141663,-106.6872,-4.7996,-0.0119,-0.0281,-89.3665,0.0,-0.0061,0.5329,0.0062,-0.0292,2.5384,-0.0577,-1.271
141685,-106.6872,-4.7996,-0.0119,-0.0281,-89.3665,0.0,-0.0061,0.5329,0.0062,-0.0292,2.5384,-0.0577,-1.271
141701,-106.6872,-4.7996,-0.0119,-0.0281,-89.3665,0.0,-0.0061,0.5329,0.0062,-0.0292,2.5384,-0.0577,-1.271
141719,-106.6872,-4.7996,-0.0119,-0.0281,-89.3665,0.0,-0.0061,0.5329,0.0062,-0.0292,2.5384,-0.0577,-1.271
141733,-106.6872,-4.7996,-0.0119,-0.0281,-89.3665,0.0,-0.0061,0.5329,0.0062,-0.0292,2.5384,-0.0577,-1.271
141749,-106.6872,-4.7996,-0.0119,-0.0281,-89.3665,0.0,-0.0061,0.5329,0.0062,-0.0292,2.5384,-0.0577,-1.271
141765,-106.6872,-4.7996,-0.0119,-0.0281,-89.3665,0.0,-0.0061,0.5329,0.0062,-0.0292,2.5384,-0.0577,-1.271
141781,-106.6872,-4.7996,-0.0119,-0.0281,-89.3665,0.0,-0.0061,0.5329,0.0062,-0.0292,2.5384,-0.0577,-1.271
141797,-106.6872,-4.7996,-0.0119,-0.0281,-89.3665,0.0,-0.0061,0.5329,0.0062,-0.0292,2.5384,-0.0577,-1.271
141813,-106.6872,-4.7996,-0.0119,-0.0281,-89.3665,0.0,-0.0061,0.5329,0.0062,-0.0292,2.5384,-0.0577,-1.271
141829,-106.6872,-4.7996,-0.0119,-0.0281,-89.3665,0.0,-0.0061,0.5329,0.0062,-0.0292,2.5384,-0.0577,-1.271
141845,-106.6872,-4.7996,-0.0119,-0.0281,-89.3665,0.0,-0.0061,0.5329,0.0062,-0.0292,2.5384,-0.0577,-1.271
141861,-106.6872,-4.7996,-0.0119,-0.0281,-89.3665,0.0,-0.0061,0.5329,0.0062,-0.0292,2.5384,-0.0577,-1.271
141877,-106.6872,-4.7996,-0.0119,-0.0281,-89.3665,0.0,-0.0061,0.5329,0.0062,-0.0292,2.5384,-0.0577,-1.271
141893,-106.6872,-4.7996,-0.0119,-0.0281,-89.3665,0.0,-0.0061,0.5329,0.0062,-0.0292,2.5384,-0.0577,-1.271
141909,-106.6872,-4.7996,-0.0119,-0.0281,-89.3665,0.0,-0.0061,0.5329,0.0062,-0.0292,2.5384,-0.0577,-1.271
141937,-106.6881,-4.7242,-0.0113,-0.0442,-89.349,-0.0001,-0.0102,0.9861,0.0028,-0.0173,1.8833,-0.0143,-0.2097
141951,-106.6886,-4.618,-0.0109,-0.0433,-89.4186,-0.0005,-0.0103,1.1625,0.0034,-0.001,1.6673,0.0054,-5.3959
141972,-106.6886,-4.618,-0.0109,-0.0433,-89.4186,-0.0005,-0.0103,1.1625,0.0034,-0.001,1.6673,0.0054,-5.3959
141988,-106.6886,-4.618,-0.0109,-0.0433,-89.4186,-0.0005,-0.0103,1.1625,0.0034,-0.001,1.6673,0.0054,-5.3959
142004,-106.6886,-4.618,-0.0109,-0.0433,-89.4186,-0.0005,-0.0103,1.1625,0.0034,-0.001,1.6673,0.0054,-5.3959
142020,-106.6886,-4.618,-0.0109,-0.0433,-89.4186,-0.0005,-0.0103,1.1625,0.0034,-0.001,1.6673,0.0054,-5.3959
142036,-106.6886,-4.618,-0.0109,-0.0433,-89.4186,-0.0005,-0.0103,1.1625,0.0034,-0.001,1.6673,0.0054,-5.3959
142054,-106.6886,-4.618,-0.0109,-0.0433,-89.4186,-0.0005,-0.0103,1.1625,0.0034,-0.001,1.6673,0.0054,-5.3959
142068,-106.6886,-4.618,-0.0109,-0.0433,-89.4186,-0.0005,-0.0103,1.1625,0.0034,-0.001,1.6673,0.0054,-5.3959
142084,-106.6886,-4.618,-0.0109,-0.0433,-89.4186,-0.0005,-0.0103,1.1625,0.0034,-0.001,1.6673,0.0054,-5.3959
142100,-106.6886,-4.618,-0.0109,-0.0433,-89.4186,-0.0005,-0.0103,1.1625,0.0034,-0.001,1.6673,0.0054,-5.3959
142116,-106.6886,-4.618,-0.0109,-0.0433,-89.4186,-0.0005,-0.0103,1.1625,0.0034,-0.001,1.6673,0.0054,-5.3959
142132,-106.6886,-4.618,-0.0109,-0.0433,-89.4186,-0.0005,-0.0103,1.1625,0.0034,-0.001,1.6673,0.0054,-5.3959
142148,-106.6886,-4.618,-0.0109,-0.0433,-89.4186,-0.0005,-0.0103,1.1625,0.0034,-0.001,1.6673,0.0054,-5.3959
142164,-106.6896,-4.4884,-0.0108,-0.0404,-89.3794,-0.0012,-0.0067,1.2765,0.0002,0.02,0.6253,-0.0176,-3.6053
142180,-106.6896,-4.4884,-0.0108,-0.0404,-89.3794,-0.0012,-0.0067,1.2765,0.0002,0.02,0.6253,-0.0176,-3.6053
142196,-106.6896,-4.4884,-0.0108,-0.0404,-89.3794,-0.0012,-0.0067,1.2765,0.0002,0.02,0.6253,-0.0176,-3.6053
142212,-106.6896,-4.4884,-0.0108,-0.0404,-89.3794,-0.0012,-0.0067,1.2765,0.0002,0.02,0.6253,-0.0176,-3.6053
142228,-106.6896,-4.4884,-0.0108,-0.0404,-89.3794,-0.0012,-0.0067,1.2765,0.0002,0.02,0.6253,-0.0176,-3.6053
142244,-106.6899,-4.3556,-0.0109,-0.0287,-89.4434,-0.0011,-0.0056,1.447,-0.0003,0.0107,1.7223,-0.0046,-2.7501
142260,-106.6899,-4.3556,-0.0109,-0.0287,-89.4434,-0.0011,-0.0056,1.447,-0.0003,0.0107,1.7223,-0.0046,-2.7501
142276,-106.6899,-4.3556,-0.0109,-0.0287,-89.4434,-0.0011,-0.0056,1.447,-0.0003,0.0107,1.7223,-0.0046,-2.7501
142292,-106.6899,-4.3556,-0.0109,-0.0287,-89.4434,-0.0011,-0.0056,1.447,-0.0003,0.0107,1.7223,-0.0046,-2.7501
142308,-106.6899,-4.3556,-0.0109,-0.0287,-89.4434,-0.0011,-0.0056,1.447,-0.0003,0.0107,1.7223,-0.0046,-2.7501
142324,-106.6899,-4.3556,-0.0109,-0.0287,-89.4434,-0.0011,-0.0056,1.447,-0.0003,0.0107,1.7223,-0.0046,-2.7501
142340,-106.6899,-4.3556,-0.0109,-0.0287,-89.4434,-0.0011,-0.0056,1.447,-0.0003,0.0107,1.7223,-0.0046,-2.7501
142358,-106.6899,-4.3556,-0.0109,-0.0287,-89.4434,-0.0011,-0.0056,1.447,-0.0003,0.0107,1.7223,-0.0046,-2.7501
142372,-106.6899,-4.3556,-0.0109,-0.0287,-89.4434,-0.0011,-0.0056,1.447,-0.0003,0.0107,1.7223,-0.0046,-2.7501
142388,-106.6899,-4.3556,-0.0109,-0.0287,-89.4434,-0.0011,-0.0056,1.447,-0.0003,0.0107,1.7223,-0.0046,-2.7501
142404,-106.6899,-4.3556,-0.0109,-0.0287,-89.4434,-0.0011,-0.0056,1.447,-0.0003,0.0107,1.7223,-0.0046,-2.7501
142420,-106.6899,-4.3556,-0.0109,-0.0287,-89.4434,-0.0011,-0.0056,1.447,-0.0003,0.0107,1.7223,-0.0046,-2.7501
142436,-106.6899,-4.3556,-0.0109,-0.0287,-89.4434,-0.0011,-0.0056,1.447,-0.0003,0.0107,1.7223,-0.0046,-2.7501
142452,-106.6899,-4.3556,-0.0109,-0.0287,-89.4434,-0.0011,-0.0056,1.447,-0.0003,0.0107,1.7223,-0.0046,-2.7501
142468,-106.6899,-4.3556,-0.0109,-0.0287,-89.4434,-0.0011,-0.0056,1.447,-0.0003,0.0107,1.7223,-0.0046,-2.7501
142484,-106.6899,-4.3556,-0.0109,-0.0287,-89.4434,-0.0011,-0.0056,1.447,-0.0003,0.0107,1.7223,-0.0046,-2.7501
142500,-106.6899,-4.3556,-0.0109,-0.0287,-89.4434,-0.0011,-0.0056,1.447,-0.0003,0.0107,1.7223,-0.0046,-2.7501
142516,-106.6899,-4.3556,-0.0109,-0.0287,-89.4434,-0.0011,-0.0056,1.447,-0.0003,0.0107,1.7223,-0.0046,-2.7501
142532,-106.692,-4.1746,-0.0107,-0.0526,-89.3794,0.0017,-0.0248,2.0892,-0.0002,-0.0878,2.9491,0.0003,2.887
142548,-106.692,-4.1746,-0.0107,-0.0526,-89.3794,0.0017,-0.0248,2.0892,-0.0002,-0.0878,2.9491,0.0003,2.887
142564,-106.6947,-3.9422,-0.0106,-0.0681,-89.37,0.0012,-0.029,2.6132,-0.0001,-0.0365,4.5125,0.0007,4.5281
142580,-106.6947,-3.9422,-0.0106,-0.0681,-89.37,0.0012,-0.029,2.6132,-0.0001,-0.0365,4.5125,0.0007,4.5281
142596,-106.6947,-3.9422,-0.0106,-0.0681,-89.37,0.0012,-0.029,2.6132,-0.0001,-0.0365,4.5125,0.0007,4.5281
142612,-106.6947,-3.9422,-0.0106,-0.0681,-89.37,0.0012,-0.029,2.6132,-0.0001,-0.0365,4.5125,0.0007,4.5281
142628,-106.6947,-3.9422,-0.0106,-0.0681,-89.37,0.0012,-0.029,2.6132,-0.0001,-0.0365,4.5125,0.0007,4.5281
142644,-106.6947,-3.9422,-0.0106,-0.0681,-89.37,0.0012,-0.029,2.6132,-0.0001,-0.0365,4.5125,0.0007,4.5281
142668,-106.6961,-3.6554,-0.0106,-0.0777,-89.5099,-0.0012,-0.0279,3.1508,-0.0001,0.0109,5.1164,0.0007,-2.3099
142677,-106.6961,-3.6554,-0.0106,-0.0777,-89.5099,-0.0012,-0.0279,3.1508,-0.0001,0.0109,5.1164,0.0007,-2.3099
142693,-106.6961,-3.6554,-0.0106,-0.0777,-89.5099,-0.0012,-0.0279,3.1508,-0.0001,0.0109,5.1164,0.0007,-2.3099
142709,-106.6961,-3.6554,-0.0106,-0.0777,-89.5099,-0.0012,-0.0279,3.1508,-0.0001,0.0109,5.1164,0.0007,-2.3099
142725,-106.6961,-3.6554,-0.0106,-0.0777,-89.5099,-0.0012,-0.0279,3.1508,-0.0001,0.0109,5.1164,0.0007,-2.3099
142741,-106.6961,-3.6554,-0.0106,-0.0777,-89.5099,-0.0012,-0.0279,3.1508,-0.0001,0.0109,5.1164,0.0007,-2.3099
142757,-106.6961,-3.6554,-0.0106,-0.0777,-89.5099,-0.0012,-0.0279,3.1508,-0.0001,0.0109,5.1164,0.0007,-2.3099
142773,-106.6961,-3.6554,-0.0106,-0.0777,-89.5099,-0.0012,-0.0279,3.1508,-0.0001,0.0109,5.1164,0.0007,-2.3099
142789,-106.6961,-3.6554,-0.0106,-0.0777,-89.5099,-0.0012,-0.0279,3.1508,-0.0001,0.0109,5.1164,0.0007,-2.3099
142805,-106.6996,-3.3179,-0.0106,-0.0782,-89.4182,0.0,-0.0317,3.4501,-0.0001,-0.0314,2.429,-0.0,1.1665
142821,-106.6996,-3.3179,-0.0106,-0.0782,-89.4182,0.0,-0.0317,3.4501,-0.0001,-0.0314,2.429,-0.0,1.1665
142837,-106.6996,-3.3179,-0.0106,-0.0782,-89.4182,0.0,-0.0317,3.4501,-0.0001,-0.0314,2.429,-0.0,1.1665
142853,-106.6996,-3.3179,-0.0106,-0.0782,-89.4182,0.0,-0.0317,3.4501,-0.0001,-0.0314,2.429,-0.0,1.1665
142869,-106.6996,-3.3179,-0.0106,-0.0782,-89.4182,0.0,-0.0317,3.4501,-0.0001,-0.0314,2.429,-0.0,1.1665
142885,-106.6996,-3.3179,-0.0106,-0.0782,-89.4182,0.0,-0.0317,3.4501,-0.0001,-0.0314,2.429,-0.0,1.1665
142907,-106.7047,-2.9371,-0.0106,-0.0735,-89.3,0.0022,-0.0474,3.9048,-0.0,-0.1357,3.9275,0.0005,1.2353
142917,-106.7047,-2.9371,-0.0106,-0.0735,-89.3,0.0022,-0.0474,3.9048,-0.0,-0.1357,3.9275,0.0005,1.2353
142933,-106.7047,-2.9371,-0.0106,-0.0735,-89.3,0.0022,-0.0474,3.9048,-0.0,-0.1357,3.9275,0.0005,1.2353
142949,-106.7047,-2.9371,-0.0106,-0.0735,-89.3,0.0022,-0.0474,3.9048,-0.0,-0.1357,3.9275,0.0005,1.2353
142965,-106.7047,-2.9371,-0.0106,-0.0735,-89.3,0.0022,-0.0474,3.9048,-0.0,-0.1357,3.9275,0.0005,1.2353
142981,-106.7047,-2.9371,-0.0106,-0.0735,-89.3,0.0022,-0.0474,3.9048,-0.0,-0.1357,3.9275,0.0005,1.2353
142997,-106.7047,-2.9371,-0.0106,-0.0735,-89.3,0.0022,-0.0474,3.9048,-0.0,-0.1357,3.9275,0.0005,1.2353
143013,-106.7047,-2.9371,-0.0106,-0.0735,-89.3,0.0022,-0.0474,3.9048,-0.0,-0.1357,3.9275,0.0005,1.2353
143029,-106.7047,-2.9371,-0.0106,-0.0735,-89.3,0.0022,-0.0474,3.9048,-0.0,-0.1357,3.9275,0.0005,1.2353
143045,-106.7106,-2.4988,-0.0105,-0.085,-89.2533,0.0022,-0.0598,4.6421,-0.0,-0.0956,5.6831,-0.0,0.0278
143061,-106.7106,-2.4988,-0.0105,-0.085,-89.2533,0.0022,-0.0598,4.6421,-0.0,-0.0956,5.6831,-0.0,0.0278
143077,-106.7106,-2.4988,-0.0105,-0.085,-89.2533,0.0022,-0.0598,4.6421,-0.0,-0.0956,5.6831,-0.0,0.0278
143093,-106.7106,-2.4988,-0.0105,-0.085,-89.2533,0.0022,-0.0598,4.6421,-0.0,-0.0956,5.6831,-0.0,0.0278
143109,-106.7106,-2.4988,-0.0105,-0.085,-89.2533,0.0022,-0.0598,4.6421,-0.0,-0.0956,5.6831,-0.0,0.0278
143125,-106.7106,-2.4988,-0.0105,-0.085,-89.2533,0.0022,-0.0598,4.6421,-0.0,-0.0956,5.6831,-0.0,0.0278
143141,-106.7106,-2.4988,-0.0105,-0.085,-89.2533,0.0022,-0.0598,4.6421,-0.0,-0.0956,5.6831,-0.0,0.0278
143157,-106.7173,-1.9952,-0.0105,-0.0932,-89.2357,0.0019,-0.07,5.2463,-0.0,-0.0878,5.2164,-0.0,-0.4492
143173,-106.7173,-1.9952,-0.0105,-0.0932,-89.2357,0.0019,-0.07,5.2463,-0.0,-0.0878,5.2164,-0.0,-0.4492
143189,-106.7173,-1.9952,-0.0105,-0.0932,-89.2357,0.0019,-0.07,5.2463,-0.0,-0.0878,5.2164,-0.0,-0.4492
143205,-106.7173,-1.9952,-0.0105,-0.0932,-89.2357,0.0019,-0.07,5.2463,-0.0,-0.0878,5.2164,-0.0,-0.4492
143221,-106.7173,-1.9952,-0.0105,-0.0932,-89.2357,0.0019,-0.07,5.2463,-0.0,-0.0878,5.2164,-0.0,-0.4492
143237,-106.7173,-1.9952,-0.0105,-0.0932,-89.2357,0.0019,-0.07,5.2463,-0.0,-0.0878,5.2164,-0.0,-0.4492
143253,-106.7173,-1.9952,-0.0105,-0.0932,-89.2357,0.0019,-0.07,5.2463,-0.0,-0.0878,5.2164,-0.0,-0.4492
143272,-106.7251,-1.433,-0.0105,-0.095,-89.2112,0.0014,-0.0803,5.8622,-0.0,-0.086,5.1207,-0.0,0.0361
143285,-106.7251,-1.433,-0.0105,-0.095,-89.2112,0.0014,-0.0803,5.8622,-0.0,-0.086,5.1207,-0.0,0.0361
143301,-106.7251,-1.433,-0.0105,-0.095,-89.2112,0.0014,-0.0803,5.8622,-0.0,-0.086,5.1207,-0.0,0.0361
143317,-106.7251,-1.433,-0.0105,-0.095,-89.2112,0.0014,-0.0803,5.8622,-0.0,-0.086,5.1207,-0.0,0.0361
143333,-106.7251,-1.433,-0.0105,-0.095,-89.2112,0.0014,-0.0803,5.8622,-0.0,-0.086,5.1207,-0.0,0.0361
143349,-106.7251,-1.433,-0.0105,-0.095,-89.2112,0.0014,-0.0803,5.8622,-0.0,-0.086,5.1207,-0.0,0.0361
143365,-106.7251,-1.433,-0.0105,-0.095,-89.2112,0.0014,-0.0803,5.8622,-0.0,-0.086,5.1207,-0.0,0.0361
143385,-106.7251,-1.433,-0.0105,-0.095,-89.2112,0.0014,-0.0803,5.8622,-0.0,-0.086,5.1207,-0.0,0.0361
143397,-106.7335,-0.8039,-0.0104,-0.1024,-89.2307,0.0006,-0.0889,6.5816,-0.0,-0.0752,6.3552,-0.0001,-0.1914
143417,-106.7335,-0.8039,-0.0104,-0.1024,-89.2307,0.0006,-0.0889,6.5816,-0.0,-0.0752,6.3552,-0.0001,-0.1914
143433,-106.7335,-0.8039,-0.0104,-0.1024,-89.2307,0.0006,-0.0889,6.5816,-0.0,-0.0752,6.3552,-0.0001,-0.1914
143449,-106.7335,-0.8039,-0.0104,-0.1024,-89.2307,0.0006,-0.0889,6.5816,-0.0,-0.0752,6.3552,-0.0001,-0.1914
143465,-106.7335,-0.8039,-0.0104,-0.1024,-89.2307,0.0006,-0.0889,6.5816,-0.0,-0.0752,6.3552,-0.0001,-0.1914
143481,-106.7335,-0.8039,-0.0104,-0.1024,-89.2307,0.0006,-0.0889,6.5816,-0.0,-0.0752,6.3552,-0.0001,-0.1914
143497,-106.7335,-0.8039,-0.0104,-0.1024,-89.2307,0.0006,-0.0889,6.5816,-0.0,-0.0752,6.3552,-0.0001,-0.1914
143513,-106.7335,-0.8039,-0.0104,-0.1024,-89.2307,0.0006,-0.0889,6.5816,-0.0,-0.0752,6.3552,-0.0001,-0.1914
143529,-106.7335,-0.8039,-0.0104,-0.1024,-89.2307,0.0006,-0.0889,6.5816,-0.0,-0.0752,6.3552,-0.0001,-0.1914
143545,-106.7335,-0.8039,-0.0104,-0.1024,-89.2307,0.0006,-0.0889,6.5816,-0.0,-0.0752,6.3552,-0.0001,-0.1914
143561,-106.7335,-0.8039,-0.0104,-0.1024,-89.2307,0.0006,-0.0889,6.5816,-0.0,-0.0752,6.3552,-0.0001,-0.1914
143577,-106.7335,-0.8039,-0.0104,-0.1024,-89.2307,0.0006,-0.0889,6.5816,-0.0,-0.0752,6.3552,-0.0001,-0.1914
143593,-106.7335,-0.8039,-0.0104,-0.1024,-89.2307,0.0006,-0.0889,6.5816,-0.0,-0.0752,6.3552,-0.0001,-0.1914
143609,-106.7432,-0.1006,-0.0103,-0.1109,-89.2147,0.0004,-0.0999,7.3344,0.0,-0.0626,4.2595,0.0001,0.4269
143625,-106.7432,-0.1006,-0.0103,-0.1109,-89.2147,0.0004,-0.0999,7.3344,0.0,-0.0626,4.2595,0.0001,0.4269
143641,-106.7432,-0.1006,-0.0103,-0.1109,-89.2147,0.0004,-0.0999,7.3344,0.0,-0.0626,4.2595,0.0001,0.4269
143657,-106.7432,-0.1006,-0.0103,-0.1109,-89.2147,0.0004,-0.0999,7.3344,0.0,-0.0626,4.2595,0.0001,0.4269
143675,-106.7536,0.6751,-0.0103,-0.1136,-89.2285,0.0002,-0.1088,8.0341,-0.0,-0.0802,6.3118,-0.0001,-0.3713
143689,-106.7536,0.6751,-0.0103,-0.1136,-89.2285,0.0002,-0.1088,8.0341,-0.0,-0.0802,6.3118,-0.0001,-0.3713
143705,-106.7536,0.6751,-0.0103,-0.1136,-89.2285,0.0002,-0.1088,8.0341,-0.0,-0.0802,6.3118,-0.0001,-0.3713
143721,-106.7536,0.6751,-0.0103,-0.1136,-89.2285,0.0002,-0.1088,8.0341,-0.0,-0.0802,6.3118,-0.0001,-0.3713
143737,-106.7536,0.6751,-0.0103,-0.1136,-89.2285,0.0002,-0.1088,8.0341,-0.0,-0.0802,6.3118,-0.0001,-0.3713
143753,-106.7536,0.6751,-0.0103,-0.1136,-89.2285,0.0002,-0.1088,8.0341,-0.0,-0.0802,6.3118,-0.0001,-0.3713
143769,-106.7536,0.6751,-0.0103,-0.1136,-89.2285,0.0002,-0.1088,8.0341,-0.0,-0.0802,6.3118,-0.0001,-0.3713
143785,-106.7536,0.6751,-0.0103,-0.1136,-89.2285,0.0002,-0.1088,8.0341,-0.0,-0.0802,6.3118,-0.0001,-0.3713
143801,-106.7651,1.5161,-0.0103,-0.1103,-89.2181,0.0001,-0.1178,8.6649,0.0,-0.0743,5.2198,0.0001,0.2301
143817,-106.7651,1.5161,-0.0103,-0.1103,-89.2181,0.0001,-0.1178,8.6649,0.0,-0.0743,5.2198,0.0001,0.2301
143833,-106.7651,1.5161,-0.0103,-0.1103,-89.2181,0.0001,-0.1178,8.6649,0.0,-0.0743,5.2198,0.0001,0.2301
143849,-106.7651,1.5161,-0.0103,-0.1103,-89.2181,0.0001,-0.1178,8.6649,0.0,-0.0743,5.2198,0.0001,0.2301
143865,-106.7651,1.5161,-0.0103,-0.1103,-89.2181,0.0001,-0.1178,8.6649,0.0,-0.0743,5.2198,0.0001,0.2301
143881,-106.7651,1.5161,-0.0103,-0.1103,-89.2181,0.0001,-0.1178,8.6649,0.0,-0.0743,5.2198,0.0001,0.2301
143897,-106.7651,1.5161,-0.0103,-0.1103,-89.2181,0.0001,-0.1178,8.6649,0.0,-0.0743,5.2198,0.0001,0.2301
143915,-106.7651,1.5161,-0.0103,-0.1103,-89.2181,0.0001,-0.1178,8.6649,0.0,-0.0743,5.2198,0.0001,0.2301
143929,-106.7773,2.4165,-0.0104,-0.104,-89.2237,0.0001,-0.1253,9.2344,0.0,-0.0628,4.7438,-0.0,-0.0952
143945,-106.7773,2.4165,-0.0104,-0.104,-89.2237,0.0001,-0.1253,9.2344,0.0,-0.0628,4.7438,-0.0,-0.0952
143961,-106.7773,2.4165,-0.0104,-0.104,-89.2237,0.0001,-0.1253,9.2344,0.0,-0.0628,4.7438,-0.0,-0.0952
143977,-106.7773,2.4165,-0.0104,-0.104,-89.2237,0.0001,-0.1253,9.2344,0.0,-0.0628,4.7438,-0.0,-0.0952
143993,-106.7773,2.4165,-0.0104,-0.104,-89.2237,0.0001,-0.1253,9.2344,0.0,-0.0628,4.7438,-0.0,-0.0952
144009,-106.7773,2.4165,-0.0104,-0.104,-89.2237,0.0001,-0.1253,9.2344,0.0,-0.0628,4.7438,-0.0,-0.0952
144025,-106.7773,2.4165,-0.0104,-0.104,-89.2237,0.0001,-0.1253,9.2344,0.0,-0.0628,4.7438,-0.0,-0.0952
144044,-106.7902,3.3705,-0.0104,-0.0967,-89.2218,0.0001,-0.1325,9.7555,0.0,-0.06,4.3779,0.0,0.0111
144060,-106.7902,3.3705,-0.0104,-0.0967,-89.2218,0.0001,-0.1325,9.7555,0.0,-0.06,4.3779,0.0,0.0111
144076,-106.7902,3.3705,-0.0104,-0.0967,-89.2218,0.0001,-0.1325,9.7555,0.0,-0.06,4.3779,0.0,0.0111
144092,-106.7902,3.3705,-0.0104,-0.0967,-89.2218,0.0001,-0.1325,9.7555,0.0,-0.06,4.3779,0.0,0.0111
144108,-106.7902,3.3705,-0.0104,-0.0967,-89.2218,0.0001,-0.1325,9.7555,0.0,-0.06,4.3779,0.0,0.0111
144140,-106.7902,3.3705,-0.0104,-0.0967,-89.2218,0.0001,-0.1325,9.7555,0.0,-0.06,4.3779,0.0,0.0111
144156,-106.8039,4.3752,-0.0105,-0.0909,-89.222,0.0,-0.1393,10.2595,-0.0,-0.0565,4.1621,-0.0001,0.0001
144172,-106.8039,4.3752,-0.0105,-0.0909,-89.222,0.0,-0.1393,10.2595,-0.0,-0.0565,4.1621,-0.0001,0.0001
144188,-106.8039,4.3752,-0.0105,-0.0909,-89.222,0.0,-0.1393,10.2595,-0.0,-0.0565,4.1621,-0.0001,0.0001
144204,-106.8039,4.3752,-0.0105,-0.0909,-89.222,0.0,-0.1393,10.2595,-0.0,-0.0565,4.1621,-0.0001,0.0001
144220,-106.8039,4.3752,-0.0105,-0.0909,-89.222,0.0,-0.1393,10.2595,-0.0,-0.0565,4.1621,-0.0001,0.0001
144236,-106.8039,4.3752,-0.0105,-0.0909,-89.222,0.0,-0.1393,10.2595,-0.0,-0.0565,4.1621,-0.0001,0.0001
144252,-106.8039,4.3752,-0.0105,-0.0909,-89.222,0.0,-0.1393,10.2595,-0.0,-0.0565,4.1621,-0.0001,0.0001
144268,-106.8473,5.4206,-0.0106,-0.0765,-90.5918,0.1229,-0.9707,10.5295,0.0009,-7.4637,2.4236,0.0085,-30.2184
144289,-106.8473,5.4206,-0.0106,-0.0765,-90.5918,0.1229,-0.9707,10.5295,0.0009,-7.4637,2.4236,0.0085,-30.2184
144305,-106.8473,5.4206,-0.0106,-0.0765,-90.5918,0.1229,-0.9707,10.5295,0.0009,-7.4637,2.4236,0.0085,-30.2184
144321,-106.8473,5.4206,-0.0106,-0.0765,-90.5918,0.1229,-0.9707,10.5295,0.0009,-7.4637,2.4236,0.0085,-30.2184
144337,-106.8473,5.4206,-0.0106,-0.0765,-90.5918,0.1229,-0.9707,10.5295,0.0009,-7.4637,2.4236,0.0085,-30.2184
144353,-106.8473,5.4206,-0.0106,-0.0765,-90.5918,0.1229,-0.9707,10.5295,0.0009,-7.4637,2.4236,0.0085,-30.2184
144369,-106.8473,5.4206,-0.0106,-0.0765,-90.5918,0.1229,-0.9707,10.5295,0.0009,-7.4637,2.4236,0.0085,-30.2184
144385,-106.8473,5.4206,-0.0106,-0.0765,-90.5918,0.1229,-0.9707,10.5295,0.0009,-7.4637,2.4236,0.0085,-30.2184
144401,-106.8473,5.4206,-0.0106,-0.0765,-90.5918,0.1229,-0.9707,10.5295,0.0009,-7.4637,2.4236,0.0085,-30.2184
144417,-106.8473,5.4206,-0.0106,-0.0765,-90.5918,0.1229,-0.9707,10.5295,0.0009,-7.4637,2.4236,0.0085,-30.2184
144433,-106.8473,5.4206,-0.0106,-0.0765,-90.5918,0.1229,-0.9707,10.5295,0.0009,-7.4637,2.4236,0.0085,-30.2184
144449,-106.8473,5.4206,-0.0106,-0.0765,-90.5918,0.1229,-0.9707,10.5295,0.0009,-7.4637,2.4236,0.0085,-30.2184
144465,-106.8473,5.4206,-0.0106,-0.0765,-90.5918,0.1229,-0.9707,10.5295,0.0009,-7.4637,2.4236,0.0085,-30.2184
144481,-106.8473,5.4206,-0.0106,-0.0765,-90.5918,0.1229,-0.9707,10.5295,0.0009,-7.4637,2.4236,0.0085,-30.2184
144497,-106.8473,5.4206,-0.0106,-0.0765,-90.5918,0.1229,-0.9707,10.5295,0.0009,-7.4637,2.4236,0.0085,-30.2184
144513,-106.8473,5.4206,-0.0106,-0.0765,-90.5918,0.1229,-0.9707,10.5295,0.0009,-7.4637,2.4236,0.0085,-30.2184
144529,-106.8473,5.4206,-0.0106,-0.0765,-90.5918,0.1229,-0.9707,10.5295,0.0009,-7.4637,2.4236,0.0085,-30.2184
144554,-106.9607,6.4669,-0.0107,-0.036,-96.3,0.2687,-1.9661,10.4172,0.0011,-5.3919,-0.6083,0.0008,-80.2264
144566,-106.9607,6.4669,-0.0107,-0.036,-96.3,0.2687,-1.9661,10.4172,0.0011,-5.3919,-0.6083,0.0008,-80.2264
144582,-107.1128,7.4797,-0.011,0.0028,-107.4757,0.2782,-2.5121,10.1998,-0.0,-4.6836,-1.8648,-0.0094,-136.6646
144598,-107.1128,7.4797,-0.011,0.0028,-107.4757,0.2782,-2.5121,10.1998,-0.0,-4.6836,-1.8648,-0.0094,-136.6646
144614,-107.1128,7.4797,-0.011,0.0028,-107.4757,0.2782,-2.5121,10.1998,-0.0,-4.6836,-1.8648,-0.0094,-136.6646
144630,-107.1128,7.4797,-0.011,0.0028,-107.4757,0.2782,-2.5121,10.1998,-0.0,-4.6836,-1.8648,-0.0094,-136.6646
144646,-107.1128,7.4797,-0.011,0.0028,-107.4757,0.2782,-2.5121,10.1998,-0.0,-4.6836,-1.8648,-0.0094,-136.6646
144662,-107.1128,7.4797,-0.011,0.0028,-107.4757,0.2782,-2.5121,10.1998,-0.0,-4.6836,-1.8648,-0.0094,-136.6646
144678,-107.1128,7.4797,-0.011,0.0028,-107.4757,0.2782,-2.5121,10.1998,-0.0,-4.6836,-1.8648,-0.0094,-136.6646
144696,-107.1128,7.4797,-0.011,0.0028,-107.4757,0.2782,-2.5121,10.1998,-0.0,-4.6836,-1.8648,-0.0094,-136.6646
144710,-107.1128,7.4797,-0.011,0.0028,-107.4757,0.2782,-2.5121,10.1998,-0.0,-4.6836,-1.8648,-0.0094,-136.6646
144742,-107.1128,7.4797,-0.011,0.0028,-107.4757,0.2782,-2.5121,10.1998,-0.0,-4.6836,-1.8648,-0.0094,-136.6646
144758,-107.1128,7.4797,-0.011,0.0028,-107.4757,0.2782,-2.5121,10.1998,-0.0,-4.6836,-1.8648,-0.0094,-136.6646
144775,-107.1128,7.4797,-0.011,0.0028,-107.4757,0.2782,-2.5121,10.1998,-0.0,-4.6836,-1.8648,-0.0094,-136.6646
144791,-107.1128,7.4797,-0.011,0.0028,-107.4757,0.2782,-2.5121,10.1998,-0.0,-4.6836,-1.8648,-0.0094,-136.6646
144807,-107.1128,7.4797,-0.011,0.0028,-107.4757,0.2782,-2.5121,10.1998,-0.0,-4.6836,-1.8648,-0.0094,-136.6646
144823,-107.1128,7.4797,-0.011,0.0028,-107.4757,0.2782,-2.5121,10.1998,-0.0,-4.6836,-1.8648,-0.0094,-136.6646
144839,-107.1128,7.4797,-0.011,0.0028,-107.4757,0.2782,-2.5121,10.1998,-0.0,-4.6836,-1.8648,-0.0094,-136.6646
144855,-107.1128,7.4797,-0.011,0.0028,-107.4757,0.2782,-2.5121,10.1998,-0.0,-4.6836,-1.8648,-0.0094,-136.6646
144871,-107.1128,7.4797,-0.011,0.0028,-107.4757,0.2782,-2.5121,10.1998,-0.0,-4.6836,-1.8648,-0.0094,-136.6646
144887,-107.2384,8.4495,-0.0109,-0.017,-123.7631,0.117,-1.9135,10.2997,-0.0013,2.7197,0.4542,-0.0057,-177.0636
144903,-107.2384,8.4495,-0.0109,-0.017,-123.7631,0.117,-1.9135,10.2997,-0.0013,2.7197,0.4542,-0.0057,-177.0636
144919,-107.2384,8.4495,-0.0109,-0.017,-123.7631,0.117,-1.9135,10.2997,-0.0013,2.7197,0.4542,-0.0057,-177.0636
144935,-107.2384,8.4495,-0.0109,-0.017,-123.7631,0.117,-1.9135,10.2997,-0.0013,2.7197,0.4542,-0.0057,-177.0636
144951,-107.2384,8.4495,-0.0109,-0.017,-123.7631,0.117,-1.9135,10.2997,-0.0013,2.7197,0.4542,-0.0057,-177.0636
144967,-107.2165,9.3671,-0.0102,-0.1111,-141.3759,-0.2715,0.2462,9.6064,0.0019,15.2108,-4.8828,0.0222,-169.8625
144983,-107.2165,9.3671,-0.0102,-0.1111,-141.3759,-0.2715,0.2462,9.6064,0.0019,15.2108,-4.8828,0.0222,-169.8625
144999,-107.2165,9.3671,-0.0102,-0.1111,-141.3759,-0.2715,0.2462,9.6064,0.0019,15.2108,-4.8828,0.0222,-169.8625
145015,-107.2165,9.3671,-0.0102,-0.1111,-141.3759,-0.2715,0.2462,9.6064,0.0019,15.2108,-4.8828,0.0222,-169.8625
145031,-107.2165,9.3671,-0.0102,-0.1111,-141.3759,-0.2715,0.2462,9.6064,0.0019,15.2108,-4.8828,0.0222,-169.8625
145047,-107.1151,10.0991,-0.009,-0.1294,-156.9167,-0.6568,0.2213,7.1483,0.0128,-0.2322,-22.8894,0.1012,-138.9704
145063,-107.1151,10.0991,-0.009,-0.1294,-156.9167,-0.6568,0.2213,7.1483,0.0128,-0.2322,-22.8894,0.1012,-138.9704
145079,-107.1151,10.0991,-0.009,-0.1294,-156.9167,-0.6568,0.2213,7.1483,0.0128,-0.2322,-22.8894,0.1012,-138.9704
145095,-107.1151,10.0991,-0.009,-0.1294,-156.9167,-0.6568,0.2213,7.1483,0.0128,-0.2322,-22.8894,0.1012,-138.9704
145111,-107.1151,10.0991,-0.009,-0.1294,-156.9167,-0.6568,0.2213,7.1483,0.0128,-0.2322,-22.8894,0.1012,-138.9704
145127,-107.1151,10.0991,-0.009,-0.1294,-156.9167,-0.6568,0.2213,7.1483,0.0128,-0.2322,-22.8894,0.1012,-138.9704
145143,-107.1151,10.0991,-0.009,-0.1294,-156.9167,-0.6568,0.2213,7.1483,0.0128,-0.2322,-22.8894,0.1012,-138.9704
145159,-107.1151,10.0991,-0.009,-0.1294,-156.9167,-0.6568,0.2213,7.1483,0.0128,-0.2322,-22.8894,0.1012,-138.9704
145175,-107.1151,10.0991,-0.009,-0.1294,-156.9167,-0.6568,0.2213,7.1483,0.0128,-0.2322,-22.8894,0.1012,-138.9704
145191,-107.1151,10.0991,-0.009,-0.1294,-156.9167,-0.6568,0.2213,7.1483,0.0128,-0.2322,-22.8894,0.1012,-138.9704
145207,-107.1151,10.0991,-0.009,-0.1294,-156.9167,-0.6568,0.2213,7.1483,0.0128,-0.2322,-22.8894,0.1012,-138.9704
145223,-107.1151,10.0991,-0.009,-0.1294,-156.9167,-0.6568,0.2213,7.1483,0.0128,-0.2322,-22.8894,0.1012,-138.9704
145255,-107.1081,10.586,-0.0092,-0.0352,-169.3131,-0.8485,-0.6577,4.6284,0.0033,-5.9033,-16.9248,-0.0634,-121.3317
145271,-107.1081,10.586,-0.0092,-0.0352,-169.3131,-0.8485,-0.6577,4.6284,0.0033,-5.9033,-16.9248,-0.0634,-121.3317
145293,-107.1081,10.586,-0.0092,-0.0352,-169.3131,-0.8485,-0.6577,4.6284,0.0033,-5.9033,-16.9248,-0.0634,-121.3317
145310,-107.1081,10.586,-0.0092,-0.0352,-169.3131,-0.8485,-0.6577,4.6284,0.0033,-5.9033,-16.9248,-0.0634,-121.3317
145326,-107.1081,10.586,-0.0092,-0.0352,-169.3131,-0.8485,-0.6577,4.6284,0.0033,-5.9033,-16.9248,-0.0634,-121.3317
145342,-107.2458,10.8557,-0.0093,0.0374,-179.6255,-0.9546,-2.092,2.5889,-0.0022,-9.959,-14.1607,-0.0381,-79.9813
145358,-107.2458,10.8557,-0.0093,0.0374,-179.6255,-0.9546,-2.092,2.5889,-0.0022,-9.959,-14.1607,-0.0381,-79.9813
145374,-107.2458,10.8557,-0.0093,0.0374,-179.6255,-0.9546,-2.092,2.5889,-0.0022,-9.959,-14.1607,-0.0381,-79.9813
145390,-107.2458,10.8557,-0.0093,0.0374,-179.6255,-0.9546,-2.092,2.5889,-0.0022,-9.959,-14.1607,-0.0381,-79.9813
145410,-107.4746,10.9733,-0.0128,0.2386,176.0902,-0.7851,-3.1833,1.1818,-0.0103,-13.3625,-17.2301,-0.1,-32.1021
145422,-107.4746,10.9733,-0.0128,0.2386,176.0902,-0.7851,-3.1833,1.1818,-0.0103,-13.3625,-17.2301,-0.1,-32.1021
145438,-107.4746,10.9733,-0.0128,0.2386,176.0902,-0.7851,-3.1833,1.1818,-0.0103,-13.3625,-17.2301,-0.1,-32.1021
145454,-107.4746,10.9733,-0.0128,0.2386,176.0902,-0.7851,-3.1833,1.1818,-0.0103,-13.3625,-17.2301,-0.1,-32.1021
145470,-107.4746,10.9733,-0.0128,0.2386,176.0902,-0.7851,-3.1833,1.1818,-0.0103,-13.3625,-17.2301,-0.1,-32.1021
145486,-107.4746,10.9733,-0.0128,0.2386,176.0902,-0.7851,-3.1833,1.1818,-0.0103,-13.3625,-17.2301,-0.1,-32.1021
145502,-107.4746,10.9733,-0.0128,0.2386,176.0902,-0.7851,-3.1833,1.1818,-0.0103,-13.3625,-17.2301,-0.1,-32.1021
145518,-107.4746,10.9733,-0.0128,0.2386,176.0902,-0.7851,-3.1833,1.1818,-0.0103,-13.3625,-17.2301,-0.1,-32.1021
145534,-107.4746,10.9733,-0.0128,0.2386,176.0902,-0.7851,-3.1833,1.1818,-0.0103,-13.3625,-17.2301,-0.1,-32.1021
145550,-107.4746,10.9733,-0.0128,0.2386,176.0902,-0.7851,-3.1833,1.1818,-0.0103,-13.3625,-17.2301,-0.1,-32.1021
145566,-107.4746,10.9733,-0.0128,0.2386,176.0902,-0.7851,-3.1833,1.1818,-0.0103,-13.3625,-17.2301,-0.1,-32.1021
145582,-107.4746,10.9733,-0.0128,0.2386,176.0902,-0.7851,-3.1833,1.1818,-0.0103,-13.3625,-17.2301,-0.1,-32.1021
145598,-107.8204,11.0326,-0.0128,0.2047,174.891,-0.649,-3.6679,0.4417,0.0008,-4.0245,-6.1463,0.0921,-5.7492
145614,-107.8204,11.0326,-0.0128,0.2047,174.891,-0.649,-3.6679,0.4417,0.0008,-4.0245,-6.1463,0.0921,-5.7492
145630,-107.8204,11.0326,-0.0128,0.2047,174.891,-0.649,-3.6679,0.4417,0.0008,-4.0245,-6.1463,0.0921,-5.7492
145648,-107.8204,11.0326,-0.0128,0.2047,174.891,-0.649,-3.6679,0.4417,0.0008,-4.0245,-6.1463,0.0921,-5.7492
145662,-107.8204,11.0326,-0.0128,0.2047,174.891,-0.649,-3.6679,0.4417,0.0008,-4.0245,-6.1463,0.0921,-5.7492
145678,-107.8204,11.0326,-0.0128,0.2047,174.891,-0.649,-3.6679,0.4417,0.0008,-4.0245,-6.1463,0.0921,-5.7492
145694,-107.8204,11.0326,-0.0128,0.2047,174.891,-0.649,-3.6679,0.4417,0.0008,-4.0245,-6.1463,0.0921,-5.7492
145710,-107.8204,11.0326,-0.0128,0.2047,174.891,-0.649,-3.6679,0.4417,0.0008,-4.0245,-6.1463,0.0921,-5.7492
145726,-107.8204,11.0326,-0.0128,0.2047,174.891,-0.649,-3.6679,0.4417,0.0008,-4.0245,-6.1463,0.0921,-5.7492
145742,-107.8204,11.0326,-0.0128,0.2047,174.891,-0.649,-3.6679,0.4417,0.0008,-4.0245,-6.1463,0.0921,-5.7492
145758,-107.8204,11.0326,-0.0128,0.2047,174.891,-0.649,-3.6679,0.4417,0.0008,-4.0245,-6.1463,0.0921,-5.7492
145774,-107.8204,11.0326,-0.0128,0.2047,174.891,-0.649,-3.6679,0.4417,0.0008,-4.0245,-6.1463,0.0921,-5.7492
145790,-107.8204,11.0326,-0.0128,0.2047,174.891,-0.649,-3.6679,0.4417,0.0008,-4.0245,-6.1463,0.0921,-5.7492
145816,-108.1986,11.0707,-0.0123,0.1386,174.7363,-0.414,-3.8549,0.3541,0.0007,-0.9981,-0.4676,-0.0001,-4.8827
145822,-108.5886,11.1068,-0.0118,0.0858,174.7119,-0.2428,-3.9489,0.3538,0.0002,-0.9271,-0.0032,-0.0049,-4.3736
145838,-108.5886,11.1068,-0.0118,0.0858,174.7119,-0.2428,-3.9489,0.3538,0.0002,-0.9271,-0.0032,-0.0049,-4.3736
145854,-108.5886,11.1068,-0.0118,0.0858,174.7119,-0.2428,-3.9489,0.3538,0.0002,-0.9271,-0.0032,-0.0049,-4.3736
145870,-108.5886,11.1068,-0.0118,0.0858,174.7119,-0.2428,-3.9489,0.3538,0.0002,-0.9271,-0.0032,-0.0049,-4.3736
145886,-108.5886,11.1068,-0.0118,0.0858,174.7119,-0.2428,-3.9489,0.3538,0.0002,-0.9271,-0.0032,-0.0049,-4.3736
145902,-108.5886,11.1068,-0.0118,0.0858,174.7119,-0.2428,-3.9489,0.3538,0.0002,-0.9271,-0.0032,-0.0049,-4.3736
145918,-108.5886,11.1068,-0.0118,0.0858,174.7119,-0.2428,-3.9489,0.3538,0.0002,-0.9271,-0.0032,-0.0049,-4.3736
145934,-108.5886,11.1068,-0.0118,0.0858,174.7119,-0.2428,-3.9489,0.3538,0.0002,-0.9271,-0.0032,-0.0049,-4.3736
145950,-108.5886,11.1068,-0.0118,0.0858,174.7119,-0.2428,-3.9489,0.3538,0.0002,-0.9271,-0.0032,-0.0049,-4.3736
145966,-108.5886,11.1068,-0.0118,0.0858,174.7119,-0.2428,-3.9489,0.3538,0.0002,-0.9271,-0.0032,-0.0049,-4.3736
145982,-108.5886,11.1068,-0.0118,0.0858,174.7119,-0.2428,-3.9489,0.3538,0.0002,-0.9271,-0.0032,-0.0049,-4.3736
146005,-108.5886,11.1068,-0.0118,0.0858,174.7119,-0.2428,-3.9489,0.3538,0.0002,-0.9271,-0.0032,-0.0049,-4.3736
146098,-108.5886,11.1068,-0.0118,0.0858,174.7119,-0.2428,-3.9489,0.3538,0.0002,-0.9271,-0.0032,-0.0049,-4.3736
146111,-108.5886,11.1068,-0.0118,0.0858,174.7119,-0.2428,-3.9489,0.3538,0.0002,-0.9271,-0.0032,-0.0049,-4.3736
146127,-108.5886,11.1068,-0.0118,0.0858,174.7119,-0.2428,-3.9489,0.3538,0.0002,-0.9271,-0.0032,-0.0049,-4.3736
146143,-108.5886,11.1068,-0.0118,0.0858,174.7119,-0.2428,-3.9489,0.3538,0.0002,-0.9271,-0.0032,-0.0049,-4.3736
146159,-108.5886,11.1068,-0.0118,0.0858,174.7119,-0.2428,-3.9489,0.3538,0.0002,-0.9271,-0.0032,-0.0049,-4.3736
146175,-108.5886,11.1068,-0.0118,0.0858,174.7119,-0.2428,-3.9489,0.3538,0.0002,-0.9271,-0.0032,-0.0049,-4.3736
146191,-108.5886,11.1068,-0.0118,0.0858,174.7119,-0.2428,-3.9489,0.3538,0.0002,-0.9271,-0.0032,-0.0049,-4.3736
146207,-108.5886,11.1068,-0.0118,0.0858,174.7119,-0.2428,-3.9489,0.3538,0.0002,-0.9271,-0.0032,-0.0049,-4.3736
146223,-108.5886,11.1068,-0.0118,0.0858,174.7119,-0.2428,-3.9489,0.3538,0.0002,-0.9271,-0.0032,-0.0049,-4.3736
146241,-108.5886,11.1068,-0.0118,0.0858,174.7119,-0.2428,-3.9489,0.3538,0.0002,-0.9271,-0.0032,-0.0049,-4.3736
146255,-108.5886,11.1068,-0.0118,0.0858,174.7119,-0.2428,-3.9489,0.3538,0.0002,-0.9271,-0.0032,-0.0049,-4.3736
146271,-108.9888,11.1434,-0.0116,0.055,174.7102,-0.1393,-4.0513,0.3663,0.0001,-0.308,0.0376,-0.0004,-4.2558
146287,-108.9888,11.1434,-0.0116,0.055,174.7102,-0.1393,-4.0513,0.3663,0.0001,-0.308,0.0376,-0.0004,-4.2558
146303,-108.9888,11.1434,-0.0116,0.055,174.7102,-0.1393,-4.0513,0.3663,0.0001,-0.308,0.0376,-0.0004,-4.2558
146319,-108.9888,11.1434,-0.0116,0.055,174.7102,-0.1393,-4.0513,0.3663,0.0001,-0.308,0.0376,-0.0004,-4.2558
146335,-108.9888,11.1434,-0.0116,0.055,174.7102,-0.1393,-4.0513,0.3663,0.0001,-0.308,0.0376,-0.0004,-4.2558
146351,-108.9888,11.1434,-0.0116,0.055,174.7102,-0.1393,-4.0513,0.3663,0.0001,-0.308,0.0376,-0.0004,-4.2558
146367,-108.9888,11.1434,-0.0116,0.055,174.7102,-0.1393,-4.0513,0.3663,0.0001,-0.308,0.0376,-0.0004,-4.2558
146383,-108.9888,11.1434,-0.0116,0.055,174.7102,-0.1393,-4.0513,0.3663,0.0001,-0.308,0.0376,-0.0004,-4.2558
146399,-108.9888,11.1434,-0.0116,0.055,174.7102,-0.1393,-4.0513,0.3663,0.0001,-0.308,0.0376,-0.0004,-4.2558
146415,-108.9888,11.1434,-0.0116,0.055,174.7102,-0.1393,-4.0513,0.3663,0.0001,-0.308,0.0376,-0.0004,-4.2558
146433,-108.9888,11.1434,-0.0116,0.055,174.7102,-0.1393,-4.0513,0.3663,0.0001,-0.308,0.0376,-0.0004,-4.2558
