timestamp,x,y,z,pitch,yaw,roll,vx,vy,vz,ax,ay,az,yaw_rate
72252,-106.6867,-4.8475,-0.0766,0.0,-89.3578,0.0,-0.0,0.0,-0.101,-0.0,0.0,10.1187,0.0
72268,-106.6867,-4.8475,-0.0766,0.0,-89.3578,0.0,-0.0,0.0,-0.101,-0.0,0.0,10.1187,0.0
72284,-106.6867,-4.8475,-0.0766,0.0,-89.3578,0.0,-0.0,0.0,-0.101,-0.0,0.0,10.1187,0.0
72300,-106.6867,-4.8475,-0.0766,0.0,-89.3578,0.0,-0.0,0.0,-0.101,-0.0,0.0,10.1187,0.0
72316,-106.6867,-4.8475,-0.0766,0.0,-89.3578,0.0,-0.0,0.0,-0.101,-0.0,0.0,10.1187,0.0
72332,-106.6867,-4.8475,-0.0766,0.0,-89.3578,0.0,-0.0,0.0,-0.101,-0.0,0.0,10.1187,0.0
72348,-106.6867,-4.8475,-0.0766,0.0,-89.3578,0.0,-0.0,0.0,-0.101,-0.0,0.0,10.1187,0.0
72364,-106.6867,-4.8475,-0.0766,0.0,-89.3578,0.0,-0.0,0.0,-0.101,-0.0,0.0,10.1187,0.0
72380,-106.6867,-4.8475,-0.0766,0.0,-89.3578,0.0,-0.0,0.0,-0.101,-0.0,0.0,10.1187,0.0
72396,-106.6867,-4.8475,-0.0766,0.0,-89.3578,0.0,-0.0,0.0,-0.101,-0.0,0.0,10.1187,0.0
72412,-106.6867,-4.8475,-0.0766,0.0,-89.3578,0.0,-0.0,0.0,-0.101,-0.0,0.0,10.1187,0.0
72428,-106.6867,-4.8475,-0.0766,0.0,-89.3578,0.0,-0.0,0.0,-0.101,-0.0,0.0,10.1187,0.0
72444,-106.6867,-4.8475,-0.0766,0.0,-89.3578,0.0,-0.0,0.0,-0.101,-0.0,0.0,10.1187,0.0
72460,-106.6867,-4.8475,-0.0766,0.0,-89.3578,0.0,-0.0,0.0,-0.101,-0.0,0.0,10.1187,0.0
72476,-106.6867,-4.8475,-0.0766,0.0,-89.3578,0.0,-0.0,0.0,-0.101,-0.0,0.0,10.1187,0.0
72492,-106.6867,-4.8475,-0.0766,0.0,-89.3578,0.0,-0.0,0.0,-0.101,-0.0,0.0,10.1187,0.0
72508,-106.6867,-4.8475,-0.0766,0.0,-89.3578,0.0,-0.0,0.0,-0.101,-0.0,0.0,10.1187,0.0
72524,-106.6867,-4.8475,-0.0766,0.0,-89.3578,0.0,-0.0,0.0,-0.101,-0.0,0.0,10.1187,0.0
72540,-106.6867,-4.8475,-0.0766,0.0,-89.3578,0.0,-0.0,0.0,-0.101,-0.0,0.0,10.1187,0.0
72556,-106.6867,-4.8475,-0.0766,0.0,-89.3578,0.0,-0.0,0.0,-0.101,-0.0,0.0,10.1187,0.0
72572,-106.6867,-4.8475,-0.0766,0.0,-89.3578,0.0,-0.0,0.0,-0.101,-0.0,0.0,10.1187,0.0
72588,-106.6867,-4.8475,-0.0766,0.0,-89.3578,0.0,-0.0,0.0,-0.101,-0.0,0.0,10.1187,0.0
72604,-106.6867,-4.8475,-0.0766,0.0,-89.3578,0.0,-0.0,0.0,-0.101,-0.0,0.0,10.1187,0.0
72620,-106.6867,-4.8475,-0.0766,0.0,-89.3578,0.0,-0.0,0.0,-0.101,-0.0,0.0,10.1187,0.0
72636,-106.6867,-4.8475,-0.0766,0.0,-89.3578,0.0,-0.0,0.0,-0.101,-0.0,0.0,10.1187,0.0
72652,-106.6867,-4.8475,-0.0766,0.0,-89.3578,0.0,-0.0,0.0,-0.101,-0.0,0.0,10.1187,0.0
72668,-106.6867,-4.8475,-0.0766,0.0,-89.3578,0.0,-0.0,0.0,-0.101,-0.0,0.0,10.1187,0.0
72684,-106.6867,-4.8475,-0.0766,0.0,-89.3578,0.0,-0.0,0.0,-0.101,-0.0,0.0,10.1187,0.0
72700,-106.6867,-4.8475,-0.0766,0.0,-89.3578,0.0,-0.0,0.0,-0.101,-0.0,0.0,10.1187,0.0
72716,-106.6867,-4.8475,-0.0766,0.0,-89.3578,0.0,-0.0,0.0,-0.101,-0.0,0.0,10.1187,0.0
72732,-106.6867,-4.8475,-0.0766,0.0,-89.3578,0.0,-0.0,0.0,-0.101,-0.0,0.0,10.1187,0.0
72748,-106.6867,-4.8475,-0.0766,0.0,-89.3578,0.0,-0.0,0.0,-0.101,-0.0,0.0,10.1187,0.0
72764,-106.6867,-4.8475,-0.0766,0.0,-89.3578,0.0,-0.0,0.0,-0.101,-0.0,0.0,10.1187,0.0
72780,-106.6867,-4.8475,-0.0766,0.0,-89.3578,0.0,-0.0,0.0,-0.101,-0.0,0.0,10.1187,0.0
72796,-106.6867,-4.8475,-0.0766,0.0,-89.3578,0.0,-0.0,0.0,-0.101,-0.0,0.0,10.1187,0.0
72812,-106.6867,-4.8475,-0.0766,0.0,-89.3578,0.0,-0.0,0.0,-0.101,-0.0,0.0,10.1187,0.0
72828,-106.6867,-4.8475,-0.0766,0.0,-89.3578,0.0,-0.0,0.0,-0.101,-0.0,0.0,10.1187,0.0
72844,-106.6867,-4.8475,-0.0766,0.0,-89.3578,0.0,-0.0,0.0,-0.101,-0.0,0.0,10.1187,0.0
72860,-106.6867,-4.8475,-0.0766,0.0,-89.3578,0.0,-0.0,0.0,-0.101,-0.0,0.0,10.1187,0.0
72876,-106.6867,-4.8471,-0.0636,-0.001,-89.3604,0.0,-0.001,0.0549,0.219,-0.0025,0.1373,0.8001,-0.7682
72892,-106.6867,-4.8471,-0.0636,-0.001,-89.3604,0.0,-0.001,0.0549,0.219,-0.0025,0.1373,0.8001,-0.7682
72908,-106.6867,-4.8471,-0.0636,-0.001,-89.3604,0.0,-0.001,0.0549,0.219,-0.0025,0.1373,0.8001,-0.7682
72924,-106.6867,-4.8471,-0.0636,-0.001,-89.3604,0.0,-0.001,0.0549,0.219,-0.0025,0.1373,0.8001,-0.7682
72940,-106.6867,-4.8471,-0.0636,-0.001,-89.3604,0.0,-0.001,0.0549,0.219,-0.0025,0.1373,0.8001,-0.7682
72956,-106.6867,-4.8471,-0.0636,-0.001,-89.3604,0.0,-0.001,0.0549,0.219,-0.0025,0.1373,0.8001,-0.7682
72972,-106.6867,-4.8471,-0.0636,-0.001,-89.3604,0.0,-0.001,0.0549,0.219,-0.0025,0.1373,0.8001,-0.7682
72993,-106.6868,-4.8394,-0.0423,-0.0078,-89.3566,-0.0,-0.0021,0.2023,0.1887,-0.0094,1.3066,-0.2689,-0.0451
73004,-106.6868,-4.8394,-0.0423,-0.0078,-89.3566,-0.0,-0.0021,0.2023,0.1887,-0.0094,1.3066,-0.2689,-0.0451
73020,-106.6868,-4.8394,-0.0423,-0.0078,-89.3566,-0.0,-0.0021,0.2023,0.1887,-0.0094,1.3066,-0.2689,-0.0451
73036,-106.6868,-4.8394,-0.0423,-0.0078,-89.3566,-0.0,-0.0021,0.2023,0.1887,-0.0094,1.3066,-0.2689,-0.0451
73052,-106.6868,-4.8394,-0.0423,-0.0078,-89.3566,-0.0,-0.0021,0.2023,0.1887,-0.0094,1.3066,-0.2689,-0.0451
73068,-106.6868,-4.8394,-0.0423,-0.0078,-89.3566,-0.0,-0.0021,0.2023,0.1887,-0.0094,1.3066,-0.2689,-0.0451
73084,-106.6868,-4.8394,-0.0423,-0.0078,-89.3566,-0.0,-0.0021,0.2023,0.1887,-0.0094,1.3066,-0.2689,-0.0451
73100,-106.6873,-4.802,-0.0274,-0.0286,-89.3434,0.0001,-0.0071,0.6008,0.1146,-0.0492,3.8684,-0.7189,0.0903
73116,-106.6873,-4.802,-0.0274,-0.0286,-89.3434,0.0001,-0.0071,0.6008,0.1146,-0.0492,3.8684,-0.7189,0.0903
73132,-106.6873,-4.802,-0.0274,-0.0286,-89.3434,0.0001,-0.0071,0.6008,0.1146,-0.0492,3.8684,-0.7189,0.0903
73148,-106.6873,-4.802,-0.0274,-0.0286,-89.3434,0.0001,-0.0071,0.6008,0.1146,-0.0492,3.8684,-0.7189,0.0903
73164,-106.6873,-4.802,-0.0274,-0.0286,-89.3434,0.0001,-0.0071,0.6008,0.1146,-0.0492,3.8684,-0.7189,0.0903
73180,-106.6873,-4.802,-0.0274,-0.0286,-89.3434,0.0001,-0.0071,0.6008,0.1146,-0.0492,3.8684,-0.7189,0.0903
73201,-106.6883,-4.7172,-0.019,-0.048,-89.3416,0.0001,-0.0111,0.9596,0.0609,-0.0369,3.3731,-0.5047,-0.0435
73212,-106.6883,-4.7172,-0.019,-0.048,-89.3416,0.0001,-0.0111,0.9596,0.0609,-0.0369,3.3731,-0.5047,-0.0435
73228,-106.6883,-4.7172,-0.019,-0.048,-89.3416,0.0001,-0.0111,0.9596,0.0609,-0.0369,3.3731,-0.5047,-0.0435
73244,-106.6883,-4.7172,-0.019,-0.048,-89.3416,0.0001,-0.0111,0.9596,0.0609,-0.0369,3.3731,-0.5047,-0.0435
73260,-106.6883,-4.7172,-0.019,-0.048,-89.3416,0.0001,-0.0111,0.9596,0.0609,-0.0369,3.3731,-0.5047,-0.0435
73276,-106.6883,-4.7172,-0.019,-0.048,-89.3416,0.0001,-0.0111,0.9596,0.0609,-0.0369,3.3731,-0.5047,-0.0435
73292,-106.6883,-4.7172,-0.019,-0.048,-89.3416,0.0001,-0.0111,0.9596,0.0609,-0.0369,3.3731,-0.5047,-0.0435
73308,-106.6883,-4.7172,-0.019,-0.048,-89.3416,0.0001,-0.0111,0.9596,0.0609,-0.0369,3.3731,-0.5047,-0.0435
73324,-106.689,-4.6149,-0.0144,-0.04,-89.363,-0.001,-0.0081,1.0617,0.0344,0.0282,0.9826,-0.2554,0.1412
73340,-106.689,-4.6149,-0.0144,-0.04,-89.363,-0.001,-0.0081,1.0617,0.0344,0.0282,0.9826,-0.2554,0.1412
73356,-106.689,-4.6149,-0.0144,-0.04,-89.363,-0.001,-0.0081,1.0617,0.0344,0.0282,0.9826,-0.2554,0.1412
73372,-106.689,-4.6149,-0.0144,-0.04,-89.363,-0.001,-0.0081,1.0617,0.0344,0.0282,0.9826,-0.2554,0.1412
73388,-106.689,-4.6149,-0.0144,-0.04,-89.363,-0.001,-0.0081,1.0617,0.0344,0.0282,0.9826,-0.2554,0.1412
73404,-106.689,-4.6149,-0.0144,-0.04,-89.363,-0.001,-0.0081,1.0617,0.0344,0.0282,0.9826,-0.2554,0.1412
73420,-106.6904,-4.4899,-0.0124,-0.0341,-89.3518,0.0002,-0.0132,1.1881,0.013,-0.0451,1.1146,-0.1883,0.1261
73436,-106.6904,-4.4899,-0.0124,-0.0341,-89.3518,0.0002,-0.0132,1.1881,0.013,-0.0451,1.1146,-0.1883,0.1261
73452,-106.6904,-4.4899,-0.0124,-0.0341,-89.3518,0.0002,-0.0132,1.1881,0.013,-0.0451,1.1146,-0.1883,0.1261
73468,-106.6904,-4.4899,-0.0124,-0.0341,-89.3518,0.0002,-0.0132,1.1881,0.013,-0.0451,1.1146,-0.1883,0.1261
73484,-106.6904,-4.4899,-0.0124,-0.0341,-89.3518,0.0002,-0.0132,1.1881,0.013,-0.0451,1.1146,-0.1883,0.1261
73500,-106.6904,-4.4899,-0.0124,-0.0341,-89.3518,0.0002,-0.0132,1.1881,0.013,-0.0451,1.1146,-0.1883,0.1261
73520,-106.6918,-4.3651,-0.0117,-0.0216,-89.3509,0.0002,-0.0144,1.2681,0.0054,-0.0115,0.7699,-0.0733,-0.0184
73532,-106.6918,-4.3651,-0.0117,-0.0216,-89.3509,0.0002,-0.0144,1.2681,0.0054,-0.0115,0.7699,-0.0733,-0.0184
73548,-106.6918,-4.3651,-0.0117,-0.0216,-89.3509,0.0002,-0.0144,1.2681,0.0054,-0.0115,0.7699,-0.0733,-0.0184
73564,-106.6918,-4.3651,-0.0117,-0.0216,-89.3509,0.0002,-0.0144,1.2681,0.0054,-0.0115,0.7699,-0.0733,-0.0184
73580,-106.6918,-4.3651,-0.0117,-0.0216,-89.3509,0.0002,-0.0144,1.2681,0.0054,-0.0115,0.7699,-0.0733,-0.0184
73596,-106.6918,-4.3651,-0.0117,-0.0216,-89.3509,0.0002,-0.0144,1.2681,0.0054,-0.0115,0.7699,-0.0733,-0.0184
73612,-106.6918,-4.3651,-0.0117,-0.0216,-89.3509,0.0002,-0.0144,1.2681,0.0054,-0.0115,0.7699,-0.0733,-0.0184
73628,-106.6936,-4.2131,-0.0112,-0.0329,-89.3521,0.0001,-0.0179,1.5818,0.0024,-0.0342,3.0546,-0.0294,-0.0048
73644,-106.6936,-4.2131,-0.0112,-0.0329,-89.3521,0.0001,-0.0179,1.5818,0.0024,-0.0342,3.0546,-0.0294,-0.0048
73660,-106.6936,-4.2131,-0.0112,-0.0329,-89.3521,0.0001,-0.0179,1.5818,0.0024,-0.0342,3.0546,-0.0294,-0.0048
73676,-106.6936,-4.2131,-0.0112,-0.0329,-89.3521,0.0001,-0.0179,1.5818,0.0024,-0.0342,3.0546,-0.0294,-0.0048
73692,-106.6936,-4.2131,-0.0112,-0.0329,-89.3521,0.0001,-0.0179,1.5818,0.0024,-0.0342,3.0546,-0.0294,-0.0048
73708,-106.6936,-4.2131,-0.0112,-0.0329,-89.3521,0.0001,-0.0179,1.5818,0.0024,-0.0342,3.0546,-0.0294,-0.0048
73730,-106.6957,-4.0222,-0.011,-0.0464,-89.3582,0.0,-0.0231,2.0545,0.0011,-0.0482,4.404,-0.0121,-0.0147
73740,-106.6957,-4.0222,-0.011,-0.0464,-89.3582,0.0,-0.0231,2.0545,0.0011,-0.0482,4.404,-0.0121,-0.0147
73756,-106.6957,-4.0222,-0.011,-0.0464,-89.3582,0.0,-0.0231,2.0545,0.0011,-0.0482,4.404,-0.0121,-0.0147
73772,-106.6957,-4.0222,-0.011,-0.0464,-89.3582,0.0,-0.0231,2.0545,0.0011,-0.0482,4.404,-0.0121,-0.0147
73788,-106.6957,-4.0222,-0.011,-0.0464,-89.3582,0.0,-0.0231,2.0545,0.0011,-0.0482,4.404,-0.0121,-0.0147
73804,-106.6957,-4.0222,-0.011,-0.0464,-89.3582,0.0,-0.0231,2.0545,0.0011,-0.0482,4.404,-0.0121,-0.0147
73820,-106.6957,-4.0222,-0.011,-0.0464,-89.3582,0.0,-0.0231,2.0545,0.0011,-0.0482,4.404,-0.0121,-0.0147
73836,-106.6986,-3.7802,-0.0107,-0.0658,-89.328,0.0004,-0.0361,2.7638,0.0005,-0.1277,7.0064,-0.0057,1.3495
73852,-106.6986,-3.7802,-0.0107,-0.0658,-89.328,0.0004,-0.0361,2.7638,0.0005,-0.1277,7.0064,-0.0057,1.3495
73868,-106.6986,-3.7802,-0.0107,-0.0658,-89.328,0.0004,-0.0361,2.7638,0.0005,-0.1277,7.0064,-0.0057,1.3495
73884,-106.6986,-3.7802,-0.0107,-0.0658,-89.328,0.0004,-0.0361,2.7638,0.0005,-0.1277,7.0064,-0.0057,1.3495
73900,-106.6986,-3.7802,-0.0107,-0.0658,-89.328,0.0004,-0.0361,2.7638,0.0005,-0.1277,7.0064,-0.0057,1.3495
73916,-106.6986,-3.7802,-0.0107,-0.0658,-89.328,0.0004,-0.0361,2.7638,0.0005,-0.1277,7.0064,-0.0057,1.3495
73932,-106.6986,-3.7802,-0.0107,-0.0658,-89.328,0.0004,-0.0361,2.7638,0.0005,-0.1277,7.0064,-0.0057,1.3495
73948,-106.7027,-3.4677,-0.0105,-0.0888,-89.3208,0.0006,-0.0418,3.3563,0.0003,-0.0581,6.0263,-0.0028,-0.6974
73964,-106.7027,-3.4677,-0.0105,-0.0888,-89.3208,0.0006,-0.0418,3.3563,0.0003,-0.0581,6.0263,-0.0028,-0.6974
73980,-106.7027,-3.4677,-0.0105,-0.0888,-89.3208,0.0006,-0.0418,3.3563,0.0003,-0.0581,6.0263,-0.0028,-0.6974
73996,-106.7027,-3.4677,-0.0105,-0.0888,-89.3208,0.0006,-0.0418,3.3563,0.0003,-0.0581,6.0263,-0.0028,-0.6974
74012,-106.7027,-3.4677,-0.0105,-0.0888,-89.3208,0.0006,-0.0418,3.3563,0.0003,-0.0581,6.0263,-0.0028,-0.6974
74028,-106.7027,-3.4677,-0.0105,-0.0888,-89.3208,0.0006,-0.0418,3.3563,0.0003,-0.0581,6.0263,-0.0028,-0.6974
74044,-106.7079,-3.1026,-0.0106,-0.0832,-89.2461,0.0009,-0.0501,3.7971,0.0001,-0.0772,4.0888,-0.0012,1.681
74060,-106.7079,-3.1026,-0.0106,-0.0832,-89.2461,0.0009,-0.0501,3.7971,0.0001,-0.0772,4.0888,-0.0012,1.681
74076,-106.7079,-3.1026,-0.0106,-0.0832,-89.2461,0.0009,-0.0501,3.7971,0.0001,-0.0772,4.0888,-0.0012,1.681
74092,-106.7079,-3.1026,-0.0106,-0.0832,-89.2461,0.0009,-0.0501,3.7971,0.0001,-0.0772,4.0888,-0.0012,1.681
74108,-106.7079,-3.1026,-0.0106,-0.0832,-89.2461,0.0009,-0.0501,3.7971,0.0001,-0.0772,4.0888,-0.0012,1.681
74124,-106.7079,-3.1026,-0.0106,-0.0832,-89.2461,0.0009,-0.0501,3.7971,0.0001,-0.0772,4.0888,-0.0012,1.681
74140,-106.7137,-2.6889,-0.0105,-0.0846,-89.2234,0.0011,-0.0594,4.3819,0.0001,-0.0939,5.883,-0.0006,0.4728
74156,-106.7137,-2.6889,-0.0105,-0.0846,-89.2234,0.0011,-0.0594,4.3819,0.0001,-0.0939,5.883,-0.0006,0.4728
74172,-106.7137,-2.6889,-0.0105,-0.0846,-89.2234,0.0011,-0.0594,4.3819,0.0001,-0.0939,5.883,-0.0006,0.4728
74188,-106.7137,-2.6889,-0.0105,-0.0846,-89.2234,0.0011,-0.0594,4.3819,0.0001,-0.0939,5.883,-0.0006,0.4728
74204,-106.7137,-2.6889,-0.0105,-0.0846,-89.2234,0.0011,-0.0594,4.3819,0.0001,-0.0939,5.883,-0.0006,0.4728
74220,-106.7137,-2.6889,-0.0105,-0.0846,-89.2234,0.0011,-0.0594,4.3819,0.0001,-0.0939,5.883,-0.0006,0.4728
74236,-106.7207,-2.2082,-0.0105,-0.0963,-89.1805,0.0012,-0.0727,5.0868,0.0,-0.1335,7.074,-0.0005,0.3105
74252,-106.7207,-2.2082,-0.0105,-0.0963,-89.1805,0.0012,-0.0727,5.0868,0.0,-0.1335,7.074,-0.0005,0.3105
74268,-106.7207,-2.2082,-0.0105,-0.0963,-89.1805,0.0012,-0.0727,5.0868,0.0,-0.1335,7.074,-0.0005,0.3105
74284,-106.7207,-2.2082,-0.0105,-0.0963,-89.1805,0.0012,-0.0727,5.0868,0.0,-0.1335,7.074,-0.0005,0.3105
74300,-106.7207,-2.2082,-0.0105,-0.0963,-89.1805,0.0012,-0.0727,5.0868,0.0,-0.1335,7.074,-0.0005,0.3105
74316,-106.7207,-2.2082,-0.0105,-0.0963,-89.1805,0.0012,-0.0727,5.0868,0.0,-0.1335,7.074,-0.0005,0.3105
74332,-106.7207,-2.2082,-0.0105,-0.0963,-89.1805,0.0012,-0.0727,5.0868,0.0,-0.1335,7.074,-0.0005,0.3105
74348,-106.7283,-1.6574,-0.0104,-0.1033,-89.2011,0.0006,-0.0808,5.7823,0.0,-0.0703,6.039,0.0,-0.0581
74364,-106.7283,-1.6574,-0.0104,-0.1033,-89.2011,0.0006,-0.0808,5.7823,0.0,-0.0703,6.039,0.0,-0.0581
74380,-106.7283,-1.6574,-0.0104,-0.1033,-89.2011,0.0006,-0.0808,5.7823,0.0,-0.0703,6.039,0.0,-0.0581
74396,-106.7283,-1.6574,-0.0104,-0.1033,-89.2011,0.0006,-0.0808,5.7823,0.0,-0.0703,6.039,0.0,-0.0581
74412,-106.7283,-1.6574,-0.0104,-0.1033,-89.2011,0.0006,-0.0808,5.7823,0.0,-0.0703,6.039,0.0,-0.0581
74428,-106.7283,-1.6574,-0.0104,-0.1033,-89.2011,0.0006,-0.0808,5.7823,0.0,-0.0703,6.039,0.0,-0.0581
74449,-106.7372,-1.0377,-0.0103,-0.1108,-89.1854,0.0004,-0.0927,6.5385,0.0,-0.1196,7.6015,-0.0001,0.1078
74460,-106.7372,-1.0377,-0.0103,-0.1108,-89.1854,0.0004,-0.0927,6.5385,0.0,-0.1196,7.6015,-0.0001,0.1078
74476,-106.7372,-1.0377,-0.0103,-0.1108,-89.1854,0.0004,-0.0927,6.5385,0.0,-0.1196,7.6015,-0.0001,0.1078
74492,-106.7372,-1.0377,-0.0103,-0.1108,-89.1854,0.0004,-0.0927,6.5385,0.0,-0.1196,7.6015,-0.0001,0.1078
74508,-106.7372,-1.0377,-0.0103,-0.1108,-89.1854,0.0004,-0.0927,6.5385,0.0,-0.1196,7.6015,-0.0001,0.1078
74524,-106.7372,-1.0377,-0.0103,-0.1108,-89.1854,0.0004,-0.0927,6.5385,0.0,-0.1196,7.6015,-0.0001,0.1078
74540,-106.7372,-1.0377,-0.0103,-0.1108,-89.1854,0.0004,-0.0927,6.5385,0.0,-0.1196,7.6015,-0.0001,0.1078
74556,-106.7469,-0.3375,-0.0103,-0.1176,-89.2014,0.0001,-0.1025,7.3087,0.0,-0.0946,7.4106,0.0,-0.4241
74572,-106.7469,-0.3375,-0.0103,-0.1176,-89.2014,0.0001,-0.1025,7.3087,0.0,-0.0946,7.4106,0.0,-0.4241
74588,-106.7469,-0.3375,-0.0103,-0.1176,-89.2014,0.0001,-0.1025,7.3087,0.0,-0.0946,7.4106,0.0,-0.4241
74604,-106.7469,-0.3375,-0.0103,-0.1176,-89.2014,0.0001,-0.1025,7.3087,0.0,-0.0946,7.4106,0.0,-0.4241
74620,-106.7469,-0.3375,-0.0103,-0.1176,-89.2014,0.0001,-0.1025,7.3087,0.0,-0.0946,7.4106,0.0,-0.4241
74636,-106.7469,-0.3375,-0.0103,-0.1176,-89.2014,0.0001,-0.1025,7.3087,0.0,-0.0946,7.4106,0.0,-0.4241
74656,-106.7579,0.436,-0.0103,-0.118,-89.1877,0.0001,-0.1131,8.0161,-0.0,-0.1052,7.0737,-0.0001,0.3729
74668,-106.7579,0.436,-0.0103,-0.118,-89.1877,0.0001,-0.1131,8.0161,-0.0,-0.1052,7.0737,-0.0001,0.3729
74684,-106.7579,0.436,-0.0103,-0.118,-89.1877,0.0001,-0.1131,8.0161,-0.0,-0.1052,7.0737,-0.0001,0.3729
74700,-106.7579,0.436,-0.0103,-0.118,-89.1877,0.0001,-0.1131,8.0161,-0.0,-0.1052,7.0737,-0.0001,0.3729
74716,-106.7579,0.436,-0.0103,-0.118,-89.1877,0.0001,-0.1131,8.0161,-0.0,-0.1052,7.0737,-0.0001,0.3729
74732,-106.7579,0.436,-0.0103,-0.118,-89.1877,0.0001,-0.1131,8.0161,-0.0,-0.1052,7.0737,-0.0001,0.3729
74748,-106.7579,0.436,-0.0103,-0.118,-89.1877,0.0001,-0.1131,8.0161,-0.0,-0.1052,7.0737,-0.0001,0.3729
74764,-106.7697,1.2755,-0.0103,-0.113,-89.1982,0.0,-0.1215,8.6505,0.0,-0.0798,5.9722,0.0001,-0.2326
74780,-106.7697,1.2755,-0.0103,-0.113,-89.1982,0.0,-0.1215,8.6505,0.0,-0.0798,5.9722,0.0001,-0.2326
74796,-106.7697,1.2755,-0.0103,-0.113,-89.1982,0.0,-0.1215,8.6505,0.0,-0.0798,5.9722,0.0001,-0.2326
74812,-106.7697,1.2755,-0.0103,-0.113,-89.1982,0.0,-0.1215,8.6505,0.0,-0.0798,5.9722,0.0001,-0.2326
74828,-106.7697,1.2755,-0.0103,-0.113,-89.1982,0.0,-0.1215,8.6505,0.0,-0.0798,5.9722,0.0001,-0.2326
74844,-106.7697,1.2755,-0.0103,-0.113,-89.1982,0.0,-0.1215,8.6505,0.0,-0.0798,5.9722,0.0001,-0.2326
74860,-106.7697,1.2755,-0.0103,-0.113,-89.1982,0.0,-0.1215,8.6505,0.0,-0.0798,5.9722,0.0001,-0.2326
74876,-106.7823,2.1746,-0.0104,-0.1056,-89.1925,0.0,-0.1298,9.2222,-0.0,-0.0773,5.3668,-0.0002,0.0975
74892,-106.7823,2.1746,-0.0104,-0.1056,-89.1925,0.0,-0.1298,9.2222,-0.0,-0.0773,5.3668,-0.0002,0.0975
74908,-106.7823,2.1746,-0.0104,-0.1056,-89.1925,0.0,-0.1298,9.2222,-0.0,-0.0773,5.3668,-0.0002,0.0975
74924,-106.7823,2.1746,-0.0104,-0.1056,-89.1925,0.0,-0.1298,9.2222,-0.0,-0.0773,5.3668,-0.0002,0.0975
74940,-106.7823,2.1746,-0.0104,-0.1056,-89.1925,0.0,-0.1298,9.2222,-0.0,-0.0773,5.3668,-0.0002,0.0975
74956,-106.7823,2.1746,-0.0104,-0.1056,-89.1925,0.0,-0.1298,9.2222,-0.0,-0.0773,5.3668,-0.0002,0.0975
74972,-106.7823,2.1746,-0.0104,-0.1056,-89.1925,0.0,-0.1298,9.2222,-0.0,-0.0773,5.3668,-0.0002,0.0975
74988,-106.7957,3.1274,-0.0104,-0.0977,-89.1945,0.0,-0.137,9.7441,0.0,-0.0724,5.2046,0.0001,-0.0113
75004,-106.7957,3.1274,-0.0104,-0.0977,-89.1945,0.0,-0.137,9.7441,0.0,-0.0724,5.2046,0.0001,-0.0113
75020,-106.7957,3.1274,-0.0104,-0.0977,-89.1945,0.0,-0.137,9.7441,0.0,-0.0724,5.2046,0.0001,-0.0113
75036,-106.7957,3.1274,-0.0104,-0.0977,-89.1945,0.0,-0.137,9.7441,0.0,-0.0724,5.2046,0.0001,-0.0113
75052,-106.7957,3.1274,-0.0104,-0.0977,-89.1945,0.0,-0.137,9.7441,0.0,-0.0724,5.2046,0.0001,-0.0113
75073,-106.8098,4.1309,-0.0105,-0.0914,-89.1942,0.0,-0.1441,10.2485,0.0,-0.0677,4.8142,0.0,0.0
75084,-106.8098,4.1309,-0.0105,-0.0914,-89.1942,0.0,-0.1441,10.2485,0.0,-0.0677,4.8142,0.0,0.0
75100,-106.8098,4.1309,-0.0105,-0.0914,-89.1942,0.0,-0.1441,10.2485,0.0,-0.0677,4.8142,0.0,0.0
75116,-106.8098,4.1309,-0.0105,-0.0914,-89.1942,0.0,-0.1441,10.2485,0.0,-0.0677,4.8142,0.0,0.0
75132,-106.8098,4.1309,-0.0105,-0.0914,-89.1942,0.0,-0.1441,10.2485,0.0,-0.0677,4.8142,0.0,0.0
75148,-106.8098,4.1309,-0.0105,-0.0914,-89.1942,0.0,-0.1441,10.2485,0.0,-0.0677,4.8142,0.0,0.0
75164,-106.8098,4.1309,-0.0105,-0.0914,-89.1942,0.0,-0.1441,10.2485,0.0,-0.0677,4.8142,0.0,0.0
75180,-106.8246,5.1832,-0.0105,-0.0861,-89.1942,0.0,-0.1508,10.7201,0.0,-0.0659,4.6875,0.0,-0.0001
75196,-106.8246,5.1832,-0.0105,-0.0861,-89.1942,0.0,-0.1508,10.7201,0.0,-0.0659,4.6875,0.0,-0.0001
75212,-106.8246,5.1832,-0.0105,-0.0861,-89.1942,0.0,-0.1508,10.7201,0.0,-0.0659,4.6875,0.0,-0.0001
75228,-106.8246,5.1832,-0.0105,-0.0861,-89.1942,0.0,-0.1508,10.7201,0.0,-0.0659,4.6875,0.0,-0.0001
75260,-106.8246,5.1832,-0.0105,-0.0861,-89.1942,0.0,-0.1508,10.7201,0.0,-0.0659,4.6875,0.0,-0.0001
75281,-106.8694,6.2719,-0.0106,-0.0709,-90.5769,0.1233,-0.98,10.9457,0.001,-7.9832,2.1723,0.0092,-30.2146
75292,-106.8694,6.2719,-0.0106,-0.0709,-90.5769,0.1233,-0.98,10.9457,0.001,-7.9832,2.1723,0.0092,-30.2146
75308,-106.8694,6.2719,-0.0106,-0.0709,-90.5769,0.1233,-0.98,10.9457,0.001,-7.9832,2.1723,0.0092,-30.2146
75324,-106.8694,6.2719,-0.0106,-0.0709,-90.5769,0.1233,-0.98,10.9457,0.001,-7.9832,2.1723,0.0092,-30.2146
75340,-106.8694,6.2719,-0.0106,-0.0709,-90.5769,0.1233,-0.98,10.9457,0.001,-7.9832,2.1723,0.0092,-30.2146
75356,-106.8694,6.2719,-0.0106,-0.0709,-90.5769,0.1233,-0.98,10.9457,0.001,-7.9832,2.1723,0.0092,-30.2146
75376,-106.9786,7.3374,-0.0108,-0.0335,-96.0191,0.2584,-1.9021,10.8426,0.0011,-9.4162,-1.0528,0.0012,-77.338
75388,-106.9786,7.3374,-0.0108,-0.0335,-96.0191,0.2584,-1.9021,10.8426,0.0011,-9.4162,-1.0528,0.0012,-77.338
75404,-106.9786,7.3374,-0.0108,-0.0335,-96.0191,0.2584,-1.9021,10.8426,0.0011,-9.4162,-1.0528,0.0012,-77.338
75420,-106.9786,7.3374,-0.0108,-0.0335,-96.0191,0.2584,-1.9021,10.8426,0.0011,-9.4162,-1.0528,0.0012,-77.338
75436,-106.9786,7.3374,-0.0108,-0.0335,-96.0191,0.2584,-1.9021,10.8426,0.0011,-9.4162,-1.0528,0.0012,-77.338
75452,-106.9786,7.3374,-0.0108,-0.0335,-96.0191,0.2584,-1.9021,10.8426,0.0011,-9.4162,-1.0528,0.0012,-77.338
75472,-107.1205,8.3899,-0.0109,-0.0012,-106.5627,0.2561,-2.3356,10.6832,-0.0001,-4.3674,-1.6059,-0.0114,-129.2738
75484,-107.1205,8.3899,-0.0109,-0.0012,-106.5627,0.2561,-2.3356,10.6832,-0.0001,-4.3674,-1.6059,-0.0114,-129.2738
75500,-107.1205,8.3899,-0.0109,-0.0012,-106.5627,0.2561,-2.3356,10.6832,-0.0001,-4.3674,-1.6059,-0.0114,-129.2738
75516,-107.1205,8.3899,-0.0109,-0.0012,-106.5627,0.2561,-2.3356,10.6832,-0.0001,-4.3674,-1.6059,-0.0114,-129.2738
75532,-107.1205,8.3899,-0.0109,-0.0012,-106.5627,0.2561,-2.3356,10.6832,-0.0001,-4.3674,-1.6059,-0.0114,-129.2738
75548,-107.1205,8.3899,-0.0109,-0.0012,-106.5627,0.2561,-2.3356,10.6832,-0.0001,-4.3674,-1.6059,-0.0114,-129.2738
75564,-107.1205,8.3899,-0.0109,-0.0012,-106.5627,0.2561,-2.3356,10.6832,-0.0001,-4.3674,-1.6059,-0.0114,-129.2738
75580,-107.236,9.4083,-0.0101,-0.0585,-122.2931,0.0578,-1.9282,10.6642,0.0167,4.0572,-0.1895,0.1667,-176.1324
75596,-107.236,9.4083,-0.0101,-0.0585,-122.2931,0.0578,-1.9282,10.6642,0.0167,4.0572,-0.1895,0.1667,-176.1324
75612,-107.236,9.4083,-0.0101,-0.0585,-122.2931,0.0578,-1.9282,10.6642,0.0167,4.0572,-0.1895,0.1667,-176.1324
75628,-107.236,9.4083,-0.0101,-0.0585,-122.2931,0.0578,-1.9282,10.6642,0.0167,4.0572,-0.1895,0.1667,-176.1324
75644,-107.236,9.4083,-0.0101,-0.0585,-122.2931,0.0578,-1.9282,10.6642,0.0167,4.0572,-0.1895,0.1667,-176.1324
75660,-107.236,9.4083,-0.0101,-0.0585,-122.2931,0.0578,-1.9282,10.6642,0.0167,4.0572,-0.1895,0.1667,-176.1324
75681,-107.2442,10.3952,0.005,-0.8453,-140.2765,-0.7889,-0.4385,10.8215,0.0296,14.9508,1.5791,0.1292,-178.2326
75692,-107.2442,10.3952,0.005,-0.8453,-140.2765,-0.7889,-0.4385,10.8215,0.0296,14.9508,1.5791,0.1292,-178.2326
75708,-107.2442,10.3952,0.005,-0.8453,-140.2765,-0.7889,-0.4385,10.8215,0.0296,14.9508,1.5791,0.1292,-178.2326
75724,-107.2442,10.3952,0.005,-0.8453,-140.2765,-0.7889,-0.4385,10.8215,0.0296,14.9508,1.5791,0.1292,-178.2326
75740,-107.2442,10.3952,0.005,-0.8453,-140.2765,-0.7889,-0.4385,10.8215,0.0296,14.9508,1.5791,0.1292,-178.2326
75756,-107.2442,10.3952,0.005,-0.8453,-140.2765,-0.7889,-0.4385,10.8215,0.0296,14.9508,1.5791,0.1292,-178.2326
75779,-107.1071,11.325,0.0026,-0.7209,-158.2017,-0.7944,1.7344,10.342,-0.0325,22.0865,-4.8744,-0.631,-187.4079
75788,-107.1071,11.325,0.0026,-0.7209,-158.2017,-0.7944,1.7344,10.342,-0.0325,22.0865,-4.8744,-0.631,-187.4079
75804,-107.1071,11.325,0.0026,-0.7209,-158.2017,-0.7944,1.7344,10.342,-0.0325,22.0865,-4.8744,-0.631,-187.4079
75820,-107.1071,11.325,0.0026,-0.7209,-158.2017,-0.7944,1.7344,10.342,-0.0325,22.0865,-4.8744,-0.631,-187.4079
75836,-107.1071,11.325,0.0026,-0.7209,-158.2017,-0.7944,1.7344,10.342,-0.0325,22.0865,-4.8744,-0.631,-187.4079
75868,-107.1071,11.325,0.0026,-0.7209,-158.2017,-0.7944,1.7344,10.342,-0.0325,22.0865,-4.8744,-0.631,-187.4079
75884,-107.1071,11.325,0.0026,-0.7209,-158.2017,-0.7944,1.7344,10.342,-0.0325,22.0865,-4.8744,-0.631,-187.4079
75900,-106.8052,12.1219,-0.0019,-0.5361,-177.2136,-0.9164,3.3669,8.3276,-0.0274,14.8487,-18.3216,0.0469,-190.3327
75916,-106.8052,12.1219,-0.0019,-0.5361,-177.2136,-0.9164,3.3669,8.3276,-0.0274,14.8487,-18.3216,0.0469,-190.3327
75932,-106.8052,12.1219,-0.0019,-0.5361,-177.2136,-0.9164,3.3669,8.3276,-0.0274,14.8487,-18.3216,0.0469,-190.3327
75948,-106.8052,12.1219,-0.0019,-0.5361,-177.2136,-0.9164,3.3669,8.3276,-0.0274,14.8487,-18.3216,0.0469,-190.3327
75964,-106.8052,12.1219,-0.0019,-0.5361,-177.2136,-0.9164,3.3669,8.3276,-0.0274,14.8487,-18.3216,0.0469,-190.3327
75992,-106.8052,12.1219,-0.0019,-0.5361,-177.2136,-0.9164,3.3669,8.3276,-0.0274,14.8487,-18.3216,0.0469,-190.3327
75996,-106.5207,12.6955,-0.0057,-0.3149,165.1611,-1.0382,2.3609,6.0389,-0.0163,-9.5256,-21.6716,0.1048,-164.5313
76012,-106.5207,12.6955,-0.0057,-0.3149,165.1611,-1.0382,2.3609,6.0389,-0.0163,-9.5256,-21.6716,0.1048,-164.5313
76028,-106.5207,12.6955,-0.0057,-0.3149,165.1611,-1.0382,2.3609,6.0389,-0.0163,-9.5256,-21.6716,0.1048,-164.5313
76044,-106.5207,12.6955,-0.0057,-0.3149,165.1611,-1.0382,2.3609,6.0389,-0.0163,-9.5256,-21.6716,0.1048,-164.5313
76060,-106.5207,12.6955,-0.0057,-0.3149,165.1611,-1.0382,2.3609,6.0389,-0.0163,-9.5256,-21.6716,0.1048,-164.5313
76076,-106.5207,12.6955,-0.0057,-0.3149,165.1611,-1.0382,2.3609,6.0389,-0.0163,-9.5256,-21.6716,0.1048,-164.5313
76097,-106.4512,13.124,-0.0086,-0.0856,149.9585,-1.044,0.032,5.0039,-0.0068,-21.7214,-9.6533,0.0889,-134.2548
76108,-106.4512,13.124,-0.0086,-0.0856,149.9585,-1.044,0.032,5.0039,-0.0068,-21.7214,-9.6533,0.0889,-134.2548
76124,-106.4512,13.124,-0.0086,-0.0856,149.9585,-1.044,0.032,5.0039,-0.0068,-21.7214,-9.6533,0.0889,-134.2548
76140,-106.4512,13.124,-0.0086,-0.0856,149.9585,-1.044,0.032,5.0039,-0.0068,-21.7214,-9.6533,0.0889,-134.2548
76156,-106.4512,13.124,-0.0086,-0.0856,149.9585,-1.044,0.032,5.0039,-0.0068,-21.7214,-9.6533,0.0889,-134.2548
76172,-106.4512,13.124,-0.0086,-0.0856,149.9585,-1.044,0.032,5.0039,-0.0068,-21.7214,-9.6533,0.0889,-134.2548
76193,-106.6233,13.5619,-0.0107,0.1217,139.4263,-0.8633,-2.3045,5.4639,-0.0052,-24.3607,4.7964,0.0166,-90.2555
76204,-106.6233,13.5619,-0.0107,0.1217,139.4263,-0.8633,-2.3045,5.4639,-0.0052,-24.3607,4.7964,0.0166,-90.2555
76220,-106.6233,13.5619,-0.0107,0.1217,139.4263,-0.8633,-2.3045,5.4639,-0.0052,-24.3607,4.7964,0.0166,-90.2555
76236,-106.6233,13.5619,-0.0107,0.1217,139.4263,-0.8633,-2.3045,5.4639,-0.0052,-24.3607,4.7964,0.0166,-90.2555
76252,-106.6233,13.5619,-0.0107,0.1217,139.4263,-0.8633,-2.3045,5.4639,-0.0052,-24.3607,4.7964,0.0166,-90.2555
76268,-106.6233,13.5619,-0.0107,0.1217,139.4263,-0.8633,-2.3045,5.4639,-0.0052,-24.3607,4.7964,0.0166,-90.2555
76289,-106.9215,14.0699,-0.0118,0.2027,132.116,-0.5619,-3.0056,6.2571,-0.0045,-7.5984,8.5969,0.0074,-76.5579
76300,-106.9215,14.0699,-0.0118,0.2027,132.116,-0.5619,-3.0056,6.2571,-0.0045,-7.5984,8.5969,0.0074,-76.5579
76316,-106.9215,14.0699,-0.0118,0.2027,132.116,-0.5619,-3.0056,6.2571,-0.0045,-7.5984,8.5969,0.0074,-76.5579
76332,-106.9215,14.0699,-0.0118,0.2027,132.116,-0.5619,-3.0056,6.2571,-0.0045,-7.5984,8.5969,0.0074,-76.5579
76348,-106.9215,14.0699,-0.0118,0.2027,132.116,-0.5619,-3.0056,6.2571,-0.0045,-7.5984,8.5969,0.0074,-76.5579
76385,-107.2394,14.6898,-0.0121,0.1847,124.7969,-0.2006,-2.6527,7.0075,-0.0041,3.6145,7.6876,0.0042,-76.7145
76396,-107.2394,14.6898,-0.0121,0.1847,124.7969,-0.2006,-2.6527,7.0075,-0.0041,3.6145,7.6876,0.0042,-76.7145
76412,-107.2394,14.6898,-0.0121,0.1847,124.7969,-0.2006,-2.6527,7.0075,-0.0041,3.6145,7.6876,0.0042,-76.7145
76428,-107.2394,14.6898,-0.0121,0.1847,124.7969,-0.2006,-2.6527,7.0075,-0.0041,3.6145,7.6876,0.0042,-76.7145
76444,-107.2394,14.6898,-0.0121,0.1847,124.7969,-0.2006,-2.6527,7.0075,-0.0041,3.6145,7.6876,0.0042,-76.7145
76460,-107.2394,14.6898,-0.0121,0.1847,124.7969,-0.2006,-2.6527,7.0075,-0.0041,3.6145,7.6876,0.0042,-76.7145
76480,-107.5495,15.3698,-0.0122,0.154,119.0661,-0.1148,-3.2074,7.2835,-0.0018,-5.7235,2.8487,0.0238,-38.1515
76492,-107.5495,15.3698,-0.0122,0.154,119.0661,-0.1148,-3.2074,7.2835,-0.0018,-5.7235,2.8487,0.0238,-38.1515
76508,-107.5495,15.3698,-0.0122,0.154,119.0661,-0.1148,-3.2074,7.2835,-0.0018,-5.7235,2.8487,0.0238,-38.1515
76524,-107.5495,15.3698,-0.0122,0.154,119.0661,-0.1148,-3.2074,7.2835,-0.0018,-5.7235,2.8487,0.0238,-38.1515
76540,-107.5495,15.3698,-0.0122,0.154,119.0661,-0.1148,-3.2074,7.2835,-0.0018,-5.7235,2.8487,0.0238,-38.1515
76556,-107.5495,15.3698,-0.0122,0.154,119.0661,-0.1148,-3.2074,7.2835,-0.0018,-5.7235,2.8487,0.0238,-38.1515
76579,-107.8971,16.0568,-0.0119,0.1126,117.2617,-0.1597,-3.6689,7.299,0.0001,-4.8404,0.1624,0.0195,-10.3546
76588,-107.8971,16.0568,-0.0119,0.1126,117.2617,-0.1597,-3.6689,7.299,0.0001,-4.8404,0.1624,0.0195,-10.3546
76604,-107.8971,16.0568,-0.0119,0.1126,117.2617,-0.1597,-3.6689,7.299,0.0001,-4.8404,0.1624,0.0195,-10.3546
76620,-107.8971,16.0568,-0.0119,0.1126,117.2617,-0.1597,-3.6689,7.299,0.0001,-4.8404,0.1624,0.0195,-10.3546
76636,-107.8971,16.0568,-0.0119,0.1126,117.2617,-0.1597,-3.6689,7.299,0.0001,-4.8404,0.1624,0.0195,-10.3546
76652,-107.8971,16.0568,-0.0119,0.1126,117.2617,-0.1597,-3.6689,7.299,0.0001,-4.8404,0.1624,0.0195,-10.3546
76668,-107.8971,16.0568,-0.0119,0.1126,117.2617,-0.1597,-3.6689,7.299,0.0001,-4.8404,0.1624,0.0195,-10.3546
76690,-108.2725,16.7905,-0.0116,0.0749,116.7903,-0.1089,-3.7552,7.4005,-0.0003,-0.7795,0.9165,-0.0037,-3.4295
76700,-108.2725,16.7905,-0.0116,0.0749,116.7903,-0.1089,-3.7552,7.4005,-0.0003,-0.7795,0.9165,-0.0037,-3.4295
76716,-108.2725,16.7905,-0.0116,0.0749,116.7903,-0.1089,-3.7552,7.4005,-0.0003,-0.7795,0.9165,-0.0037,-3.4295
76732,-108.2725,16.7905,-0.0116,0.0749,116.7903,-0.1089,-3.7552,7.4005,-0.0003,-0.7795,0.9165,-0.0037,-3.4295
76748,-108.2725,16.7905,-0.0116,0.0749,116.7903,-0.1089,-3.7552,7.4005,-0.0003,-0.7795,0.9165,-0.0037,-3.4295
76764,-108.2725,16.7905,-0.0116,0.0749,116.7903,-0.1089,-3.7552,7.4005,-0.0003,-0.7795,0.9165,-0.0037,-3.4295
76786,-108.6493,17.5338,-0.0115,0.0502,116.6695,-0.0607,-3.788,7.5031,-0.0004,-0.329,1.0291,-0.0005,-1.6638
76796,-108.6493,17.5338,-0.0115,0.0502,116.6695,-0.0607,-3.788,7.5031,-0.0004,-0.329,1.0291,-0.0005,-1.6638
76812,-108.6493,17.5338,-0.0115,0.0502,116.6695,-0.0607,-3.788,7.5031,-0.0004,-0.329,1.0291,-0.0005,-1.6638
76828,-108.6493,17.5338,-0.0115,0.0502,116.6695,-0.0607,-3.788,7.5031,-0.0004,-0.329,1.0291,-0.0005,-1.6638
76844,-108.6493,17.5338,-0.0115,0.0502,116.6695,-0.0607,-3.788,7.5031,-0.0004,-0.329,1.0291,-0.0005,-1.6638
76860,-108.6493,17.5338,-0.0115,0.0502,116.6695,-0.0607,-3.788,7.5031,-0.0004,-0.329,1.0291,-0.0005,-1.6638
76876,-108.6493,17.5338,-0.0115,0.0502,116.6695,-0.0607,-3.788,7.5031,-0.0004,-0.329,1.0291,-0.0005,-1.6638
76892,-109.0205,18.2707,-0.0114,0.036,116.6381,-0.0327,-3.8219,7.5984,-0.0002,-0.348,0.9767,0.0014,-1.1496
76908,-109.0205,18.2707,-0.0114,0.036,116.6381,-0.0327,-3.8219,7.5984,-0.0002,-0.348,0.9767,0.0014,-1.1496
76924,-109.0205,18.2707,-0.0114,0.036,116.6381,-0.0327,-3.8219,7.5984,-0.0002,-0.348,0.9767,0.0014,-1.1496
76940,-109.0205,18.2707,-0.0114,0.036,116.6381,-0.0327,-3.8219,7.5984,-0.0002,-0.348,0.9767,0.0014,-1.1496
76956,-109.0205,18.2707,-0.0114,0.036,116.6381,-0.0327,-3.8219,7.5984,-0.0002,-0.348,0.9767,0.0014,-1.1496
76972,-109.0205,18.2707,-0.0114,0.036,116.6381,-0.0327,-3.8219,7.5984,-0.0002,-0.348,0.9767,0.0014,-1.1496
76992,-109.4044,19.0348,-0.0113,0.0266,116.6291,-0.0172,-3.8536,7.6751,-0.0001,-0.286,0.692,0.0012,-1.0694
77004,-109.4044,19.0348,-0.0113,0.0266,116.6291,-0.0172,-3.8536,7.6751,-0.0001,-0.286,0.692,0.0012,-1.0694
77020,-109.4044,19.0348,-0.0113,0.0266,116.6291,-0.0172,-3.8536,7.6751,-0.0001,-0.286,0.692,0.0012,-1.0694
77036,-109.4044,19.0348,-0.0113,0.0266,116.6291,-0.0172,-3.8536,7.6751,-0.0001,-0.286,0.692,0.0012,-1.0694
77052,-109.4044,19.0348,-0.0113,0.0266,116.6291,-0.0172,-3.8536,7.6751,-0.0001,-0.286,0.692,0.0012,-1.0694
77068,-109.4044,19.0348,-0.0113,0.0266,116.6291,-0.0172,-3.8536,7.6751,-0.0001,-0.286,0.692,0.0012,-1.0694
77084,-109.4044,19.0348,-0.0113,0.0266,116.6291,-0.0172,-3.8536,7.6751,-0.0001,-0.286,0.692,0.0012,-1.0694
77100,-109.7892,19.8016,-0.0113,0.0212,116.6267,-0.0092,-3.8885,7.7505,-0.0,-0.3509,0.7585,0.0007,-1.0095
77116,-109.7892,19.8016,-0.0113,0.0212,116.6267,-0.0092,-3.8885,7.7505,-0.0,-0.3509,0.7585,0.0007,-1.0095
77132,-109.7892,19.8016,-0.0113,0.0212,116.6267,-0.0092,-3.8885,7.7505,-0.0,-0.3509,0.7585,0.0007,-1.0095
77148,-109.7892,19.8016,-0.0113,0.0212,116.6267,-0.0092,-3.8885,7.7505,-0.0,-0.3509,0.7585,0.0007,-1.0095
77164,-109.7892,19.8016,-0.0113,0.0212,116.6267,-0.0092,-3.8885,7.7505,-0.0,-0.3509,0.7585,0.0007,-1.0095
77180,-109.7892,19.8016,-0.0113,0.0212,116.6267,-0.0092,-3.8885,7.7505,-0.0,-0.3509,0.7585,0.0007,-1.0095
77202,-110.1798,20.5806,-0.0113,0.0179,116.6259,-0.0051,-3.9227,7.8212,-0.0,-0.3377,0.6974,0.0003,-1.0022
77212,-110.1798,20.5806,-0.0113,0.0179,116.6259,-0.0051,-3.9227,7.8212,-0.0,-0.3377,0.6974,0.0003,-1.0022
77228,-110.1798,20.5806,-0.0113,0.0179,116.6259,-0.0051,-3.9227,7.8212,-0.0,-0.3377,0.6974,0.0003,-1.0022
77244,-110.1798,20.5806,-0.0113,0.0179,116.6259,-0.0051,-3.9227,7.8212,-0.0,-0.3377,0.6974,0.0003,-1.0022
77260,-110.1798,20.5806,-0.0113,0.0179,116.6259,-0.0051,-3.9227,7.8212,-0.0,-0.3377,0.6974,0.0003,-1.0022
77276,-110.1798,20.5806,-0.0113,0.0179,116.6259,-0.0051,-3.9227,7.8212,-0.0,-0.3377,0.6974,0.0003,-1.0022
77296,-110.574,21.3665,-0.0113,0.0159,116.6257,-0.0028,-3.957,7.8906,0.0,-0.3381,0.6844,0.0001,-0.9885
77308,-110.574,21.3665,-0.0113,0.0159,116.6257,-0.0028,-3.957,7.8906,0.0,-0.3381,0.6844,0.0001,-0.9885
77324,-110.574,21.3665,-0.0113,0.0159,116.6257,-0.0028,-3.957,7.8906,0.0,-0.3381,0.6844,0.0001,-0.9885
77340,-110.574,21.3665,-0.0113,0.0159,116.6257,-0.0028,-3.957,7.8906,0.0,-0.3381,0.6844,0.0001,-0.9885
77356,-110.574,21.3665,-0.0113,0.0159,116.6257,-0.0028,-3.957,7.8906,0.0,-0.3381,0.6844,0.0001,-0.9885
77372,-110.574,21.3665,-0.0113,0.0159,116.6257,-0.0028,-3.957,7.8906,0.0,-0.3381,0.6844,0.0001,-0.9885
77388,-110.574,21.3665,-0.0113,0.0159,116.6257,-0.0028,-3.957,7.8906,0.0,-0.3381,0.6844,0.0001,-0.9885
77404,-110.9715,22.1593,-0.0113,0.0148,116.6257,-0.0015,-3.9909,7.9586,0.0,-0.3354,0.6732,-0.0001,-0.977
77420,-110.9715,22.1593,-0.0113,0.0148,116.6257,-0.0015,-3.9909,7.9586,0.0,-0.3354,0.6732,-0.0001,-0.977
77436,-110.9715,22.1593,-0.0113,0.0148,116.6257,-0.0015,-3.9909,7.9586,0.0,-0.3354,0.6732,-0.0001,-0.977
77452,-110.9715,22.1593,-0.0113,0.0148,116.6257,-0.0015,-3.9909,7.9586,0.0,-0.3354,0.6732,-0.0001,-0.977
77468,-110.9715,22.1593,-0.0113,0.0148,116.6257,-0.0015,-3.9909,7.9586,0.0,-0.3354,0.6732,-0.0001,-0.977
77484,-110.9715,22.1593,-0.0113,0.0148,116.6257,-0.0015,-3.9909,7.9586,0.0,-0.3354,0.6732,-0.0001,-0.977
77500,-111.371,22.956,-0.0113,0.0141,116.6257,-0.0009,-4.0247,8.0262,0.0,-0.3389,0.6778,0.0001,-0.958
77516,-111.371,22.956,-0.0113,0.0141,116.6257,-0.0009,-4.0247,8.0262,0.0,-0.3389,0.6778,0.0001,-0.958
77532,-111.371,22.956,-0.0113,0.0141,116.6257,-0.0009,-4.0247,8.0262,0.0,-0.3389,0.6778,0.0001,-0.958
77548,-111.371,22.956,-0.0113,0.0141,116.6257,-0.0009,-4.0247,8.0262,0.0,-0.3389,0.6778,0.0001,-0.958
