timestamp,x,y,z,pitch,yaw,roll,vx,vy,vz,ax,ay,az,yaw_rate
5393,-106.6867,-4.8475,-0.038,0.0,-89.3578,0.0,-0.0,0.0,-1.4148,-0.0,-0.0,34.4871,-0.0
5409,-106.6867,-4.8475,-0.038,0.0,-89.3578,0.0,-0.0,0.0,-1.4148,-0.0,-0.0,34.4871,-0.0
5425,-106.6867,-4.8475,-0.0635,0.0002,-89.3578,0.0,0.0006,-0.0555,-0.8101,0.0243,-2.1663,23.5969,-0.0001
5441,-106.6867,-4.8471,-0.0742,-0.0002,-89.3578,0.0,0.0006,-0.056,-0.4977,0.0003,-0.0255,16.6842,0.0001
5457,-106.6867,-4.846,-0.0816,-0.0017,-89.3578,-0.0,-0.0009,0.0824,-0.1768,-0.0573,5.1047,11.834,0.0001
5473,-106.6867,-4.846,-0.0816,-0.0017,-89.3578,-0.0,-0.0009,0.0824,-0.1768,-0.0573,5.1047,11.834,0.0001
5489,-106.6867,-4.846,-0.0816,-0.0017,-89.3578,-0.0,-0.0009,0.0824,-0.1768,-0.0573,5.1047,11.834,0.0001
5505,-106.6867,-4.8453,-0.0823,-0.0017,-89.3578,-0.0,-0.0008,0.0723,0.0544,0.0036,-0.3147,7.1877,-0.0
5529,-106.6867,-4.8454,-0.0786,-0.0005,-89.3593,-0.0,0.0004,-0.015,0.1641,0.0436,-3.1407,3.9464,-0.0281
5537,-106.6867,-4.8454,-0.0786,-0.0005,-89.3593,-0.0,0.0004,-0.015,0.1641,0.0436,-3.1407,3.9464,-0.0281
5557,-106.6867,-4.8451,-0.0724,-0.0003,-89.3597,-0.0,0.0001,0.0006,0.2246,-0.0104,0.5146,1.9934,-0.007
5569,-106.6868,-4.8435,-0.0676,-0.0027,-89.3538,0.0,-0.0021,0.1316,0.2414,-0.1088,6.4971,0.8354,0.1603
5585,-106.6868,-4.8435,-0.0676,-0.0027,-89.3538,0.0,-0.0021,0.1316,0.2414,-0.1088,6.4971,0.8354,0.1603
5601,-106.6869,-4.8407,-0.063,-0.0057,-89.3426,0.0,-0.0015,0.1482,0.2469,0.0324,0.89,0.2957,-0.2956
5617,-106.687,-4.8361,-0.0583,-0.0101,-89.3307,-0.0001,-0.002,0.248,0.2436,-0.025,5.268,-0.1775,1.3747
5633,-106.687,-4.8361,-0.0583,-0.0101,-89.3307,-0.0001,-0.002,0.248,0.2436,-0.025,5.268,-0.1775,1.3747
5649,-106.6869,-4.8262,-0.0517,-0.0178,-89.3531,-0.0004,-0.0016,0.402,0.2291,0.0128,5.4576,-0.5124,-0.3818
5665,-106.6869,-4.8262,-0.0517,-0.0178,-89.3531,-0.0004,-0.0016,0.402,0.2291,0.0128,5.4576,-0.5124,-0.3818
5681,-106.687,-4.8085,-0.0442,-0.0281,-89.3593,-0.0003,-0.0055,0.5719,0.203,-0.1111,4.9021,-0.7536,-0.0984
5701,-106.6872,-4.7964,-0.0404,-0.0325,-89.3548,-0.0002,-0.0069,0.6259,0.1866,-0.0716,2.7681,-0.841,0.7069
5716,-106.6873,-4.7816,-0.0366,-0.0366,-89.3551,-0.0001,-0.0076,0.7241,0.1685,-0.0325,4.5546,-0.8382,-0.4284
5729,-106.6873,-4.7816,-0.0366,-0.0366,-89.3551,-0.0001,-0.0076,0.7241,0.1685,-0.0325,4.5546,-0.8382,-0.4284
5761,-106.6875,-4.7606,-0.0324,-0.0404,-89.3569,-0.0,-0.0088,0.7953,0.1458,-0.0452,2.6093,-0.8306,0.0028
5772,-106.6875,-4.7606,-0.0324,-0.0404,-89.3569,-0.0,-0.0088,0.7953,0.1458,-0.0452,2.6093,-0.8306,0.0028
5792,-106.6881,-4.7224,-0.0271,-0.046,-89.3435,0.0001,-0.0109,0.9739,0.1148,-0.0507,4.2659,-0.7406,0.8398
5804,-106.6885,-4.7033,-0.0249,-0.0476,-89.3137,0.0003,-0.0132,1.0125,0.121,-0.1188,2.0409,0.3235,3.8051
5823,-106.6887,-4.6816,-0.0227,-0.0497,-89.3336,0.0006,-0.0163,1.1599,0.1023,-0.1559,7.3791,-0.9323,-1.817
5836,-106.6887,-4.6816,-0.0227,-0.0497,-89.3336,0.0006,-0.0163,1.1599,0.1023,-0.1559,7.3791,-0.9323,-1.817
5856,-106.6892,-4.6552,-0.0206,-0.0474,-89.3104,0.0006,-0.0137,1.0463,0.0801,0.1063,-4.5831,-0.8956,1.1886
5868,-106.6895,-4.6347,-0.0193,-0.0456,-89.3068,0.0004,-0.0129,1.0598,0.0701,0.04,0.7316,-0.5447,0.1774
5887,-106.6898,-4.6154,-0.0182,-0.0428,-89.3042,0.0003,-0.0129,1.0533,0.06,-0.0021,-0.3699,-0.5717,0.1353
5900,-106.69,-4.594,-0.0172,-0.0392,-89.3021,0.0003,-0.013,1.0475,0.052,-0.0011,-0.2956,-0.409,0.1002
5916,-106.6903,-4.5751,-0.0164,-0.0357,-89.3006,0.0003,-0.0129,1.0408,0.0441,0.0061,-0.3859,-0.4523,0.0772
5932,-106.6903,-4.5751,-0.0164,-0.0357,-89.3006,0.0003,-0.0129,1.0408,0.0441,0.0061,-0.3859,-0.4523,0.0772
5948,-106.6905,-4.5555,-0.0157,-0.0322,-89.2994,0.0002,-0.0128,1.0352,0.0384,0.0041,-0.3085,-0.3141,0.0607
5964,-106.6908,-4.537,-0.0152,-0.0288,-89.2985,0.0002,-0.0127,1.0294,0.0332,0.0045,-0.3345,-0.2994,0.0503
5980,-106.6911,-4.5061,-0.0144,-0.0249,-89.2971,0.0002,-0.0138,1.1167,0.0269,-0.0376,3.0717,-0.2218,0.0574
5996,-106.6911,-4.5061,-0.0144,-0.0249,-89.2971,0.0002,-0.0138,1.1167,0.0269,-0.0376,3.0717,-0.2218,0.0574
6012,-106.6914,-4.4858,-0.0139,-0.0219,-89.2962,0.0002,-0.0137,1.1114,0.0232,0.0036,-0.2786,-0.1981,0.0513
6028,-106.6917,-4.4657,-0.0135,-0.0192,-89.2952,0.0001,-0.0137,1.1067,0.0199,0.003,-0.2452,-0.1696,0.061
6047,-106.6921,-4.439,-0.0131,-0.0164,-89.2812,0.0001,-0.0118,1.0166,0.0161,0.0755,-3.6209,-0.1542,-0.3792
6060,-106.6921,-4.439,-0.0131,-0.0164,-89.2812,0.0001,-0.0118,1.0166,0.0161,0.0755,-3.6209,-0.1542,-0.3792
6076,-106.6925,-4.4135,-0.0128,-0.0207,-89.2582,0.0,-0.0159,1.33,0.0135,-0.1998,15.343,-0.1285,2.2785
6092,-106.6926,-4.3886,-0.0125,-0.025,-89.2976,0.0001,-0.0157,1.3794,0.0123,0.0083,2.6743,-0.0613,1.1359
6111,-106.6929,-4.3545,-0.0122,-0.0328,-89.3154,0.0002,-0.0215,1.5779,0.0101,-0.2565,8.7353,-0.1003,0.81
6126,-106.6933,-4.3245,-0.012,-0.0385,-89.3105,0.0002,-0.0218,1.7156,0.0091,-0.0169,7.3291,-0.0524,-0.1053
6140,-106.6933,-4.3245,-0.012,-0.0385,-89.3105,0.0002,-0.0218,1.7156,0.0091,-0.0169,7.3291,-0.0524,-0.1053
6158,-106.6939,-4.2779,-0.0118,-0.0471,-89.3177,0.0003,-0.0257,1.848,0.0073,-0.1468,4.9914,-0.0658,-2.4007
6175,-106.6946,-4.245,-0.0116,-0.0531,-89.2825,0.0006,-0.0286,1.9972,0.0064,-0.1695,8.7198,-0.0543,2.9924
6190,-106.6951,-4.2063,-0.0114,-0.0595,-89.3007,0.001,-0.0322,2.131,0.0057,-0.1909,7.0997,-0.0395,-1.9402
6204,-106.6951,-4.2063,-0.0114,-0.0595,-89.3007,0.001,-0.0322,2.131,0.0057,-0.1909,7.0997,-0.0395,-1.9402
6220,-106.6961,-4.1558,-0.0113,-0.0611,-89.2522,0.0009,-0.0281,2.046,0.0046,0.1694,-3.4595,-0.0435,2.4054
6246,-106.6968,-4.1184,-0.0112,-0.0609,-89.2363,0.0009,-0.0287,2.0367,0.0041,-0.0376,-0.5254,-0.0289,2.0566
6252,-106.6978,-4.0643,-0.0111,-0.0652,-89.2041,0.0011,-0.0344,2.3923,0.0034,-0.2428,15.1111,-0.0303,0.102
6268,-106.6978,-4.0643,-0.0111,-0.0652,-89.2041,0.0011,-0.0344,2.3923,0.0034,-0.2428,15.1111,-0.0303,0.102
6284,-106.6986,-4.0147,-0.011,-0.0675,-89.1898,0.0011,-0.0353,2.4111,0.0029,-0.0407,0.909,-0.0247,1.0469
6300,-106.6993,-3.9693,-0.011,-0.0687,-89.1978,0.0011,-0.0372,2.4147,0.0026,-0.1021,0.1984,-0.0136,0.5317
6316,-106.7005,-3.9044,-0.0109,-0.0703,-89.1697,0.0014,-0.0427,2.6671,0.0021,-0.2209,10.0748,-0.0191,-0.5483
6332,-106.7005,-3.9044,-0.0109,-0.0703,-89.1697,0.0014,-0.0427,2.6671,0.0021,-0.2209,10.0748,-0.0191,-0.5483
6348,-106.7013,-3.8532,-0.0108,-0.0755,-89.1656,0.0012,-0.0433,2.9035,0.0019,-0.0365,13.0154,-0.0134,1.2956
6364,-106.7021,-3.7962,-0.0108,-0.0778,-89.1731,0.001,-0.0447,2.9678,0.0016,-0.0665,3.2472,-0.0127,-1.6916
6382,-106.7029,-3.7389,-0.0107,-0.084,-89.1681,0.0006,-0.0447,3.2051,0.0014,-0.0001,12.9663,-0.0128,0.7632
6398,-106.7037,-3.6763,-0.0107,-0.0869,-89.1838,0.0003,-0.0469,3.2768,0.0012,-0.1118,3.6517,-0.0099,-2.0806
6415,-106.7047,-3.5939,-0.0106,-0.0904,-89.1957,-0.0002,-0.045,3.3372,0.001,0.0776,2.4652,-0.0097,-0.3758
6428,-106.7047,-3.5939,-0.0106,-0.0904,-89.1957,-0.0002,-0.045,3.3372,0.001,0.0776,2.4652,-0.0097,-0.3758
6444,-106.7052,-3.5315,-0.0106,-0.0908,-89.2362,-0.0005,-0.0452,3.4076,0.0009,-0.0159,3.8842,-0.005,-1.9719
6463,-106.706,-3.4662,-0.0106,-0.0894,-89.2406,-0.0007,-0.0444,3.4349,0.0008,0.0462,1.4658,-0.0056,-1.1273
6478,-106.7067,-3.4008,-0.0106,-0.0898,-89.2596,-0.0009,-0.0455,3.635,0.0007,-0.0636,11.1412,-0.0063,-0.9397
6494,-106.7075,-3.3311,-0.0106,-0.0893,-89.2767,-0.001,-0.0467,3.6771,0.0006,-0.064,2.2428,-0.0048,-0.8783
6508,-106.7075,-3.3311,-0.0106,-0.0893,-89.2767,-0.001,-0.0467,3.6771,0.0006,-0.064,2.2428,-0.0048,-0.8783
6526,-106.7087,-3.2329,-0.0105,-0.0933,-89.288,-0.0011,-0.0513,4.0534,0.0005,-0.182,15.1187,-0.0048,-0.6559
6544,-106.7096,-3.1602,-0.0105,-0.0954,-89.2858,-0.0011,-0.0519,4.1474,0.0004,-0.0383,5.2766,-0.002,0.8573
6558,-106.7105,-3.0824,-0.0105,-0.0962,-89.2947,-0.001,-0.0541,4.2489,0.0004,-0.1171,5.4452,-0.0018,-1.7042
6572,-106.7116,-2.9972,-0.0105,-0.0961,-89.2949,-0.0009,-0.054,4.3215,0.0003,0.006,3.6282,-0.0035,0.0966
6588,-106.7116,-2.9972,-0.0105,-0.0961,-89.2949,-0.0009,-0.054,4.3215,0.0003,0.006,3.6282,-0.0035,0.0966
6606,-106.7131,-2.8787,-0.0104,-0.1007,-89.2894,-0.0008,-0.0583,4.6103,0.0003,-0.1638,11.0308,-0.0017,-1.2052
6623,-106.7143,-2.7955,-0.0104,-0.1014,-89.2768,-0.0007,-0.0583,4.6928,0.0002,-0.002,4.5813,-0.0016,1.8578
6636,-106.7143,-2.7955,-0.0104,-0.1014,-89.2768,-0.0007,-0.0583,4.6928,0.0002,-0.002,4.5813,-0.0016,1.8578
6652,-106.7143,-2.7955,-0.0104,-0.1014,-89.2768,-0.0007,-0.0583,4.6928,0.0002,-0.002,4.5813,-0.0016,1.8578
6668,-106.7143,-2.7955,-0.0104,-0.1014,-89.2768,-0.0007,-0.0583,4.6928,0.0002,-0.002,4.5813,-0.0016,1.8578
6684,-106.7143,-2.7955,-0.0104,-0.1014,-89.2768,-0.0007,-0.0583,4.6928,0.0002,-0.002,4.5813,-0.0016,1.8578
6700,-106.7143,-2.7955,-0.0104,-0.1014,-89.2768,-0.0007,-0.0583,4.6928,0.0002,-0.002,4.5813,-0.0016,1.8578
6716,-106.7143,-2.7955,-0.0104,-0.1014,-89.2768,-0.0007,-0.0583,4.6928,0.0002,-0.002,4.5813,-0.0016,1.8578
6732,-106.7143,-2.7955,-0.0104,-0.1014,-89.2768,-0.0007,-0.0583,4.6928,0.0002,-0.002,4.5813,-0.0016,1.8578
6752,-106.7207,-2.3078,-0.0105,-0.0941,-89.2554,0.0001,-0.0681,5.1956,0.0001,-0.0828,4.2651,-0.0011,-1.0129
6768,-106.7207,-2.3078,-0.0105,-0.0941,-89.2554,0.0001,-0.0681,5.1956,0.0001,-0.0828,4.2651,-0.0011,-1.0129
6786,-106.7237,-2.0812,-0.0105,-0.0944,-89.251,0.0002,-0.0706,5.3929,0.0001,-0.0582,4.6078,-0.0009,-0.3359
6800,-106.7237,-2.0812,-0.0105,-0.0944,-89.251,0.0002,-0.0706,5.3929,0.0001,-0.0582,4.6078,-0.0009,-0.3359
6816,-106.726,-1.9105,-0.0104,-0.0993,-89.2402,0.0004,-0.0756,5.7203,0.0001,-0.1663,10.7633,0.0,0.0571
6832,-106.726,-1.9105,-0.0104,-0.0993,-89.2402,0.0004,-0.0756,5.7203,0.0001,-0.1663,10.7633,0.0,0.0571
6858,-106.7292,-1.6739,-0.0104,-0.1088,-89.2366,0.0004,-0.08,6.0286,0.0001,-0.1096,7.7899,-0.0002,-0.2361
6864,-106.7292,-1.6739,-0.0104,-0.1088,-89.2366,0.0004,-0.08,6.0286,0.0001,-0.1096,7.7899,-0.0002,-0.2361
6883,-106.7317,-1.4899,-0.0104,-0.1101,-89.2343,0.0004,-0.0839,6.2521,0.0001,-0.1306,7.4936,-0.0003,-1.2729
6896,-106.7333,-1.3713,-0.0104,-0.1091,-89.2255,0.0004,-0.0844,6.3483,0.0,-0.0259,5.0986,-0.0013,1.5928
6912,-106.7333,-1.3713,-0.0104,-0.1091,-89.2255,0.0004,-0.0844,6.3483,0.0,-0.0259,5.0986,-0.0013,1.5928
6928,-106.7348,-1.2491,-0.0106,-0.0966,-89.2361,-0.0153,-0.0869,6.4769,-0.0113,-0.1353,6.7296,-0.5954,-0.9571
6944,-106.7363,-1.1307,-0.0108,-0.0844,-89.2352,-0.029,-0.0898,6.5952,-0.0071,-0.1585,6.5262,0.2341,0.7726
6962,-106.7379,-1.0071,-0.011,-0.0777,-89.2452,-0.035,-0.0923,6.7219,-0.0042,-0.1327,6.8214,0.1558,-1.3928
6978,-106.7395,-0.8847,-0.011,-0.0747,-89.242,-0.0366,-0.0926,6.8397,-0.0022,-0.0164,6.5223,0.1111,0.9928
6994,-106.7412,-0.7579,-0.0111,-0.0745,-89.2487,-0.0359,-0.0943,6.9749,-0.0008,-0.0934,7.3695,0.076,-0.987
7011,-106.743,-0.6261,-0.011,-0.0762,-89.246,-0.0341,-0.0948,7.1138,0.0002,-0.026,7.4338,0.0517,0.7168
7024,-106.7448,-0.49,-0.011,-0.0786,-89.2523,-0.0318,-0.0963,7.2407,0.0008,-0.0803,6.6934,0.0339,-0.9555
7040,-106.7448,-0.49,-0.011,-0.0786,-89.2523,-0.0318,-0.0963,7.2407,0.0008,-0.0803,6.6934,0.0339,-0.9555
7057,-106.7467,-0.3451,-0.011,-0.0809,-89.2473,-0.0291,-0.0967,7.3606,0.0012,-0.0205,6.0432,0.0215,0.9816
7074,-106.7492,-0.1569,-0.0109,-0.0832,-89.2521,-0.0259,-0.098,7.4838,0.0015,-0.0496,4.8633,0.0096,-0.2463
7088,-106.7492,-0.1569,-0.0109,-0.0832,-89.2521,-0.0259,-0.098,7.4838,0.0015,-0.0496,4.8633,0.0096,-0.2463
7104,-106.7513,0.0011,-0.0109,-0.0875,-89.25,-0.0234,-0.1007,7.7057,0.0015,-0.1318,10.7307,0.0026,0.0339
7120,-106.7533,0.1493,-0.0108,-0.0925,-89.2495,-0.0211,-0.1028,7.8797,0.0016,-0.1125,9.199,0.0043,0.0354
7145,-106.7551,0.2898,-0.0107,-0.097,-89.2492,-0.0193,-0.1047,8.031,0.0015,-0.1084,8.6124,-0.004,0.0394
7152,-106.7577,0.4882,-0.0107,-0.1022,-89.2491,-0.0169,-0.1072,8.2228,0.0014,-0.1023,7.8862,-0.0046,-0.0234
7168,-106.7577,0.4882,-0.0107,-0.1022,-89.2491,-0.0169,-0.1072,8.2228,0.0014,-0.1023,7.8862,-0.0046,-0.0234
7184,-106.7599,0.6582,-0.0106,-0.1057,-89.2487,-0.0152,-0.1093,8.3792,0.0013,-0.1005,7.6603,-0.0065,0.0265
7200,-106.762,0.8138,-0.0106,-0.1081,-89.2485,-0.0137,-0.111,8.5112,0.0013,-0.0951,7.1943,-0.0018,0.0416
7218,-106.764,0.97,-0.0105,-0.1098,-89.2482,-0.0123,-0.1127,8.6359,0.0011,-0.0913,6.8734,-0.0065,0.072
7234,-106.7662,1.1341,-0.0105,-0.1108,-89.2478,-0.011,-0.1143,8.7598,0.001,-0.0878,6.5886,-0.0058,0.1479
7251,-106.7682,1.2895,-0.0105,-0.1112,-89.2473,-0.01,-0.1158,8.8705,0.0009,-0.0846,6.303,-0.0064,0.2463
7266,-106.7704,1.4518,-0.0105,-0.1111,-89.2464,-0.009,-0.1173,8.9795,0.0008,-0.0802,6.0049,-0.0042,0.4508
7280,-106.7725,1.617,-0.0105,-0.1104,-89.245,-0.0081,-0.1186,9.0809,0.0007,-0.0748,5.5611,-0.0052,0.7758
7296,-106.7725,1.617,-0.0105,-0.1104,-89.245,-0.0081,-0.1186,9.0809,0.0007,-0.0748,5.5611,-0.0052,0.7758
7312,-106.7747,1.7817,-0.0105,-0.1092,-89.2438,-0.0074,-0.1199,9.173,0.0007,-0.0708,5.1192,-0.0044,1.0482
7328,-106.777,1.9571,-0.0105,-0.1073,-89.2421,-0.0066,-0.1211,9.2616,0.0006,-0.0648,4.6636,-0.0048,1.4637
7350,-106.7794,2.1405,-0.0105,-0.1048,-89.2408,-0.0058,-0.1223,9.3435,0.0005,-0.0575,4.1623,-0.0026,1.8002
7360,-106.7794,2.1405,-0.0105,-0.1048,-89.2408,-0.0058,-0.1223,9.3435,0.0005,-0.0575,4.1623,-0.0026,1.8002
7378,-106.7834,2.4423,-0.0105,-0.1009,-89.2439,-0.0049,-0.1244,9.5073,0.0004,-0.0686,5.1239,-0.0032,0.6305
7394,-106.7858,2.6298,-0.0105,-0.0991,-89.2417,-0.0044,-0.1258,9.6089,0.0004,-0.0707,5.1937,-0.0015,1.0552
7408,-106.7884,2.821,-0.0105,-0.0972,-89.2393,-0.0039,-0.1271,9.6984,0.0003,-0.0639,4.5334,-0.0026,1.5068
7424,-106.7884,2.821,-0.0105,-0.0972,-89.2393,-0.0039,-0.1271,9.6984,0.0003,-0.0639,4.5334,-0.0026,1.5068
7440,-106.7908,3.0062,-0.0105,-0.0951,-89.2394,-0.0035,-0.1282,9.7777,0.0003,-0.0584,4.1745,-0.0024,1.5059
7456,-106.7931,3.1842,-0.0105,-0.0931,-89.2401,-0.0031,-0.1293,9.8583,0.0003,-0.0612,4.4527,-0.0022,1.2744
7472,-106.7964,3.4364,-0.0105,-0.0909,-89.2479,-0.0027,-0.1311,9.9819,0.0002,-0.0717,4.8732,-0.0019,-0.7907
7488,-106.7964,3.4364,-0.0105,-0.0909,-89.2479,-0.0027,-0.1311,9.9819,0.0002,-0.0717,4.8732,-0.0019,-0.7907
7504,-106.7988,3.6186,-0.0105,-0.0897,-89.2479,-0.0025,-0.1324,10.0714,0.0002,-0.071,4.9357,-0.0012,-0.8309
7520,-106.8012,3.8026,-0.0105,-0.0886,-89.2479,-0.0022,-0.1336,10.158,0.0002,-0.0679,4.7727,-0.0007,-0.8509
7545,-106.8037,3.9916,-0.0105,-0.0876,-89.2481,-0.002,-0.1349,10.2438,0.0001,-0.0656,4.6411,-0.0015,-0.9115
7552,-106.8071,4.248,-0.0105,-0.0863,-89.2426,-0.0017,-0.1364,10.3607,0.0001,-0.0614,4.7047,-0.0006,0.5302
7568,-106.8096,4.4374,-0.0105,-0.0854,-89.2423,-0.0015,-0.1375,10.4459,0.0001,-0.062,4.6888,-0.0006,0.6072
7584,-106.8096,4.4374,-0.0105,-0.0854,-89.2423,-0.0015,-0.1375,10.4459,0.0001,-0.062,4.6888,-0.0006,0.6072
7600,-106.8122,4.6315,-0.0105,-0.0846,-89.242,-0.0013,-0.1386,10.5292,0.0001,-0.0593,4.5096,-0.0019,0.6982
7618,-106.8157,4.8981,-0.0106,-0.0834,-89.2466,-0.0012,-0.1402,10.6418,0.0001,-0.0627,4.4763,-0.0001,-0.465
7632,-106.8157,4.8981,-0.0106,-0.0834,-89.2466,-0.0012,-0.1402,10.6418,0.0001,-0.0627,4.4763,-0.0001,-0.465
7648,-106.8192,5.1673,-0.0106,-0.0823,-89.2434,-0.001,-0.1416,10.754,0.0001,-0.0577,4.4675,-0.0004,0.3428
7667,-106.8219,5.3666,-0.0106,-0.0815,-89.2431,-0.0009,-0.1427,10.8343,0.0001,-0.0572,4.3587,-0.0008,0.4215
7682,-106.8246,5.5729,-0.0106,-0.0806,-89.2425,-0.0008,-0.1437,10.9139,0.0001,-0.0549,4.2051,-0.0004,0.5459
7696,-106.8246,5.5729,-0.0106,-0.0806,-89.2425,-0.0008,-0.1437,10.9139,0.0001,-0.0549,4.2051,-0.0004,0.5459
7712,-106.8282,5.8467,-0.0106,-0.0793,-89.2459,-0.0007,-0.1452,11.0174,0.0,-0.0581,4.1504,-0.0004,-0.3432
7732,-106.831,6.0606,-0.0106,-0.0784,-89.2466,-0.0006,-0.1463,11.0964,0.0,-0.0564,4.0898,-0.0003,-0.4742
7748,-106.8341,6.2926,-0.0106,-0.0774,-89.2453,-0.0006,-0.1473,11.1816,0.0,-0.0514,4.0937,-0.0005,0.078
7760,-106.8341,6.2926,-0.0106,-0.0774,-89.2453,-0.0006,-0.1473,11.1816,0.0,-0.0514,4.0937,-0.0005,0.078
7776,-106.8373,6.541,-0.0106,-0.0764,-89.2456,-0.0005,-0.1485,11.271,0.0,-0.0524,4.0495,0.0006,-0.0227
7794,-106.8414,6.8493,-0.0106,-0.075,-89.2454,-0.0004,-0.1499,11.3783,0.0,-0.051,3.9459,-0.0003,0.0247
7808,-106.8414,6.8493,-0.0106,-0.075,-89.2454,-0.0004,-0.1499,11.3783,0.0,-0.051,3.9459,-0.0003,0.0247
7824,-106.8445,7.0863,-0.0106,-0.0741,-89.2454,-0.0004,-0.1509,11.4582,0.0,-0.0504,3.8532,-0.0008,-0.0041
7849,-106.8484,7.3836,-0.0106,-0.0728,-89.2454,-0.0003,-0.1522,11.5555,0.0,-0.0494,3.7738,-0.0001,0.003
7856,-106.8484,7.3836,-0.0106,-0.0728,-89.2454,-0.0003,-0.1522,11.5555,0.0,-0.0494,3.7738,-0.0001,0.003
7872,-106.8527,7.7041,-0.0106,-0.0714,-89.2455,-0.0003,-0.1535,11.6572,0.0,-0.0484,3.6868,-0.0,-0.0034
7891,-106.8559,7.9463,-0.0106,-0.0704,-89.2455,-0.0003,-0.1545,11.7319,-0.0,-0.0474,3.6116,-0.0014,0.0004
7904,-106.8559,7.9463,-0.0106,-0.0704,-89.2455,-0.0003,-0.1545,11.7319,-0.0,-0.0474,3.6116,-0.0014,0.0004
7920,-106.8601,8.2719,-0.0107,-0.069,-89.2455,-0.0002,-0.1558,11.8298,0.0,-0.0465,3.5447,0.0013,-0.0005
7939,-106.8635,8.5294,-0.0107,-0.068,-89.2455,-0.0002,-0.1568,11.9051,0.0,-0.0457,3.4754,-0.0004,0.0001
7952,-106.8664,8.7444,-0.0107,-0.0671,-89.2455,-0.0002,-0.1576,11.9667,0.0,-0.0451,3.4253,-0.0001,0.0001
7968,-106.8664,8.7444,-0.0107,-0.0671,-89.2455,-0.0002,-0.1576,11.9667,0.0,-0.0451,3.4253,-0.0001,0.0001
7984,-106.8693,8.9691,-0.0107,-0.0661,-89.2455,-0.0002,-0.1584,12.0299,0.0,-0.0445,3.3786,0.0002,0.0001
8000,-106.8726,9.2195,-0.0107,-0.0652,-89.2455,-0.0002,-0.1593,12.0989,0.0,-0.0438,3.3286,-0.0002,-0.0
8016,-106.8726,9.2195,-0.0107,-0.0652,-89.2455,-0.0002,-0.1593,12.0989,0.0,-0.0438,3.3286,-0.0002,-0.0
8032,-106.8774,9.582,-0.0107,-0.0637,-89.2455,-0.0001,-0.1606,12.1964,0.0,-0.0431,3.271,-0.0001,-0.0
8048,-106.8818,9.9181,-0.0107,-0.0624,-89.2455,-0.0001,-0.1618,12.2843,-0.0,-0.0422,3.2043,-0.0002,-0.0
8064,-106.8847,10.1367,-0.0107,-0.0616,-89.2455,-0.0001,-0.1625,12.3402,0.0,-0.0416,3.1542,0.0008,-0.0
8080,-106.8847,10.1367,-0.0107,-0.0616,-89.2455,-0.0001,-0.1625,12.3402,0.0,-0.0416,3.1542,0.0008,-0.0
8096,-106.8882,10.3986,-0.0107,-0.0608,-89.2455,-0.0001,-0.1634,12.406,-0.0,-0.0409,3.1112,-0.001,-0.0
8112,-106.8923,10.716,-0.0107,-0.0597,-89.2455,-0.0001,-0.1644,12.4841,0.0,-0.0404,3.0628,0.0007,-0.0
8128,-106.8923,10.716,-0.0107,-0.0597,-89.2455,-0.0001,-0.1644,12.4841,0.0,-0.0404,3.0628,0.0007,-0.0
8146,-106.8978,11.1325,-0.0107,-0.0583,-89.2455,-0.0001,-0.1657,12.5837,0.0,-0.0395,3.0018,-0.0002,-0.0
8163,-106.901,11.3723,-0.0107,-0.0575,-89.2455,-0.0001,-0.1665,12.6396,0.0,-0.0388,2.9431,0.0003,-0.0
8176,-106.901,11.3723,-0.0107,-0.0575,-89.2455,-0.0001,-0.1665,12.6396,0.0,-0.0388,2.9431,0.0003,-0.0
8194,-106.9042,11.6126,-0.0107,-0.0566,-89.2455,-0.0001,-0.1671,12.6918,0.0,-0.0363,2.7534,-0.0002,-0.0
8210,-106.9072,11.8468,-0.0107,-0.0557,-89.2455,-0.0001,-0.1678,12.7389,-0.0,-0.0337,2.558,-0.0008,-0.0
8226,-106.9103,12.0827,-0.0108,-0.0547,-89.2455,-0.0001,-0.1683,12.7828,-0.0,-0.0314,2.3794,0.0,0.0
8242,-106.9134,12.3162,-0.0108,-0.0535,-89.2455,-0.0,-0.1689,12.8231,-0.0,-0.0292,2.2128,-0.0004,0.0
8256,-106.9165,12.5516,-0.0108,-0.0521,-89.2455,-0.0001,-0.1694,12.8609,-0.0,-0.0271,2.0592,0.0003,-0.0
8274,-106.9196,12.7819,-0.0108,-0.0507,-89.2455,-0.0001,-0.1698,12.8951,0.0,-0.0253,1.9152,0.0006,-0.0
8288,-106.9196,12.7819,-0.0108,-0.0507,-89.2455,-0.0001,-0.1698,12.8951,0.0,-0.0253,1.9152,0.0006,-0.0
8307,-106.9243,13.1442,-0.0108,-0.0483,-89.2455,-0.0,-0.1705,12.9442,-0.0,-0.0231,1.7534,-0.0001,-0.0
8320,-106.9273,13.3698,-0.0108,-0.0467,-89.2455,-0.0,-0.1708,12.972,0.0,-0.021,1.5964,0.0002,-0.0
8336,-106.9273,13.3698,-0.0108,-0.0467,-89.2455,-0.0,-0.1708,12.972,0.0,-0.021,1.5964,0.0002,-0.0
8352,-106.9306,13.6211,-0.0108,-0.0449,-89.2455,-0.0,-0.1712,13.0009,-0.0,-0.0197,1.4921,-0.0005,-0.0
8368,-106.9337,13.8573,-0.0108,-0.0431,-89.2454,-0.0,-0.1716,13.0259,0.0,-0.0182,1.3822,0.0005,-0.0
8386,-106.937,14.1081,-0.0109,-0.0413,-89.2454,-0.0,-0.1719,13.0507,0.0,-0.017,1.287,0.0,-0.0
8416,-106.94,14.3359,-0.0109,-0.0396,-89.2454,-0.0,-0.1722,13.0714,-0.0,-0.0157,1.1885,-0.0009,-0.0
8432,-106.9458,14.6774,-0.0109,-0.037,-89.3018,0.0094,-0.2782,13.0902,0.0,-4.0648,0.7215,0.0024,-3.6355
8450,-106.9517,14.9119,-0.0109,-0.0348,-89.425,0.0257,-0.4042,13.0896,0.0002,-7.0318,-0.0357,0.0092,-8.0304
8464,-106.9604,15.1749,-0.0109,-0.0318,-89.6677,0.0498,-0.5752,13.0757,0.0005,-8.5057,-0.6901,0.0122,-14.2027
8480,-106.9604,15.1749,-0.0109,-0.0318,-89.6677,0.0498,-0.5752,13.0757,0.0005,-8.5057,-0.6901,0.0122,-14.2027
8498,-106.9604,15.1749,-0.0109,-0.0318,-89.6677,0.0498,-0.5752,13.0757,0.0005,-8.5057,-0.6901,0.0122,-14.2027
8512,-106.9885,15.7241,-0.0109,-0.0222,-90.6812,0.1208,-1.0087,12.9988,0.001,-10.2883,-1.8244,0.0126,-31.11
8531,-107.005,15.963,-0.011,-0.0168,-91.3697,0.1534,-1.2003,12.9523,0.0012,-10.3888,-2.5265,0.0094,-39.42
8544,-107.005,15.963,-0.011,-0.0168,-91.3697,0.1534,-1.2003,12.9523,0.0012,-10.3888,-2.5265,0.0094,-39.42
8562,-107.0387,16.375,-0.011,-0.0064,-92.9412,0.2025,-1.5212,12.8557,0.0013,-10.031,-3.0189,0.003,-55.1122
8579,-107.0603,16.6052,-0.011,0.0,-94.0603,0.2263,-1.6885,12.7964,0.0012,-9.2874,-3.2919,-0.0007,-64.4813
8596,-107.0831,16.8302,-0.0111,0.0063,-95.3285,0.2451,-1.8395,12.7363,0.0012,-8.5336,-3.3954,-0.0045,-74.0302
8608,-107.0831,16.8302,-0.0111,0.0063,-95.3285,0.2451,-1.8395,12.7363,0.0012,-8.5336,-3.3954,-0.0045,-74.0302
8624,-107.1195,17.1658,-0.0111,0.0156,-97.5652,0.2645,-2.0393,12.6442,0.001,-7.5035,-3.4601,-0.0079,-89.0191
8640,-107.1195,17.1658,-0.0111,0.0156,-97.5652,0.2645,-2.0393,12.6442,0.001,-7.5035,-3.4601,-0.0079,-89.0191
8656,-107.162,17.5348,-0.0111,0.0249,-100.5431,0.2733,-2.2156,12.5442,0.0007,-5.953,-3.3774,-0.01,-106.3726
8682,-107.191,17.7817,-0.0112,0.0296,-102.8276,0.2706,-2.2899,12.4868,0.0004,-3.7137,-2.866,-0.015,-118.0495
8688,-107.2265,18.0874,-0.0112,0.0338,-106.0346,0.2576,-2.3498,12.4188,0.0,-2.393,-2.7151,-0.013,-133.0594
8704,-107.2265,18.0874,-0.0112,0.0338,-106.0346,0.2576,-2.3498,12.4188,0.0,-2.393,-2.7151,-0.013,-133.0594
8721,-107.2546,18.3367,-0.0112,0.0352,-108.9494,0.2404,-2.3566,12.3727,-0.0003,-0.3276,-2.233,-0.0139,-145.3425
8745,-107.2849,18.6212,-0.0112,0.0345,-112.6424,0.2124,-2.3278,12.3253,-0.0005,1.2055,-1.9889,-0.0125,-159.7139
8752,-107.2849,18.6212,-0.0112,0.0345,-112.6424,0.2124,-2.3278,12.3253,-0.0005,1.2055,-1.9889,-0.0125,-159.7139
8770,-107.3147,18.9304,-0.0112,0.0303,-117.1148,0.1737,-2.2408,12.2839,-0.0009,3.3138,-1.5765,-0.0119,-175.4083
8784,-107.3319,19.1405,-0.0112,0.0242,-120.4064,0.1405,-2.0997,12.2794,-0.001,7.8135,-0.2498,-0.0097,-184.3902
8802,-107.3455,19.3495,-0.0111,0.0144,-123.8459,0.1005,-1.8882,12.2881,-0.0012,11.6796,0.4794,-0.0115,-191.668
8816,-107.3455,19.3495,-0.0111,0.0144,-123.8459,0.1005,-1.8882,12.2881,-0.0012,11.6796,0.4794,-0.0115,-191.668
8832,-107.3574,19.667,-0.011,-0.0079,-129.3381,0.0281,-1.4595,12.3015,-0.0016,15.4323,0.4811,-0.0144,-200.4445
8848,-107.3581,19.9365,-0.0109,-0.0319,-134.215,-0.0381,-1.013,12.2938,-0.0013,18.7115,-0.3208,0.0163,-206.2037
8864,-107.3581,19.9365,-0.0109,-0.0319,-134.215,-0.0381,-1.013,12.2938,-0.0013,18.7115,-0.3208,0.0163,-206.2037
8880,-107.3516,20.1406,-0.0107,-0.0535,-138.0392,-0.093,-0.6355,12.2682,-0.0002,20.6329,-1.4015,0.0565,-209.8884
8896,-107.3394,20.34,-0.0105,-0.0761,-141.8749,-0.1464,-0.2404,12.2218,0.0006,21.8553,-2.5642,0.0462,-212.8844
8914,-107.3119,20.6166,-0.0103,-0.1086,-147.3594,-0.2182,0.3437,12.1142,0.0014,22.9213,-4.2212,0.031,-216.3413
8928,-107.3119,20.6166,-0.0103,-0.1086,-147.3594,-0.2182,0.3437,12.1142,0.0014,22.9213,-4.2212,0.031,-216.3413
8946,-107.2694,20.9027,-0.01,-0.1432,-153.2586,-0.2917,0.9828,11.9414,0.0019,23.6634,-6.401,0.0175,-219.391
8967,-107.2344,21.0849,-0.0098,-0.1648,-157.1458,-0.3364,1.4035,11.7936,0.002,23.8843,-8.3917,0.0093,-221.1349
8976,-107.2344,21.0849,-0.0098,-0.1648,-157.1458,-0.3364,1.4035,11.7936,0.002,23.8843,-8.3917,0.0093,-221.1349
8992,-107.1662,21.369,-0.0095,-0.198,-163.4518,-0.4041,2.0746,11.4979,0.0022,23.7229,-10.4516,0.004,-223.7886
9010,-107.1167,21.541,-0.0093,-0.2169,-167.4362,-0.4422,2.4855,11.2763,0.0021,23.2002,-12.5131,-0.0027,-225.4335
9042,-106.9865,21.9114,-0.0089,-0.2547,-176.5593,-0.5184,3.3696,10.6755,0.0019,21.6308,-15.8538,-0.005,-229.5719
9056,-106.9257,22.0569,-0.0088,-0.268,179.6007,-0.5481,3.683,10.3591,0.0019,18.8106,-18.9896,-0.0004,-230.6088
9072,-106.8609,22.1997,-0.0087,-0.2788,175.6525,-0.5819,3.9303,9.9759,0.0019,14.4769,-22.4379,0.0026,-231.3736
9088,-106.7942,22.3368,-0.0086,-0.2868,171.6502,-0.6189,4.1227,9.557,0.0019,11.1561,-24.2873,0.0011,-232.3343
9104,-106.7942,22.3368,-0.0086,-0.2868,171.6502,-0.6189,4.1227,9.557,0.0019,11.1561,-24.2873,0.0011,-232.3343
9120,-106.7215,22.4762,-0.0085,-0.2928,167.3224,-0.6616,4.2736,9.079,0.002,8.1192,-25.7241,0.002,-233.0166
9136,-106.6587,22.5906,-0.0084,-0.2959,163.5523,-0.6982,4.3533,8.6466,0.002,4.9294,-26.7469,0.0002,-233.2845
9152,-106.5932,22.7051,-0.0084,-0.2972,159.5398,-0.7386,4.3836,8.1778,0.0019,1.7632,-27.2589,-0.0027,-233.2735
9170,-106.5306,22.814,-0.0084,-0.2933,155.554,-0.7767,4.2074,7.8082,0.0019,-10.1922,-21.3688,-0.0011,-227.8373
9184,-106.4754,22.9207,-0.0085,-0.279,151.7621,-0.7999,3.8594,7.5852,-0.0024,-20.1876,-12.9397,-0.2511,-217.3529
9202,-106.4268,23.028,-0.0087,-0.2568,148.0646,-0.8208,3.4679,7.3742,-0.0018,-22.2503,-11.9941,0.0355,-207.9093
9216,-106.4268,23.028,-0.0087,-0.2568,148.0646,-0.8208,3.4679,7.3742,-0.0018,-22.2503,-11.9941,0.0355,-207.9093
9232,-106.3735,23.1713,-0.009,-0.2177,143.2344,-0.8541,2.9012,7.0972,0.0033,-23.6118,-11.5413,0.214,-198.4294
9248,-106.3439,23.2759,-0.0091,-0.1864,139.7542,-0.8797,2.4735,6.9286,0.0026,-23.9496,-9.4404,-0.0426,-193.7418
9264,-106.3247,23.3676,-0.0093,-0.1593,136.779,-0.8978,2.0786,6.8512,0.0021,-25.1609,-4.9292,-0.032,-187.9462
9280,-106.3117,23.4636,-0.0095,-0.1299,133.8214,-0.91,1.6649,6.8431,0.0016,-25.4669,-0.4994,-0.0268,-180.0159
9296,-106.3053,23.5641,-0.0097,-0.0984,130.9411,-0.9145,1.2459,6.8952,0.0012,-25.1876,3.1323,-0.0277,-170.7591
9312,-106.3055,23.6723,-0.0099,-0.0642,128.1139,-0.9108,0.822,7.0023,0.0007,-24.4371,6.1743,-0.0261,-160.3736
9330,-106.3124,23.7849,-0.0102,-0.0297,125.4611,-0.9002,0.4151,7.1451,0.0003,-23.3582,8.2006,-0.0239,-149.5681
9348,-106.3276,23.9173,-0.0105,0.0088,122.7074,-0.8819,-0.0145,7.3278,-0.0001,-21.8323,9.2841,-0.0201,-136.6804
9360,-106.3276,23.9173,-0.0105,0.0088,122.7074,-0.8819,-0.0145,7.3278,-0.0001,-21.8323,9.2841,-0.0201,-136.6804
9378,-106.3666,24.1524,-0.0109,0.0648,118.6321,-0.8385,-0.6042,7.6897,-0.0007,-17.8467,10.9504,-0.0174,-115.7338
9392,-106.3666,24.1524,-0.0109,0.0648,118.6321,-0.8385,-0.6042,7.6897,-0.0007,-17.8467,10.9504,-0.0174,-115.7338
9408,-106.4045,24.3453,-0.0112,0.1006,115.8763,-0.7829,-0.8478,7.9888,-0.0011,-9.5395,11.7147,-0.017,-104.7585
9431,-106.44,24.5265,-0.0114,0.1247,113.5471,-0.7111,-0.8878,8.24,-0.0015,-1.7354,10.9112,-0.0172,-99.7166
9440,-106.44,24.5265,-0.0114,0.1247,113.5471,-0.7111,-0.8878,8.24,-0.0015,-1.7354,10.9112,-0.0172,-99.7166
9456,-106.44,24.5265,-0.0114,0.1247,113.5471,-0.7111,-0.8878,8.24,-0.0015,-1.7354,10.9112,-0.0172,-99.7166
9472,-106.5,24.8679,-0.0117,0.1516,109.5254,-0.5411,-0.72,8.6268,-0.0024,4.0496,9.3357,-0.0213,-95.9525
9490,-106.5278,25.0591,-0.0118,0.1587,107.3873,-0.4434,-0.545,8.8032,-0.0028,7.8146,7.8759,-0.0178,-95.3568
9504,-106.5478,25.2246,-0.0119,0.1617,105.5806,-0.3552,-0.3677,8.9368,-0.0031,9.3457,7.0429,-0.0154,-95.2263
9520,-106.5478,25.2246,-0.0119,0.1617,105.5806,-0.3552,-0.3677,8.9368,-0.0031,9.3457,7.0429,-0.0154,-95.2263
9554,-106.5782,25.583,-0.012,0.1617,101.7543,-0.1878,0.0773,9.1735,-0.0033,11.6134,5.5235,-0.0018,-95.5216
9570,-106.5877,25.7745,-0.0121,0.1598,99.7855,-0.1137,0.2479,9.3042,-0.0034,8.142,6.2377,-0.0008,-92.696
9584,-106.5877,25.7745,-0.0121,0.1598,99.7855,-0.1137,0.2479,9.3042,-0.0034,8.142,6.2377,-0.0008,-92.696
9600,-106.5945,25.9676,-0.0122,0.158,97.9537,-0.0599,0.3054,9.4404,-0.0032,2.7664,6.5588,0.0067,-85.6097
9618,-106.6021,26.2242,-0.0122,0.1548,95.8918,-0.0259,0.228,9.5932,-0.0027,-2.8564,5.6413,0.018,-71.0662
9632,-106.6021,26.2242,-0.0122,0.1548,95.8918,-0.0259,0.228,9.5932,-0.0027,-2.8564,5.6413,0.018,-71.0662
9650,-106.6106,26.4756,-0.0122,0.1492,94.3307,-0.0295,0.0445,9.6938,-0.0019,-7.0253,3.8541,0.0324,-53.8924
9666,-106.6194,26.691,-0.0122,0.1422,93.3448,-0.0479,-0.1152,9.7537,-0.001,-7.1963,2.6979,0.0405,-40.0393
9680,-106.628,26.8867,-0.0122,0.1347,92.6779,-0.0644,-0.2066,9.8032,-0.0003,-4.5666,2.4745,0.0327,-30.1823
9696,-106.628,26.8867,-0.0122,0.1347,92.6779,-0.0644,-0.2066,9.8032,-0.0003,-4.5666,2.4745,0.0327,-30.1823
9712,-106.637,27.0932,-0.0121,0.1262,92.1593,-0.0762,-0.2607,9.8501,0.0001,-2.5738,2.2297,0.0193,-22.1746
9730,-106.6458,27.3041,-0.012,0.1173,91.7753,-0.081,-0.2841,9.8923,0.0003,-1.094,1.9726,0.0091,-16.0755
9746,-106.6539,27.5154,-0.012,0.1085,91.4984,-0.0796,-0.2869,9.9292,0.0003,-0.1319,1.7333,0.0014,-11.5988
9760,-106.6539,27.5154,-0.012,0.1085,91.4984,-0.0796,-0.2869,9.9292,0.0003,-0.1319,1.7333,0.0014,-11.5988
9776,-106.6539,27.5154,-0.012,0.1085,91.4984,-0.0796,-0.2869,9.9292,0.0003,-0.1319,1.7333,0.0014,-11.5988
9792,-106.6657,27.8629,-0.0118,0.0944,91.2077,-0.0683,-0.2693,9.9802,0.0002,0.5031,1.4625,-0.0031,-6.6974
9810,-106.6733,28.1249,-0.0118,0.0848,91.0739,-0.0568,-0.2492,10.0124,0.0001,0.7661,1.2276,-0.0051,-4.4113
9824,-106.6733,28.1249,-0.0118,0.0848,91.0739,-0.0568,-0.2492,10.0124,0.0001,0.7661,1.2276,-0.0051,-4.4113
9840,-106.679,28.3455,-0.0117,0.0775,90.9966,-0.0475,-0.2322,10.0362,-0.0,0.7762,1.0796,-0.0046,-3.116
9858,-106.6853,28.6174,-0.0117,0.069,90.9333,-0.0362,-0.213,10.0623,-0.0001,0.7067,0.9666,-0.0017,-2.0037
9872,-106.6853,28.6174,-0.0117,0.069,90.9333,-0.0362,-0.213,10.0623,-0.0001,0.7067,0.9666,-0.0017,-2.0037
9888,-106.6897,28.8236,-0.0116,0.0634,90.9,-0.0292,-0.2007,10.0801,-0.0001,0.6039,0.8682,-0.0024,-1.455
9904,-106.695,29.0943,-0.0116,0.0563,90.8709,-0.0211,-0.1871,10.1017,-0.0001,0.5054,0.805,0.0001,-0.9173
9920,-106.695,29.0943,-0.0116,0.0563,90.8709,-0.0211,-0.1871,10.1017,-0.0001,0.5054,0.805,0.0001,-0.9173
9938,-106.6995,29.3449,-0.0115,0.0506,90.8529,-0.0153,-0.1773,10.1197,-0.0001,0.3984,0.7272,0.0002,-0.6673
9954,-106.703,29.5428,-0.0115,0.0464,90.8427,-0.0115,-0.171,10.1329,-0.0001,0.3213,0.6781,0.001,-0.5836
9970,-106.7063,29.7418,-0.0115,0.0426,90.8342,-0.0084,-0.1659,10.1452,-0.0001,0.2587,0.6237,0.0012,-0.7101
9984,-106.7063,29.7418,-0.0115,0.0426,90.8342,-0.0084,-0.1659,10.1452,-0.0001,0.2587,0.6237,0.0012,-0.7101
10000,-106.7095,29.9393,-0.0115,0.0392,90.8263,-0.0061,-0.162,10.1564,-0.0001,0.2029,0.5756,0.001,-1.1135
10016,-106.7127,30.1396,-0.0114,0.0359,90.8195,-0.0042,-0.1589,10.1663,-0.0,0.156,0.5014,0.001,-1.6455
10032,-106.7169,30.4196,-0.0114,0.0316,90.8303,-0.0024,-0.155,10.1667,-0.0,0.1411,0.017,0.0005,1.4557
10048,-106.7169,30.4196,-0.0114,0.0316,90.8303,-0.0024,-0.155,10.1667,-0.0,0.1411,0.017,0.0005,1.4557
10064,-106.7197,30.6049,-0.0114,0.0291,90.83,-0.0016,-0.1533,10.1757,-0.0,0.0904,0.4907,0.0014,1.6077
10082,-106.7228,30.8101,-0.0114,0.0268,90.8249,-0.0008,-0.1522,10.1911,0.0,0.0588,0.768,0.0007,-0.4475
10098,-106.7259,31.0177,-0.0114,0.025,90.8266,-0.0003,-0.1511,10.2054,0.0,0.0526,0.7003,0.0007,0.2313
10112,-106.7259,31.0177,-0.0114,0.025,90.8266,-0.0003,-0.1511,10.2054,0.0,0.0526,0.7003,0.0007,0.2313
10134,-106.7302,31.3069,-0.0113,0.0226,90.82,0.0002,-0.1501,10.2221,0.0,0.0359,0.5883,0.0003,-0.8884
10144,-106.7302,31.3069,-0.0113,0.0226,90.82,0.0002,-0.1501,10.2221,0.0,0.0359,0.5883,0.0003,-0.8884
10160,-106.7342,31.593,-0.0113,0.0205,90.8326,0.0005,-0.1492,10.2317,0.0,0.0302,0.3452,0.0005,1.6518
10176,-106.7342,31.593,-0.0113,0.0205,90.8326,0.0005,-0.1492,10.2317,0.0,0.0302,0.3452,0.0005,1.6518
10194,-106.7406,32.0243,-0.0113,0.0176,90.8207,0.0007,-0.1489,10.2497,0.0001,0.0084,0.4269,0.0002,-1.2516
10208,-106.7406,32.0243,-0.0113,0.0176,90.8207,0.0007,-0.1489,10.2497,0.0001,0.0084,0.4269,0.0002,-1.2516
10224,-106.7441,32.2667,-0.0113,0.0164,90.8286,0.0008,-0.1487,10.2626,0.0001,0.0086,0.5481,0.0,0.9022
10242,-106.7468,32.459,-0.0113,0.0156,90.8311,0.0008,-0.1485,10.2708,0.0,0.0084,0.4371,-0.0005,1.4661
10258,-106.7499,32.667,-0.0113,0.0149,90.8266,0.0007,-0.1487,10.2836,0.0,-0.0092,0.6326,-0.0001,-0.4152
10275,-106.7528,32.8661,-0.0113,0.0143,90.8236,0.0007,-0.1489,10.2944,0.0,-0.0113,0.559,-0.0001,-0.9707
10288,-106.7528,32.8661,-0.0113,0.0143,90.8236,0.0007,-0.1489,10.2944,0.0,-0.0113,0.559,-0.0001,-0.9707
10304,-106.7558,33.0703,-0.0113,0.0136,90.8195,0.0006,-0.1491,10.3007,0.0,-0.0075,0.3134,-0.0011,-1.7968
10323,-106.7587,33.2798,-0.0113,0.0131,90.8244,0.0006,-0.149,10.313,0.0,0.0046,0.6068,0.0001,0.433
10341,-106.7618,33.4913,-0.0113,0.0127,90.8223,0.0006,-0.149,10.3262,0.0,-0.0004,0.6463,0.0007,-0.2453
10352,-106.7618,33.4913,-0.0113,0.0127,90.8223,0.0006,-0.149,10.3262,0.0,-0.0004,0.6463,0.0007,-0.2453
10371,-106.767,33.8497,-0.0112,0.0122,90.8202,0.0005,-0.1491,10.3454,0.0,-0.0026,0.5523,-0.0004,-0.7084
10384,-106.767,33.8497,-0.0112,0.0122,90.8202,0.0005,-0.1491,10.3454,0.0,-0.0026,0.5523,-0.0004,-0.7084
10400,-106.7704,34.0896,-0.0112,0.0118,90.8253,0.0005,-0.1491,10.357,0.0,0.0007,0.5023,-0.0006,0.6391
10416,-106.7704,34.0896,-0.0112,0.0118,90.8253,0.0005,-0.1491,10.357,0.0,0.0007,0.5023,-0.0006,0.6391
10432,-106.7749,34.401,-0.0112,0.0114,90.8248,0.0004,-0.1492,10.3728,0.0,-0.0041,0.5255,0.0003,0.4998
10450,-106.7779,34.6115,-0.0112,0.0112,90.8226,0.0004,-0.1493,10.3839,0.0,-0.0075,0.5457,-0.0001,-0.2475
10466,-106.781,34.8244,-0.0112,0.011,90.8239,0.0004,-0.1495,10.395,-0.0,-0.0058,0.5423,-0.0008,0.156
10480,-106.781,34.8244,-0.0112,0.011,90.8239,0.0004,-0.1495,10.395,-0.0,-0.0058,0.5423,-0.0008,0.156
10496,-106.784,35.0361,-0.0112,0.0108,90.8231,0.0003,-0.1496,10.4058,-0.0,-0.0072,0.5301,0.0002,-0.0997
10514,-106.7881,35.3164,-0.0112,0.0106,90.8252,0.0003,-0.1498,10.4194,0.0,-0.006,0.5064,0.0002,0.3064
10528,-106.791,35.5241,-0.0112,0.0104,90.8282,0.0003,-0.1498,10.4282,0.0,-0.0038,0.44,0.0004,0.8128
10544,-106.791,35.5241,-0.0112,0.0104,90.8282,0.0003,-0.1498,10.4282,0.0,-0.0038,0.44,0.0004,0.8128
10560,-106.7939,35.7253,-0.0112,0.0102,90.8314,0.0002,-0.1499,10.4335,0.0,-0.0027,0.2783,0.0003,1.4657
10578,-106.798,36.0051,-0.0112,0.0096,90.8179,0.0002,-0.1502,10.4396,0.0,-0.0103,0.2254,-0.0002,-1.5236
10592,-106.798,36.0051,-0.0112,0.0096,90.8179,0.0002,-0.1502,10.4396,0.0,-0.0103,0.2254,-0.0002,-1.5236
10608,-106.801,36.2141,-0.0112,0.0093,90.8221,0.0002,-0.1502,10.4509,-0.0,-0.0005,0.5682,-0.0011,0.3611
10624,-106.804,36.4232,-0.0112,0.0092,90.8254,0.0002,-0.1501,10.4606,-0.0,0.0027,0.4814,0.0003,0.926
10642,-106.8072,36.6469,-0.0112,0.009,90.8212,0.0002,-0.1503,10.4712,0.0,-0.0098,0.4978,0.0004,-0.4516
10656,-106.8103,36.8625,-0.0112,0.009,90.8233,0.0002,-0.1505,10.4822,-0.0,-0.0065,0.5334,-0.0003,0.2394
10672,-106.8103,36.8625,-0.0112,0.009,90.8233,0.0002,-0.1505,10.4822,-0.0,-0.0065,0.5334,-0.0003,0.2394
10692,-106.8136,37.0915,-0.0112,0.009,90.8217,0.0002,-0.1506,10.4934,0.0,-0.0082,0.516,0.0005,-0.2107
10704,-106.8136,37.0915,-0.0112,0.009,90.8217,0.0002,-0.1506,10.4934,0.0,-0.0082,0.516,0.0005,-0.2107
10720,-106.8177,37.3819,-0.0112,0.009,90.8262,0.0001,-0.1508,10.5064,0.0,-0.0057,0.4691,-0.0002,0.634
