timestamp,x,y,z,pitch,yaw,roll,vx,vy,vz,ax,ay,az,yaw_rate
135863,-106.6867,-4.8475,-0.0602,0.0,-89.3578,0.0,0.0,-0.0,0.2375,0.0,-0.0,0.4999,0.0
135879,-106.6867,-4.8475,-0.0602,0.0,-89.3578,0.0,0.0,-0.0,0.2375,0.0,-0.0,0.4999,0.0
135895,-106.6867,-4.8475,-0.0602,0.0,-89.3578,0.0,0.0,-0.0,0.2375,0.0,-0.0,0.4999,0.0
135911,-106.6867,-4.8475,-0.0602,0.0,-89.3578,0.0,0.0,-0.0,0.2375,0.0,-0.0,0.4999,0.0
135927,-106.6867,-4.8475,-0.0602,0.0,-89.3578,0.0,0.0,-0.0,0.2375,0.0,-0.0,0.4999,0.0
135943,-106.6867,-4.8475,-0.0602,0.0,-89.3578,0.0,0.0,-0.0,0.2375,0.0,-0.0,0.4999,0.0
135959,-106.6867,-4.8475,-0.0602,0.0,-89.3578,0.0,0.0,-0.0,0.2375,0.0,-0.0,0.4999,0.0
135975,-106.6867,-4.8475,-0.0602,0.0,-89.3578,0.0,0.0,-0.0,0.2375,0.0,-0.0,0.4999,0.0
135994,-106.6867,-4.8456,-0.0392,-0.0016,-89.3578,0.0,-0.0005,0.0406,0.1779,-0.0033,0.2909,-0.4274,0.0001
136007,-106.6867,-4.8456,-0.0392,-0.0016,-89.3578,0.0,-0.0005,0.0406,0.1779,-0.0033,0.2909,-0.4274,0.0001
136023,-106.6867,-4.8456,-0.0392,-0.0016,-89.3578,0.0,-0.0005,0.0406,0.1779,-0.0033,0.2909,-0.4274,0.0001
136039,-106.6867,-4.8456,-0.0392,-0.0016,-89.3578,0.0,-0.0005,0.0406,0.1779,-0.0033,0.2909,-0.4274,0.0001
136055,-106.6867,-4.8456,-0.0392,-0.0016,-89.3578,0.0,-0.0005,0.0406,0.1779,-0.0033,0.2909,-0.4274,0.0001
136071,-106.6867,-4.8456,-0.0392,-0.0016,-89.3578,0.0,-0.0005,0.0406,0.1779,-0.0033,0.2909,-0.4274,0.0001
136087,-106.6868,-4.8405,-0.0262,-0.0053,-89.3579,0.0,-0.0019,0.168,0.1072,-0.0151,1.3615,-0.7545,-0.0013
136103,-106.6868,-4.8405,-0.0262,-0.0053,-89.3579,0.0,-0.0019,0.168,0.1072,-0.0151,1.3615,-0.7545,-0.0013
136119,-106.6868,-4.8405,-0.0262,-0.0053,-89.3579,0.0,-0.0019,0.168,0.1072,-0.0151,1.3615,-0.7545,-0.0013
136135,-106.6868,-4.8405,-0.0262,-0.0053,-89.3579,0.0,-0.0019,0.168,0.1072,-0.0151,1.3615,-0.7545,-0.0013
136151,-106.6868,-4.8405,-0.0262,-0.0053,-89.3579,0.0,-0.0019,0.168,0.1072,-0.0151,1.3615,-0.7545,-0.0013
136167,-106.6868,-4.8405,-0.0262,-0.0053,-89.3579,0.0,-0.0019,0.168,0.1072,-0.0151,1.3615,-0.7545,-0.0013
136185,-106.6872,-4.7996,-0.0184,-0.0316,-89.3692,0.0001,-0.0075,0.6406,0.0559,-0.0557,4.6927,-0.5094,0.0234
136199,-106.6872,-4.7996,-0.0184,-0.0316,-89.3692,0.0001,-0.0075,0.6406,0.0559,-0.0557,4.6927,-0.5094,0.0234
136215,-106.6872,-4.7996,-0.0184,-0.0316,-89.3692,0.0001,-0.0075,0.6406,0.0559,-0.0557,4.6927,-0.5094,0.0234
136231,-106.6872,-4.7996,-0.0184,-0.0316,-89.3692,0.0001,-0.0075,0.6406,0.0559,-0.0557,4.6927,-0.5094,0.0234
136247,-106.6872,-4.7996,-0.0184,-0.0316,-89.3692,0.0001,-0.0075,0.6406,0.0559,-0.0557,4.6927,-0.5094,0.0234
136263,-106.6872,-4.7996,-0.0184,-0.0316,-89.3692,0.0001,-0.0075,0.6406,0.0559,-0.0557,4.6927,-0.5094,0.0234
136280,-106.6882,-4.7154,-0.0144,-0.0471,-89.3621,0.0,-0.011,0.9669,0.0275,-0.0354,3.2696,-0.2847,-0.2385
136295,-106.6882,-4.7154,-0.0144,-0.0471,-89.3621,0.0,-0.011,0.9669,0.0275,-0.0354,3.2696,-0.2847,-0.2385
136311,-106.6882,-4.7154,-0.0144,-0.0471,-89.3621,0.0,-0.011,0.9669,0.0275,-0.0354,3.2696,-0.2847,-0.2385
136327,-106.6882,-4.7154,-0.0144,-0.0471,-89.3621,0.0,-0.011,0.9669,0.0275,-0.0354,3.2696,-0.2847,-0.2385
136343,-106.6882,-4.7154,-0.0144,-0.0471,-89.3621,0.0,-0.011,0.9669,0.0275,-0.0354,3.2696,-0.2847,-0.2385
136359,-106.6882,-4.7154,-0.0144,-0.0471,-89.3621,0.0,-0.011,0.9669,0.0275,-0.0354,3.2696,-0.2847,-0.2385
136375,-106.6882,-4.7154,-0.0144,-0.0471,-89.3621,0.0,-0.011,0.9669,0.0275,-0.0354,3.2696,-0.2847,-0.2385
136391,-106.6893,-4.6113,-0.0123,-0.0445,-89.3696,-0.0001,-0.012,1.2991,0.0164,-0.0103,3.366,-0.1122,-0.4776
136407,-106.6893,-4.6113,-0.0123,-0.0445,-89.3696,-0.0001,-0.012,1.2991,0.0164,-0.0103,3.366,-0.1122,-0.4776
136423,-106.6893,-4.6113,-0.0123,-0.0445,-89.3696,-0.0001,-0.012,1.2991,0.0164,-0.0103,3.366,-0.1122,-0.4776
136439,-106.6893,-4.6113,-0.0123,-0.0445,-89.3696,-0.0001,-0.012,1.2991,0.0164,-0.0103,3.366,-0.1122,-0.4776
136455,-106.6893,-4.6113,-0.0123,-0.0445,-89.3696,-0.0001,-0.012,1.2991,0.0164,-0.0103,3.366,-0.1122,-0.4776
136473,-106.6894,-4.4904,-0.0114,-0.0376,-89.47,-0.0012,-0.0088,1.3098,0.0056,0.0338,0.1122,-0.1144,-0.4586
136487,-106.6894,-4.4904,-0.0114,-0.0376,-89.47,-0.0012,-0.0088,1.3098,0.0056,0.0338,0.1122,-0.1144,-0.4586
136503,-106.6894,-4.4904,-0.0114,-0.0376,-89.47,-0.0012,-0.0088,1.3098,0.0056,0.0338,0.1122,-0.1144,-0.4586
136519,-106.6894,-4.4904,-0.0114,-0.0376,-89.47,-0.0012,-0.0088,1.3098,0.0056,0.0338,0.1122,-0.1144,-0.4586
136535,-106.6894,-4.4904,-0.0114,-0.0376,-89.47,-0.0012,-0.0088,1.3098,0.0056,0.0338,0.1122,-0.1144,-0.4586
136551,-106.6894,-4.4904,-0.0114,-0.0376,-89.47,-0.0012,-0.0088,1.3098,0.0056,0.0338,0.1122,-0.1144,-0.4586
136567,-106.6894,-4.4904,-0.0114,-0.0376,-89.47,-0.0012,-0.0088,1.3098,0.0056,0.0338,0.1122,-0.1144,-0.4586
136583,-106.6902,-4.3676,-0.0112,-0.0212,-89.4819,-0.0004,-0.0116,1.3243,0.002,-0.028,0.1479,-0.0365,0.3695
136599,-106.6902,-4.3676,-0.0112,-0.0212,-89.4819,-0.0004,-0.0116,1.3243,0.002,-0.028,0.1479,-0.0365,0.3695
136615,-106.6902,-4.3676,-0.0112,-0.0212,-89.4819,-0.0004,-0.0116,1.3243,0.002,-0.028,0.1479,-0.0365,0.3695
136631,-106.6902,-4.3676,-0.0112,-0.0212,-89.4819,-0.0004,-0.0116,1.3243,0.002,-0.028,0.1479,-0.0365,0.3695
136647,-106.6902,-4.3676,-0.0112,-0.0212,-89.4819,-0.0004,-0.0116,1.3243,0.002,-0.028,0.1479,-0.0365,0.3695
136665,-106.6917,-4.2302,-0.011,-0.0336,-89.4604,-0.0002,-0.0113,1.7306,0.0008,0.003,4.3416,-0.0127,-4.2928
136679,-106.6917,-4.2302,-0.011,-0.0336,-89.4604,-0.0002,-0.0113,1.7306,0.0008,0.003,4.3416,-0.0127,-4.2928
136695,-106.6917,-4.2302,-0.011,-0.0336,-89.4604,-0.0002,-0.0113,1.7306,0.0008,0.003,4.3416,-0.0127,-4.2928
136711,-106.6917,-4.2302,-0.011,-0.0336,-89.4604,-0.0002,-0.0113,1.7306,0.0008,0.003,4.3416,-0.0127,-4.2928
136727,-106.6917,-4.2302,-0.011,-0.0336,-89.4604,-0.0002,-0.0113,1.7306,0.0008,0.003,4.3416,-0.0127,-4.2928
136743,-106.6917,-4.2302,-0.011,-0.0336,-89.4604,-0.0002,-0.0113,1.7306,0.0008,0.003,4.3416,-0.0127,-4.2928
136759,-106.6922,-4.0478,-0.0108,-0.0566,-89.5467,-0.0008,-0.0172,2.3151,0.0004,-0.0644,6.3886,-0.005,0.1756
136775,-106.6922,-4.0478,-0.0108,-0.0566,-89.5467,-0.0008,-0.0172,2.3151,0.0004,-0.0644,6.3886,-0.005,0.1756
136791,-106.6922,-4.0478,-0.0108,-0.0566,-89.5467,-0.0008,-0.0172,2.3151,0.0004,-0.0644,6.3886,-0.005,0.1756
136807,-106.6922,-4.0478,-0.0108,-0.0566,-89.5467,-0.0008,-0.0172,2.3151,0.0004,-0.0644,6.3886,-0.005,0.1756
136823,-106.6922,-4.0478,-0.0108,-0.0566,-89.5467,-0.0008,-0.0172,2.3151,0.0004,-0.0644,6.3886,-0.005,0.1756
136839,-106.6922,-4.0478,-0.0108,-0.0566,-89.5467,-0.0008,-0.0172,2.3151,0.0004,-0.0644,6.3886,-0.005,0.1756
136856,-106.6943,-3.7924,-0.0106,-0.0783,-89.5301,-0.0005,-0.02,2.9206,0.0002,-0.0293,6.2402,-0.0022,-3.0648
136871,-106.6943,-3.7924,-0.0106,-0.0783,-89.5301,-0.0005,-0.02,2.9206,0.0002,-0.0293,6.2402,-0.0022,-3.0648
136887,-106.6943,-3.7924,-0.0106,-0.0783,-89.5301,-0.0005,-0.02,2.9206,0.0002,-0.0293,6.2402,-0.0022,-3.0648
136903,-106.6943,-3.7924,-0.0106,-0.0783,-89.5301,-0.0005,-0.02,2.9206,0.0002,-0.0293,6.2402,-0.0022,-3.0648
136919,-106.6943,-3.7924,-0.0106,-0.0783,-89.5301,-0.0005,-0.02,2.9206,0.0002,-0.0293,6.2402,-0.0022,-3.0648
136935,-106.6943,-3.7924,-0.0106,-0.0783,-89.5301,-0.0005,-0.02,2.9206,0.0002,-0.0293,6.2402,-0.0022,-3.0648
136951,-106.6943,-3.7924,-0.0106,-0.0783,-89.5301,-0.0005,-0.02,2.9206,0.0002,-0.0293,6.2402,-0.0022,-3.0648
136967,-106.6955,-3.4769,-0.0106,-0.0833,-89.6514,-0.0012,-0.0211,3.4017,0.0001,-0.01,4.6446,-0.0008,2.0169
136983,-106.6955,-3.4769,-0.0106,-0.0833,-89.6514,-0.0012,-0.0211,3.4017,0.0001,-0.01,4.6446,-0.0008,2.0169
136999,-106.6955,-3.4769,-0.0106,-0.0833,-89.6514,-0.0012,-0.0211,3.4017,0.0001,-0.01,4.6446,-0.0008,2.0169
137015,-106.6955,-3.4769,-0.0106,-0.0833,-89.6514,-0.0012,-0.0211,3.4017,0.0001,-0.01,4.6446,-0.0008,2.0169
137031,-106.6955,-3.4769,-0.0106,-0.0833,-89.6514,-0.0012,-0.0211,3.4017,0.0001,-0.01,4.6446,-0.0008,2.0169
137047,-106.6955,-3.4769,-0.0106,-0.0833,-89.6514,-0.0012,-0.0211,3.4017,0.0001,-0.01,4.6446,-0.0008,2.0169
137063,-106.6975,-3.1049,-0.0104,-0.1005,-89.6769,-0.0013,-0.0239,4.216,0.0,-0.0294,8.4713,-0.0006,-0.239
137079,-106.6975,-3.1049,-0.0104,-0.1005,-89.6769,-0.0013,-0.0239,4.216,0.0,-0.0294,8.4713,-0.0006,-0.239
137095,-106.6975,-3.1049,-0.0104,-0.1005,-89.6769,-0.0013,-0.0239,4.216,0.0,-0.0294,8.4713,-0.0006,-0.239
137111,-106.6975,-3.1049,-0.0104,-0.1005,-89.6769,-0.0013,-0.0239,4.216,0.0,-0.0294,8.4713,-0.0006,-0.239
137127,-106.6975,-3.1049,-0.0104,-0.1005,-89.6769,-0.0013,-0.0239,4.216,0.0,-0.0294,8.4713,-0.0006,-0.239
137143,-106.6975,-3.1049,-0.0104,-0.1005,-89.6769,-0.0013,-0.0239,4.216,0.0,-0.0294,8.4713,-0.0006,-0.239
137159,-106.7002,-2.6745,-0.0104,-0.0996,-89.6484,-0.0005,-0.0277,4.7469,0.0,-0.0397,5.5032,-0.0003,1.7967
137175,-106.7002,-2.6745,-0.0104,-0.0996,-89.6484,-0.0005,-0.0277,4.7469,0.0,-0.0397,5.5032,-0.0003,1.7967
137191,-106.7002,-2.6745,-0.0104,-0.0996,-89.6484,-0.0005,-0.0277,4.7469,0.0,-0.0397,5.5032,-0.0003,1.7967
137207,-106.7002,-2.6745,-0.0104,-0.0996,-89.6484,-0.0005,-0.0277,4.7469,0.0,-0.0397,5.5032,-0.0003,1.7967
137223,-106.7002,-2.6745,-0.0104,-0.0996,-89.6484,-0.0005,-0.0277,4.7469,0.0,-0.0397,5.5032,-0.0003,1.7967
137239,-106.7002,-2.6745,-0.0104,-0.0996,-89.6484,-0.0005,-0.0277,4.7469,0.0,-0.0397,5.5032,-0.0003,1.7967
137256,-106.7027,-2.1812,-0.0104,-0.0966,-89.6982,-0.0007,-0.03,5.3207,0.0,-0.0232,5.8008,0.0001,-1.8353
137271,-106.7027,-2.1812,-0.0104,-0.0966,-89.6982,-0.0007,-0.03,5.3207,0.0,-0.0232,5.8008,0.0001,-1.8353
137287,-106.7027,-2.1812,-0.0104,-0.0966,-89.6982,-0.0007,-0.03,5.3207,0.0,-0.0232,5.8008,0.0001,-1.8353
137303,-106.7027,-2.1812,-0.0104,-0.0966,-89.6982,-0.0007,-0.03,5.3207,0.0,-0.0232,5.8008,0.0001,-1.8353
137319,-106.7027,-2.1812,-0.0104,-0.0966,-89.6982,-0.0007,-0.03,5.3207,0.0,-0.0232,5.8008,0.0001,-1.8353
137335,-106.7027,-2.1812,-0.0104,-0.0966,-89.6982,-0.0007,-0.03,5.3207,0.0,-0.0232,5.8008,0.0001,-1.8353
137351,-106.705,-1.6862,-0.0105,-0.0926,-89.7375,-0.0012,-0.0278,5.6932,0.0,0.0248,4.1529,-0.0001,-1.2466
137367,-106.705,-1.6862,-0.0105,-0.0926,-89.7375,-0.0012,-0.0278,5.6932,0.0,0.0248,4.1529,-0.0001,-1.2466
137383,-106.705,-1.6862,-0.0105,-0.0926,-89.7375,-0.0012,-0.0278,5.6932,0.0,0.0248,4.1529,-0.0001,-1.2466
137399,-106.705,-1.6862,-0.0105,-0.0926,-89.7375,-0.0012,-0.0278,5.6932,0.0,0.0248,4.1529,-0.0001,-1.2466
137415,-106.705,-1.6862,-0.0105,-0.0926,-89.7375,-0.0012,-0.0278,5.6932,0.0,0.0248,4.1529,-0.0001,-1.2466
137432,-106.7074,-1.1438,-0.0105,-0.0943,-89.7462,-0.0013,-0.0278,6.3237,0.0,0.0006,7.0195,-0.0001,1.4279
137447,-106.7074,-1.1438,-0.0105,-0.0943,-89.7462,-0.0013,-0.0278,6.3237,0.0,0.0006,7.0195,-0.0001,1.4279
137463,-106.7074,-1.1438,-0.0105,-0.0943,-89.7462,-0.0013,-0.0278,6.3237,0.0,0.0006,7.0195,-0.0001,1.4279
137479,-106.7074,-1.1438,-0.0105,-0.0943,-89.7462,-0.0013,-0.0278,6.3237,0.0,0.0006,7.0195,-0.0001,1.4279
137495,-106.7074,-1.1438,-0.0105,-0.0943,-89.7462,-0.0013,-0.0278,6.3237,0.0,0.0006,7.0195,-0.0001,1.4279
137511,-106.7074,-1.1438,-0.0105,-0.0943,-89.7462,-0.0013,-0.0278,6.3237,0.0,0.0006,7.0195,-0.0001,1.4279
137529,-106.7101,-0.491,-0.0104,-0.1028,-89.7637,-0.0012,-0.0304,7.0338,-0.0,-0.0271,7.251,-0.0002,-1.1955
137543,-106.7101,-0.491,-0.0104,-0.1028,-89.7637,-0.0012,-0.0304,7.0338,-0.0,-0.0271,7.251,-0.0002,-1.1955
137559,-106.7101,-0.491,-0.0104,-0.1028,-89.7637,-0.0012,-0.0304,7.0338,-0.0,-0.0271,7.251,-0.0002,-1.1955
137575,-106.7101,-0.491,-0.0104,-0.1028,-89.7637,-0.0012,-0.0304,7.0338,-0.0,-0.0271,7.251,-0.0002,-1.1955
137591,-106.7101,-0.491,-0.0104,-0.1028,-89.7637,-0.0012,-0.0304,7.0338,-0.0,-0.0271,7.251,-0.0002,-1.1955
137607,-106.7101,-0.491,-0.0104,-0.1028,-89.7637,-0.0012,-0.0304,7.0338,-0.0,-0.0271,7.251,-0.0002,-1.1955
137623,-106.7132,0.238,-0.0103,-0.1112,-89.7599,-0.0008,-0.032,7.7507,-0.0,-0.0165,7.2818,-0.0,0.8996
137639,-106.7132,0.238,-0.0103,-0.1112,-89.7599,-0.0008,-0.032,7.7507,-0.0,-0.0165,7.2818,-0.0,0.8996
137655,-106.7132,0.238,-0.0103,-0.1112,-89.7599,-0.0008,-0.032,7.7507,-0.0,-0.0165,7.2818,-0.0,0.8996
137671,-106.7132,0.238,-0.0103,-0.1112,-89.7599,-0.0008,-0.032,7.7507,-0.0,-0.0165,7.2818,-0.0,0.8996
137687,-106.7132,0.238,-0.0103,-0.1112,-89.7599,-0.0008,-0.032,7.7507,-0.0,-0.0165,7.2818,-0.0,0.8996
137703,-106.7132,0.238,-0.0103,-0.1112,-89.7599,-0.0008,-0.032,7.7507,-0.0,-0.0165,7.2818,-0.0,0.8996
137721,-106.7164,0.9993,-0.0103,-0.1167,-89.7614,-0.0005,-0.0352,8.4634,-0.0,-0.0342,7.5974,0.0001,-0.0389
137735,-106.7164,0.9993,-0.0103,-0.1167,-89.7614,-0.0005,-0.0352,8.4634,-0.0,-0.0342,7.5974,0.0001,-0.0389
137751,-106.7164,0.9993,-0.0103,-0.1167,-89.7614,-0.0005,-0.0352,8.4634,-0.0,-0.0342,7.5974,0.0001,-0.0389
137767,-106.7164,0.9993,-0.0103,-0.1167,-89.7614,-0.0005,-0.0352,8.4634,-0.0,-0.0342,7.5974,0.0001,-0.0389
137783,-106.7164,0.9993,-0.0103,-0.1167,-89.7614,-0.0005,-0.0352,8.4634,-0.0,-0.0342,7.5974,0.0001,-0.0389
137799,-106.7164,0.9993,-0.0103,-0.1167,-89.7614,-0.0005,-0.0352,8.4634,-0.0,-0.0342,7.5974,0.0001,-0.0389
137816,-106.72,1.865,-0.0103,-0.1126,-89.7613,-0.0003,-0.0376,9.0289,-0.0,-0.0238,5.7396,0.0,0.0013
137831,-106.72,1.865,-0.0103,-0.1126,-89.7613,-0.0003,-0.0376,9.0289,-0.0,-0.0238,5.7396,0.0,0.0013
137847,-106.72,1.865,-0.0103,-0.1126,-89.7613,-0.0003,-0.0376,9.0289,-0.0,-0.0238,5.7396,0.0,0.0013
137863,-106.72,1.865,-0.0103,-0.1126,-89.7613,-0.0003,-0.0376,9.0289,-0.0,-0.0238,5.7396,0.0,0.0013
137879,-106.72,1.865,-0.0103,-0.1126,-89.7613,-0.0003,-0.0376,9.0289,-0.0,-0.0238,5.7396,0.0,0.0013
137895,-106.72,1.865,-0.0103,-0.1126,-89.7613,-0.0003,-0.0376,9.0289,-0.0,-0.0238,5.7396,0.0,0.0013
137911,-106.72,1.865,-0.0103,-0.1126,-89.7613,-0.0003,-0.0376,9.0289,-0.0,-0.0238,5.7396,0.0,0.0013
137927,-106.7238,2.7769,-0.0104,-0.0994,-89.7613,-0.0002,-0.0396,9.5041,-0.0,-0.0202,4.8291,-0.0,-0.0003
137943,-106.7238,2.7769,-0.0104,-0.0994,-89.7613,-0.0002,-0.0396,9.5041,-0.0,-0.0202,4.8291,-0.0,-0.0003
137959,-106.7238,2.7769,-0.0104,-0.0994,-89.7613,-0.0002,-0.0396,9.5041,-0.0,-0.0202,4.8291,-0.0,-0.0003
137975,-106.7238,2.7769,-0.0104,-0.0994,-89.7613,-0.0002,-0.0396,9.5041,-0.0,-0.0202,4.8291,-0.0,-0.0003
137991,-106.7238,2.7769,-0.0104,-0.0994,-89.7613,-0.0002,-0.0396,9.5041,-0.0,-0.0202,4.8291,-0.0,-0.0003
138009,-106.7276,3.6945,-0.0105,-0.0954,-89.7613,-0.0001,-0.0418,10.0318,-0.0,-0.0235,5.6247,-0.0001,0.0001
138023,-106.7276,3.6945,-0.0105,-0.0954,-89.7613,-0.0001,-0.0418,10.0318,-0.0,-0.0235,5.6247,-0.0001,0.0001
138039,-106.7276,3.6945,-0.0105,-0.0954,-89.7613,-0.0001,-0.0418,10.0318,-0.0,-0.0235,5.6247,-0.0001,0.0001
138055,-106.7276,3.6945,-0.0105,-0.0954,-89.7613,-0.0001,-0.0418,10.0318,-0.0,-0.0235,5.6247,-0.0001,0.0001
138071,-106.7276,3.6945,-0.0105,-0.0954,-89.7613,-0.0001,-0.0418,10.0318,-0.0,-0.0235,5.6247,-0.0001,0.0001
138087,-106.7276,3.6945,-0.0105,-0.0954,-89.7613,-0.0001,-0.0418,10.0318,-0.0,-0.0235,5.6247,-0.0001,0.0001
138104,-106.7317,4.6719,-0.0105,-0.0922,-89.7613,-0.0001,-0.0438,10.514,0.0,-0.0212,5.0798,0.0001,-0.0
138119,-106.7317,4.6719,-0.0105,-0.0922,-89.7613,-0.0001,-0.0438,10.514,0.0,-0.0212,5.0798,0.0001,-0.0
138135,-106.7317,4.6719,-0.0105,-0.0922,-89.7613,-0.0001,-0.0438,10.514,0.0,-0.0212,5.0798,0.0001,-0.0
138151,-106.7317,4.6719,-0.0105,-0.0922,-89.7613,-0.0001,-0.0438,10.514,0.0,-0.0212,5.0798,0.0001,-0.0
138167,-106.7317,4.6719,-0.0105,-0.0922,-89.7613,-0.0001,-0.0438,10.514,0.0,-0.0212,5.0798,0.0001,-0.0
138183,-106.7317,4.6719,-0.0105,-0.0922,-89.7613,-0.0001,-0.0438,10.514,0.0,-0.0212,5.0798,0.0001,-0.0
138200,-106.7357,5.6416,-0.0105,-0.0869,-89.7613,0.0,-0.0455,10.9285,-0.0,-0.0191,4.5895,-0.0001,0.0
138215,-106.7357,5.6416,-0.0105,-0.0869,-89.7613,0.0,-0.0455,10.9285,-0.0,-0.0191,4.5895,-0.0001,0.0
138231,-106.7357,5.6416,-0.0105,-0.0869,-89.7613,0.0,-0.0455,10.9285,-0.0,-0.0191,4.5895,-0.0001,0.0
138247,-106.7357,5.6416,-0.0105,-0.0869,-89.7613,0.0,-0.0455,10.9285,-0.0,-0.0191,4.5895,-0.0001,0.0
138263,-106.7357,5.6416,-0.0105,-0.0869,-89.7613,0.0,-0.0455,10.9285,-0.0,-0.0191,4.5895,-0.0001,0.0
138279,-106.7357,5.6416,-0.0105,-0.0869,-89.7613,0.0,-0.0455,10.9285,-0.0,-0.0191,4.5895,-0.0001,0.0
138296,-106.7401,6.7017,-0.0106,-0.0807,-89.7613,-0.0,-0.0472,11.3262,-0.0,-0.0174,4.1828,-0.0,0.0003
138311,-106.7401,6.7017,-0.0106,-0.0807,-89.7613,-0.0,-0.0472,11.3262,-0.0,-0.0174,4.1828,-0.0,0.0003
138327,-106.7401,6.7017,-0.0106,-0.0807,-89.7613,-0.0,-0.0472,11.3262,-0.0,-0.0174,4.1828,-0.0,0.0003
138343,-106.7401,6.7017,-0.0106,-0.0807,-89.7613,-0.0,-0.0472,11.3262,-0.0,-0.0174,4.1828,-0.0,0.0003
138359,-106.7401,6.7017,-0.0106,-0.0807,-89.7613,-0.0,-0.0472,11.3262,-0.0,-0.0174,4.1828,-0.0,0.0003
138375,-106.7401,6.7017,-0.0106,-0.0807,-89.7613,-0.0,-0.0472,11.3262,-0.0,-0.0174,4.1828,-0.0,0.0003
138391,-106.7446,7.7628,-0.0106,-0.0744,-89.7613,-0.0,-0.0486,11.6763,0.0,-0.0159,3.8001,0.0002,0.0004
138407,-106.7446,7.7628,-0.0106,-0.0744,-89.7613,-0.0,-0.0486,11.6763,0.0,-0.0159,3.8001,0.0002,0.0004
138423,-106.7446,7.7628,-0.0106,-0.0744,-89.7613,-0.0,-0.0486,11.6763,0.0,-0.0159,3.8001,0.0002,0.0004
138439,-106.7446,7.7628,-0.0106,-0.0744,-89.7613,-0.0,-0.0486,11.6763,0.0,-0.0159,3.8001,0.0002,0.0004
138455,-106.7446,7.7628,-0.0106,-0.0744,-89.7613,-0.0,-0.0486,11.6763,0.0,-0.0159,3.8001,0.0002,0.0004
138471,-106.7446,7.7628,-0.0106,-0.0744,-89.7613,-0.0,-0.0486,11.6763,0.0,-0.0159,3.8001,0.0002,0.0004
138488,-106.7495,8.9498,-0.0107,-0.0681,-89.7613,-0.0,-0.0501,12.0276,0.0,-0.0144,3.4718,-0.0001,0.0022
138503,-106.7495,8.9498,-0.0107,-0.0681,-89.7613,-0.0,-0.0501,12.0276,0.0,-0.0144,3.4718,-0.0001,0.0022
138519,-106.7495,8.9498,-0.0107,-0.0681,-89.7613,-0.0,-0.0501,12.0276,0.0,-0.0144,3.4718,-0.0001,0.0022
138535,-106.7495,8.9498,-0.0107,-0.0681,-89.7613,-0.0,-0.0501,12.0276,0.0,-0.0144,3.4718,-0.0001,0.0022
138551,-106.7495,8.9498,-0.0107,-0.0681,-89.7613,-0.0,-0.0501,12.0276,0.0,-0.0144,3.4718,-0.0001,0.0022
138567,-106.7495,8.9498,-0.0107,-0.0681,-89.7613,-0.0,-0.0501,12.0276,0.0,-0.0144,3.4718,-0.0001,0.0022
138585,-106.7544,10.1331,-0.0107,-0.0628,-89.7613,0.0,-0.0514,12.3419,0.0,-0.0135,3.2412,0.0,0.0044
138599,-106.7544,10.1331,-0.0107,-0.0628,-89.7613,0.0,-0.0514,12.3419,0.0,-0.0135,3.2412,0.0,0.0044
138615,-106.7544,10.1331,-0.0107,-0.0628,-89.7613,0.0,-0.0514,12.3419,0.0,-0.0135,3.2412,0.0,0.0044
138631,-106.7544,10.1331,-0.0107,-0.0628,-89.7613,0.0,-0.0514,12.3419,0.0,-0.0135,3.2412,0.0,0.0044
138647,-106.7544,10.1331,-0.0107,-0.0628,-89.7613,0.0,-0.0514,12.3419,0.0,-0.0135,3.2412,0.0,0.0044
138663,-106.7544,10.1331,-0.0107,-0.0628,-89.7613,0.0,-0.0514,12.3419,0.0,-0.0135,3.2412,0.0,0.0044
138679,-106.7544,10.1331,-0.0107,-0.0628,-89.7613,0.0,-0.0514,12.3419,0.0,-0.0135,3.2412,0.0,0.0044
138695,-106.7544,10.1331,-0.0107,-0.0628,-89.7613,0.0,-0.0514,12.3419,0.0,-0.0135,3.2412,0.0,0.0044
138711,-106.7544,10.1331,-0.0107,-0.0628,-89.7613,0.0,-0.0514,12.3419,0.0,-0.0135,3.2412,0.0,0.0044
138727,-106.7544,10.1331,-0.0107,-0.0628,-89.7613,0.0,-0.0514,12.3419,0.0,-0.0135,3.2412,0.0,0.0044
138743,-106.7544,10.1331,-0.0107,-0.0628,-89.7613,0.0,-0.0514,12.3419,0.0,-0.0135,3.2412,0.0,0.0044
138759,-106.7544,10.1331,-0.0107,-0.0628,-89.7613,0.0,-0.0514,12.3419,0.0,-0.0135,3.2412,0.0,0.0044
138775,-106.7544,10.1331,-0.0107,-0.0628,-89.7613,0.0,-0.0514,12.3419,0.0,-0.0135,3.2412,0.0,0.0044
138791,-106.7597,11.384,-0.0107,-0.0581,-89.7613,-0.0,-0.0527,12.6449,-0.0,-0.0082,1.9604,-0.0002,0.0113
138807,-106.7597,11.384,-0.0107,-0.0581,-89.7613,-0.0,-0.0527,12.6449,-0.0,-0.0082,1.9604,-0.0002,0.0113
138823,-106.764,12.4315,-0.0108,-0.0532,-89.7614,0.0,-0.0535,12.8425,0.0,-0.01,2.4064,0.0004,-0.0055
138839,-106.764,12.4315,-0.0108,-0.0532,-89.7614,0.0,-0.0535,12.8425,0.0,-0.01,2.4064,0.0004,-0.0055
138871,-106.764,12.4315,-0.0108,-0.0532,-89.7614,0.0,-0.0535,12.8425,0.0,-0.01,2.4064,0.0004,-0.0055
138887,-106.764,12.4315,-0.0108,-0.0532,-89.7614,0.0,-0.0535,12.8425,0.0,-0.01,2.4064,0.0004,-0.0055
138903,-106.764,12.4315,-0.0108,-0.0532,-89.7614,0.0,-0.0535,12.8425,0.0,-0.01,2.4064,0.0004,-0.0055
138921,-106.7967,13.6686,-0.0108,-0.037,-91.053,0.1175,-0.8523,12.8462,0.001,-8.3127,0.0394,0.0101,-29.3342
138935,-106.7967,13.6686,-0.0108,-0.037,-91.053,0.1175,-0.8523,12.8462,0.001,-8.3127,0.0394,0.0101,-29.3342
138951,-106.7967,13.6686,-0.0108,-0.037,-91.053,0.1175,-0.8523,12.8462,0.001,-8.3127,0.0394,0.0101,-29.3342
138967,-106.7967,13.6686,-0.0108,-0.037,-91.053,0.1175,-0.8523,12.8462,0.001,-8.3127,0.0394,0.0101,-29.3342
138983,-106.7967,13.6686,-0.0108,-0.037,-91.053,0.1175,-0.8523,12.8462,0.001,-8.3127,0.0394,0.0101,-29.3342
138999,-106.7967,13.6686,-0.0108,-0.037,-91.053,0.1175,-0.8523,12.8462,0.001,-8.3127,0.0394,0.0101,-29.3342
139015,-106.8952,14.9195,-0.011,-0.0012,-96.523,0.257,-1.8054,12.5835,0.0011,-9.6677,-2.6653,0.0018,-78.9566
139031,-106.8952,14.9195,-0.011,-0.0012,-96.523,0.257,-1.8054,12.5835,0.0011,-9.6677,-2.6653,0.0018,-78.9566
139047,-106.8952,14.9195,-0.011,-0.0012,-96.523,0.257,-1.8054,12.5835,0.0011,-9.6677,-2.6653,0.0018,-78.9566
139063,-106.8952,14.9195,-0.011,-0.0012,-96.523,0.257,-1.8054,12.5835,0.0011,-9.6677,-2.6653,0.0018,-78.9566
139079,-106.8952,14.9195,-0.011,-0.0012,-96.523,0.257,-1.8054,12.5835,0.0011,-9.6677,-2.6653,0.0018,-78.9566
139095,-106.8952,14.9195,-0.011,-0.0012,-96.523,0.257,-1.8054,12.5835,0.0011,-9.6677,-2.6653,0.0018,-78.9566
139113,-107.0197,16.0815,-0.0111,0.026,-106.8221,0.2577,-2.2461,12.3173,0.0,-4.6534,-2.8114,-0.0118,-133.998
139127,-107.0197,16.0815,-0.0111,0.026,-106.8221,0.2577,-2.2461,12.3173,0.0,-4.6534,-2.8114,-0.0118,-133.998
139143,-107.0197,16.0815,-0.0111,0.026,-106.8221,0.2577,-2.2461,12.3173,0.0,-4.6534,-2.8114,-0.0118,-133.998
139159,-107.0197,16.0815,-0.0111,0.026,-106.8221,0.2577,-2.2461,12.3173,0.0,-4.6534,-2.8114,-0.0118,-133.998
139175,-107.0197,16.0815,-0.0111,0.026,-106.8221,0.2577,-2.2461,12.3173,0.0,-4.6534,-2.8114,-0.0118,-133.998
139191,-107.0197,16.0815,-0.0111,0.026,-106.8221,0.2577,-2.2461,12.3173,0.0,-4.6534,-2.8114,-0.0118,-133.998
139207,-107.1173,17.176,-0.0111,0.0146,-122.0806,0.1269,-1.9147,12.2012,-0.0011,3.5542,-1.2457,-0.0122,-186.1694
139223,-107.1173,17.176,-0.0111,0.0146,-122.0806,0.1269,-1.9147,12.2012,-0.0011,3.5542,-1.2457,-0.0122,-186.1694
139239,-107.1173,17.176,-0.0111,0.0146,-122.0806,0.1269,-1.9147,12.2012,-0.0011,3.5542,-1.2457,-0.0122,-186.1694
139255,-107.1173,17.176,-0.0111,0.0146,-122.0806,0.1269,-1.9147,12.2012,-0.0011,3.5542,-1.2457,-0.0122,-186.1694
139271,-107.1173,17.176,-0.0111,0.0146,-122.0806,0.1269,-1.9147,12.2012,-0.0011,3.5542,-1.2457,-0.0122,-186.1694
139287,-107.1173,17.176,-0.0111,0.0146,-122.0806,0.1269,-1.9147,12.2012,-0.0011,3.5542,-1.2457,-0.0122,-186.1694
139303,-107.1126,18.2481,-0.0105,-0.0753,-141.3884,-0.134,-0.2233,12.1494,0.0005,17.6879,-0.5415,0.0167,-211.2461
139319,-107.1126,18.2481,-0.0105,-0.0753,-141.3884,-0.134,-0.2233,12.1494,0.0005,17.6879,-0.5415,0.0167,-211.2461
139335,-107.1126,18.2481,-0.0105,-0.0753,-141.3884,-0.134,-0.2233,12.1494,0.0005,17.6879,-0.5415,0.0167,-211.2461
139351,-107.1126,18.2481,-0.0105,-0.0753,-141.3884,-0.134,-0.2233,12.1494,0.0005,17.6879,-0.5415,0.0167,-211.2461
139367,-107.1126,18.2481,-0.0105,-0.0753,-141.3884,-0.134,-0.2233,12.1494,0.0005,17.6879,-0.5415,0.0167,-211.2461
139383,-106.9563,19.2028,-0.0096,-0.1868,-161.2397,-0.3752,1.9092,11.5314,0.0021,23.3607,-6.77,0.0178,-221.6958
139399,-106.9563,19.2028,-0.0096,-0.1868,-161.2397,-0.3752,1.9092,11.5314,0.0021,23.3607,-6.77,0.0178,-221.6958
139415,-106.9563,19.2028,-0.0096,-0.1868,-161.2397,-0.3752,1.9092,11.5314,0.0021,23.3607,-6.77,0.0178,-221.6958
139431,-106.9563,19.2028,-0.0096,-0.1868,-161.2397,-0.3752,1.9092,11.5314,0.0021,23.3607,-6.77,0.0178,-221.6958
139447,-106.9563,19.2028,-0.0096,-0.1868,-161.2397,-0.3752,1.9092,11.5314,0.0021,23.3607,-6.77,0.0178,-221.6958
139479,-106.6557,20.0439,-0.0087,-0.274,178.0304,-0.5539,3.9222,10.1843,0.0017,22.0003,-14.7221,-0.0044,-231.0035
139495,-106.6557,20.0439,-0.0087,-0.274,178.0304,-0.5539,3.9222,10.1843,0.0017,22.0003,-14.7221,-0.0044,-231.0035
139511,-106.6557,20.0439,-0.0087,-0.274,178.0304,-0.5539,3.9222,10.1843,0.0017,22.0003,-14.7221,-0.0044,-231.0035
139527,-106.6557,20.0439,-0.0087,-0.274,178.0304,-0.5539,3.9222,10.1843,0.0017,22.0003,-14.7221,-0.0044,-231.0035
139543,-106.6557,20.0439,-0.0087,-0.274,178.0304,-0.5539,3.9222,10.1843,0.0017,22.0003,-14.7221,-0.0044,-231.0035
139559,-106.6557,20.0439,-0.0087,-0.274,178.0304,-0.5539,3.9222,10.1843,0.0017,22.0003,-14.7221,-0.0044,-231.0035
139575,-106.2871,20.7017,-0.0083,-0.3059,157.1784,-0.7318,4.7121,7.9744,0.0018,8.8111,-24.6521,0.0013,-232.5478
139591,-106.2871,20.7017,-0.0083,-0.3059,157.1784,-0.7318,4.7121,7.9744,0.0018,8.8111,-24.6521,0.0013,-232.5478
139607,-106.2871,20.7017,-0.0083,-0.3059,157.1784,-0.7318,4.7121,7.9744,0.0018,8.8111,-24.6521,0.0013,-232.5478
139623,-106.2871,20.7017,-0.0083,-0.3059,157.1784,-0.7318,4.7121,7.9744,0.0018,8.8111,-24.6521,0.0013,-232.5478
139639,-106.2871,20.7017,-0.0083,-0.3059,157.1784,-0.7318,4.7121,7.9744,0.0018,8.8111,-24.6521,0.0013,-232.5478
139656,-106.2871,20.7017,-0.0083,-0.3059,157.1784,-0.7318,4.7121,7.9744,0.0018,8.8111,-24.6521,0.0013,-232.5478
139671,-105.9927,21.2543,-0.009,-0.2091,136.8284,-0.8734,2.9845,6.6453,0.0039,-18.0768,-13.9077,0.0213,-193.8022
139687,-105.9927,21.2543,-0.009,-0.2091,136.8284,-0.8734,2.9845,6.6453,0.0039,-18.0768,-13.9077,0.0213,-193.8022
139703,-105.9927,21.2543,-0.009,-0.2091,136.8284,-0.8734,2.9845,6.6453,0.0039,-18.0768,-13.9077,0.0213,-193.8022
139719,-105.9927,21.2543,-0.009,-0.2091,136.8284,-0.8734,2.9845,6.6453,0.0039,-18.0768,-13.9077,0.0213,-193.8022
139735,-105.9927,21.2543,-0.009,-0.2091,136.8284,-0.8734,2.9845,6.6453,0.0039,-18.0768,-13.9077,0.0213,-193.8022
139751,-105.9927,21.2543,-0.009,-0.2091,136.8284,-0.8734,2.9845,6.6453,0.0039,-18.0768,-13.9077,0.0213,-193.8022
139767,-105.9232,21.802,-0.0101,-0.0346,121.2159,-0.8961,0.7538,6.9667,0.0004,-24.1401,3.4791,-0.0379,-143.6862
139783,-105.9232,21.802,-0.0101,-0.0346,121.2159,-0.8961,0.7538,6.9667,0.0004,-24.1401,3.4791,-0.0379,-143.6862
139799,-105.9232,21.802,-0.0101,-0.0346,121.2159,-0.8961,0.7538,6.9667,0.0004,-24.1401,3.4791,-0.0379,-143.6862
139815,-105.9232,21.802,-0.0101,-0.0346,121.2159,-0.8961,0.7538,6.9667,0.0004,-24.1401,3.4791,-0.0379,-143.6862
139831,-105.9232,21.802,-0.0101,-0.0346,121.2159,-0.8961,0.7538,6.9667,0.0004,-24.1401,3.4791,-0.0379,-143.6862
139848,-105.9958,22.4319,-0.0112,0.1065,111.2243,-0.7489,-0.4633,7.9768,-0.0013,-13.8587,11.5014,-0.0188,-96.4029
139863,-105.9958,22.4319,-0.0112,0.1065,111.2243,-0.7489,-0.4633,7.9768,-0.0013,-13.8587,11.5014,-0.0188,-96.4029
139879,-105.9958,22.4319,-0.0112,0.1065,111.2243,-0.7489,-0.4633,7.9768,-0.0013,-13.8587,11.5014,-0.0188,-96.4029
139895,-105.9958,22.4319,-0.0112,0.1065,111.2243,-0.7489,-0.4633,7.9768,-0.0013,-13.8587,11.5014,-0.0188,-96.4029
139911,-105.9958,22.4319,-0.0112,0.1065,111.2243,-0.7489,-0.4633,7.9768,-0.0013,-13.8587,11.5014,-0.0188,-96.4029
139927,-105.9958,22.4319,-0.0112,0.1065,111.2243,-0.7489,-0.4633,7.9768,-0.0013,-13.8587,11.5014,-0.0188,-96.4029
139945,-106.0745,23.2022,-0.0118,0.1544,102.5496,-0.3568,0.1156,8.7442,-0.0031,6.206,8.2276,-0.0198,-92.5761
139959,-106.0745,23.2022,-0.0118,0.1544,102.5496,-0.3568,0.1156,8.7442,-0.0031,6.206,8.2276,-0.0198,-92.5761
139991,-106.0745,23.2022,-0.0118,0.1544,102.5496,-0.3568,0.1156,8.7442,-0.0031,6.206,8.2276,-0.0198,-92.5761
140007,-106.0745,23.2022,-0.0118,0.1544,102.5496,-0.3568,0.1156,8.7442,-0.0031,6.206,8.2276,-0.0198,-92.5761
140023,-106.1106,24.022,-0.0121,0.1535,95.8483,-0.1797,-0.1178,9.2695,-0.0021,-2.5583,5.7568,0.0116,-50.551
140039,-106.1106,24.022,-0.0121,0.1535,95.8483,-0.1797,-0.1178,9.2695,-0.0021,-2.5583,5.7568,0.0116,-50.551
140055,-106.1106,24.022,-0.0121,0.1535,95.8483,-0.1797,-0.1178,9.2695,-0.0021,-2.5583,5.7568,0.0116,-50.551
140071,-106.1106,24.022,-0.0121,0.1535,95.8483,-0.1797,-0.1178,9.2695,-0.0021,-2.5583,5.7568,0.0116,-50.551
140087,-106.1106,24.022,-0.0121,0.1535,95.8483,-0.1797,-0.1178,9.2695,-0.0021,-2.5583,5.7568,0.0116,-50.551
140103,-106.1106,24.022,-0.0121,0.1535,95.8483,-0.1797,-0.1178,9.2695,-0.0021,-2.5583,5.7568,0.0116,-50.551
140121,-106.1647,24.8746,-0.0119,0.1196,93.4553,-0.1887,-0.5164,9.4788,-0.0002,-4.382,2.3018,0.021,-14.2974
140135,-106.1647,24.8746,-0.0119,0.1196,93.4553,-0.1887,-0.5164,9.4788,-0.0002,-4.382,2.3018,0.021,-14.2974
140151,-106.1647,24.8746,-0.0119,0.1196,93.4553,-0.1887,-0.5164,9.4788,-0.0002,-4.382,2.3018,0.021,-14.2974
140167,-106.1647,24.8746,-0.0119,0.1196,93.4553,-0.1887,-0.5164,9.4788,-0.0002,-4.382,2.3018,0.021,-14.2974
140183,-106.1647,24.8746,-0.0119,0.1196,93.4553,-0.1887,-0.5164,9.4788,-0.0002,-4.382,2.3018,0.021,-14.2974
140199,-106.1647,24.8746,-0.0119,0.1196,93.4553,-0.1887,-0.5164,9.4788,-0.0002,-4.382,2.3018,0.021,-14.2974
140215,-106.219,25.7864,-0.0117,0.0805,92.8134,-0.1212,-0.5142,9.582,-0.0004,0.022,1.0788,-0.0023,-4.2527
140231,-106.219,25.7864,-0.0117,0.0805,92.8134,-0.1212,-0.5142,9.582,-0.0004,0.022,1.0788,-0.0023,-4.2527
140247,-106.219,25.7864,-0.0117,0.0805,92.8134,-0.1212,-0.5142,9.582,-0.0004,0.022,1.0788,-0.0023,-4.2527
140263,-106.219,25.7864,-0.0117,0.0805,92.8134,-0.1212,-0.5142,9.582,-0.0004,0.022,1.0788,-0.0023,-4.2527
140279,-106.219,25.7864,-0.0117,0.0805,92.8134,-0.1212,-0.5142,9.582,-0.0004,0.022,1.0788,-0.0023,-4.2527
140295,-106.219,25.7864,-0.0117,0.0805,92.8134,-0.1212,-0.5142,9.582,-0.0004,0.022,1.0788,-0.0023,-4.2527
140312,-106.269,26.7438,-0.0115,0.0508,92.6325,-0.0625,-0.4771,9.6501,-0.0004,0.3735,0.6844,0.0001,-1.8216
140327,-106.269,26.7438,-0.0115,0.0508,92.6325,-0.0625,-0.4771,9.6501,-0.0004,0.3735,0.6844,0.0001,-1.8216
140343,-106.269,26.7438,-0.0115,0.0508,92.6325,-0.0625,-0.4771,9.6501,-0.0004,0.3735,0.6844,0.0001,-1.8216
140359,-106.269,26.7438,-0.0115,0.0508,92.6325,-0.0625,-0.4771,9.6501,-0.0004,0.3735,0.6844,0.0001,-1.8216
140375,-106.269,26.7438,-0.0115,0.0508,92.6325,-0.0625,-0.4771,9.6501,-0.0004,0.3735,0.6844,0.0001,-1.8216
140391,-106.269,26.7438,-0.0115,0.0508,92.6325,-0.0625,-0.4771,9.6501,-0.0004,0.3735,0.6844,0.0001,-1.8216
140407,-106.269,26.7438,-0.0115,0.0508,92.6325,-0.0625,-0.4771,9.6501,-0.0004,0.3735,0.6844,0.0001,-1.8216
140423,-106.3155,27.712,-0.0114,0.0328,92.5815,-0.0302,-0.4549,9.7108,-0.0002,0.2212,0.6051,0.0019,-1.1348
140439,-106.3155,27.712,-0.0114,0.0328,92.5815,-0.0302,-0.4549,9.7108,-0.0002,0.2212,0.6051,0.0019,-1.1348
140455,-106.3155,27.712,-0.0114,0.0328,92.5815,-0.0302,-0.4549,9.7108,-0.0002,0.2212,0.6051,0.0019,-1.1348
140471,-106.3155,27.712,-0.0114,0.0328,92.5815,-0.0302,-0.4549,9.7108,-0.0002,0.2212,0.6051,0.0019,-1.1348
140487,-106.3155,27.712,-0.0114,0.0328,92.5815,-0.0302,-0.4549,9.7108,-0.0002,0.2212,0.6051,0.0019,-1.1348
140503,-106.3155,27.712,-0.0114,0.0328,92.5815,-0.0302,-0.4549,9.7108,-0.0002,0.2212,0.6051,0.0019,-1.1348
140519,-106.3582,28.6398,-0.011,0.0339,92.576,-0.0353,-0.4469,9.7617,-0.0073,0.0842,0.5348,-0.075,0.4004
140535,-106.3582,28.6398,-0.011,0.0339,92.576,-0.0353,-0.4469,9.7617,-0.0073,0.0842,0.5348,-0.075,0.4004
140551,-106.3582,28.6398,-0.011,0.0339,92.576,-0.0353,-0.4469,9.7617,-0.0073,0.0842,0.5348,-0.075,0.4004
140567,-106.3582,28.6398,-0.011,0.0339,92.576,-0.0353,-0.4469,9.7617,-0.0073,0.0842,0.5348,-0.075,0.4004
140583,-106.3582,28.6398,-0.011,0.0339,92.576,-0.0353,-0.4469,9.7617,-0.0073,0.0842,0.5348,-0.075,0.4004
140599,-106.3582,28.6398,-0.011,0.0339,92.576,-0.0353,-0.4469,9.7617,-0.0073,0.0842,0.5348,-0.075,0.4004
140615,-106.3582,28.6398,-0.011,0.0339,92.576,-0.0353,-0.4469,9.7617,-0.0073,0.0842,0.5348,-0.075,0.4004
140631,-106.3582,28.6398,-0.011,0.0339,92.576,-0.0353,-0.4469,9.7617,-0.0073,0.0842,0.5348,-0.075,0.4004
140647,-106.3582,28.6398,-0.011,0.0339,92.576,-0.0353,-0.4469,9.7617,-0.0073,0.0842,0.5348,-0.075,0.4004
140663,-106.3582,28.6398,-0.011,0.0339,92.576,-0.0353,-0.4469,9.7617,-0.0073,0.0842,0.5348,-0.075,0.4004
140679,-106.3582,28.6398,-0.011,0.0339,92.576,-0.0353,-0.4469,9.7617,-0.0073,0.0842,0.5348,-0.075,0.4004
140695,-106.4028,29.6215,-0.0113,0.018,92.5714,-0.0066,-0.4449,9.8203,-0.0016,0.0175,0.5181,0.051,0.0215
140711,-106.4028,29.6215,-0.0113,0.018,92.5714,-0.0066,-0.4449,9.8203,-0.0016,0.0175,0.5181,0.051,0.0215
140727,-106.4028,29.6215,-0.0113,0.018,92.5714,-0.0066,-0.4449,9.8203,-0.0016,0.0175,0.5181,0.051,0.0215
140743,-106.4028,29.6215,-0.0113,0.018,92.5714,-0.0066,-0.4449,9.8203,-0.0016,0.0175,0.5181,0.051,0.0215
140759,-106.4028,29.6215,-0.0113,0.018,92.5714,-0.0066,-0.4449,9.8203,-0.0016,0.0175,0.5181,0.051,0.0215
140775,-106.4028,29.6215,-0.0113,0.018,92.5714,-0.0066,-0.4449,9.8203,-0.0016,0.0175,0.5181,0.051,0.0215
140791,-106.4028,29.6215,-0.0113,0.018,92.5714,-0.0066,-0.4449,9.8203,-0.0016,0.0175,0.5181,0.051,0.0215
140807,-106.4473,30.6078,-0.0113,0.0129,92.5723,-0.0027,-0.4445,9.8666,-0.0001,0.0024,0.3347,0.0103,0.0032
140823,-106.4473,30.6078,-0.0113,0.0129,92.5723,-0.0027,-0.4445,9.8666,-0.0001,0.0024,0.3347,0.0103,0.0032
140844,-106.4473,30.6078,-0.0113,0.0129,92.5723,-0.0027,-0.4445,9.8666,-0.0001,0.0024,0.3347,0.0103,0.0032
140855,-106.4473,30.6078,-0.0113,0.0129,92.5723,-0.0027,-0.4445,9.8666,-0.0001,0.0024,0.3347,0.0103,0.0032
140871,-106.4473,30.6078,-0.0113,0.0129,92.5723,-0.0027,-0.4445,9.8666,-0.0001,0.0024,0.3347,0.0103,0.0032
140887,-106.4473,30.6078,-0.0113,0.0129,92.5723,-0.0027,-0.4445,9.8666,-0.0001,0.0024,0.3347,0.0103,0.0032
140903,-106.4473,30.6078,-0.0113,0.0129,92.5723,-0.0027,-0.4445,9.8666,-0.0001,0.0024,0.3347,0.0103,0.0032
140919,-106.4473,30.6078,-0.0113,0.0129,92.5723,-0.0027,-0.4445,9.8666,-0.0001,0.0024,0.3347,0.0103,0.0032
140935,-106.4922,31.5986,-0.0113,0.0132,92.5533,0.0038,-0.4488,9.9174,-0.0031,-0.0345,0.4157,-0.0244,-0.1382
140951,-106.4922,31.5986,-0.0113,0.0132,92.5533,0.0038,-0.4488,9.9174,-0.0031,-0.0345,0.4157,-0.0244,-0.1382
140967,-106.4922,31.5986,-0.0113,0.0132,92.5533,0.0038,-0.4488,9.9174,-0.0031,-0.0345,0.4157,-0.0244,-0.1382
140983,-106.4922,31.5986,-0.0113,0.0132,92.5533,0.0038,-0.4488,9.9174,-0.0031,-0.0345,0.4157,-0.0244,-0.1382
140999,-106.4922,31.5986,-0.0113,0.0132,92.5533,0.0038,-0.4488,9.9174,-0.0031,-0.0345,0.4157,-0.0244,-0.1382
141015,-106.4922,31.5986,-0.0113,0.0132,92.5533,0.0038,-0.4488,9.9174,-0.0031,-0.0345,0.4157,-0.0244,-0.1382
141031,-106.4922,31.5986,-0.0113,0.0132,92.5533,0.0038,-0.4488,9.9174,-0.0031,-0.0345,0.4157,-0.0244,-0.1382
141047,-106.4922,31.5986,-0.0113,0.0132,92.5533,0.0038,-0.4488,9.9174,-0.0031,-0.0345,0.4157,-0.0244,-0.1382
141063,-106.4922,31.5986,-0.0113,0.0132,92.5533,0.0038,-0.4488,9.9174,-0.0031,-0.0345,0.4157,-0.0244,-0.1382
141079,-106.4922,31.5986,-0.0113,0.0132,92.5533,0.0038,-0.4488,9.9174,-0.0031,-0.0345,0.4157,-0.0244,-0.1382
141095,-106.4922,31.5986,-0.0113,0.0132,92.5533,0.0038,-0.4488,9.9174,-0.0031,-0.0345,0.4157,-0.0244,-0.1382
141111,-106.4922,31.5986,-0.0113,0.0132,92.5533,0.0038,-0.4488,9.9174,-0.0031,-0.0345,0.4157,-0.0244,-0.1382
141127,-106.4922,31.5986,-0.0113,0.0132,92.5533,0.0038,-0.4488,9.9174,-0.0031,-0.0345,0.4157,-0.0244,-0.1382
141143,-106.4922,31.5986,-0.0113,0.0132,92.5533,0.0038,-0.4488,9.9174,-0.0031,-0.0345,0.4157,-0.0244,-0.1382
141159,-106.4922,31.5986,-0.0113,0.0132,92.5533,0.0038,-0.4488,9.9174,-0.0031,-0.0345,0.4157,-0.0244,-0.1382
