timestamp,x,y,z,pitch,yaw,roll,vx,vy,vz,ax,ay,az,yaw_rate
59393,-106.6867,-4.8475,-0.0768,0.0,-89.3578,0.0,0.0,-0.0,-0.1317,0.0,-0.0,10.7773,0.0
59409,-106.6867,-4.8475,-0.0768,0.0,-89.3578,0.0,0.0,-0.0,-0.1317,0.0,-0.0,10.7773,0.0
59425,-106.6867,-4.8475,-0.0768,0.0,-89.3578,0.0,0.0,-0.0,-0.1317,0.0,-0.0,10.7773,0.0
59441,-106.6867,-4.8475,-0.0768,0.0,-89.3578,0.0,0.0,-0.0,-0.1317,0.0,-0.0,10.7773,0.0
59457,-106.6867,-4.8475,-0.0768,0.0,-89.3578,0.0,0.0,-0.0,-0.1317,0.0,-0.0,10.7773,0.0
59473,-106.6867,-4.8475,-0.0768,0.0,-89.3578,0.0,0.0,-0.0,-0.1317,0.0,-0.0,10.7773,0.0
59489,-106.6867,-4.8475,-0.0768,0.0,-89.3578,0.0,0.0,-0.0,-0.1317,0.0,-0.0,10.7773,0.0
59505,-106.6867,-4.8475,-0.0768,0.0,-89.3578,0.0,0.0,-0.0,-0.1317,0.0,-0.0,10.7773,0.0
59521,-106.6867,-4.8475,-0.0768,0.0,-89.3578,0.0,0.0,-0.0,-0.1317,0.0,-0.0,10.7773,0.0
59537,-106.6867,-4.8475,-0.0768,0.0,-89.3578,0.0,0.0,-0.0,-0.1317,0.0,-0.0,10.7773,0.0
59553,-106.6867,-4.8475,-0.0768,0.0,-89.3578,0.0,0.0,-0.0,-0.1317,0.0,-0.0,10.7773,0.0
59569,-106.6867,-4.8475,-0.0768,0.0,-89.3578,0.0,0.0,-0.0,-0.1317,0.0,-0.0,10.7773,0.0
59585,-106.6867,-4.8475,-0.0768,0.0,-89.3578,0.0,0.0,-0.0,-0.1317,0.0,-0.0,10.7773,0.0
59601,-106.6867,-4.8475,-0.0768,0.0,-89.3578,0.0,0.0,-0.0,-0.1317,0.0,-0.0,10.7773,0.0
59617,-106.6867,-4.8475,-0.0768,0.0,-89.3578,0.0,0.0,-0.0,-0.1317,0.0,-0.0,10.7773,0.0
59633,-106.6867,-4.8475,-0.0768,0.0,-89.3578,0.0,0.0,-0.0,-0.1317,0.0,-0.0,10.7773,0.0
59649,-106.6867,-4.8475,-0.0768,0.0,-89.3578,0.0,0.0,-0.0,-0.1317,0.0,-0.0,10.7773,0.0
59665,-106.6867,-4.8475,-0.0768,0.0,-89.3578,0.0,0.0,-0.0,-0.1317,0.0,-0.0,10.7773,0.0
59681,-106.6867,-4.8475,-0.0768,0.0,-89.3578,0.0,0.0,-0.0,-0.1317,0.0,-0.0,10.7773,0.0
59697,-106.6867,-4.8475,-0.0768,0.0,-89.3578,0.0,0.0,-0.0,-0.1317,0.0,-0.0,10.7773,0.0
59713,-106.6868,-4.8451,-0.0649,-0.002,-89.3578,0.0,-0.0005,0.0466,0.2184,-0.0016,0.1446,1.0869,0.0001
59729,-106.6868,-4.8451,-0.0649,-0.002,-89.3578,0.0,-0.0005,0.0466,0.2184,-0.0016,0.1446,1.0869,0.0001
59745,-106.6868,-4.8451,-0.0649,-0.002,-89.3578,0.0,-0.0005,0.0466,0.2184,-0.0016,0.1446,1.0869,0.0001
59761,-106.6868,-4.8451,-0.0649,-0.002,-89.3578,0.0,-0.0005,0.0466,0.2184,-0.0016,0.1446,1.0869,0.0001
59777,-106.6868,-4.8451,-0.0649,-0.002,-89.3578,0.0,-0.0005,0.0466,0.2184,-0.0016,0.1446,1.0869,0.0001
59793,-106.6868,-4.8451,-0.0649,-0.002,-89.3578,0.0,-0.0005,0.0466,0.2184,-0.0016,0.1446,1.0869,0.0001
59809,-106.6868,-4.8451,-0.0649,-0.002,-89.3578,0.0,-0.0005,0.0466,0.2184,-0.0016,0.1446,1.0869,0.0001
59825,-106.6868,-4.8451,-0.0649,-0.002,-89.3578,0.0,-0.0005,0.0466,0.2184,-0.0016,0.1446,1.0869,0.0001
59841,-106.6868,-4.8398,-0.0433,-0.0051,-89.3577,0.0,-0.0012,0.1058,0.1931,-0.0058,0.5135,-0.2199,0.0001
59857,-106.6868,-4.8398,-0.0433,-0.0051,-89.3577,0.0,-0.0012,0.1058,0.1931,-0.0058,0.5135,-0.2199,0.0001
59873,-106.6868,-4.8398,-0.0433,-0.0051,-89.3577,0.0,-0.0012,0.1058,0.1931,-0.0058,0.5135,-0.2199,0.0001
59889,-106.6868,-4.8398,-0.0433,-0.0051,-89.3577,0.0,-0.0012,0.1058,0.1931,-0.0058,0.5135,-0.2199,0.0001
59905,-106.6868,-4.8398,-0.0433,-0.0051,-89.3577,0.0,-0.0012,0.1058,0.1931,-0.0058,0.5135,-0.2199,0.0001
59921,-106.6868,-4.8398,-0.0433,-0.0051,-89.3577,0.0,-0.0012,0.1058,0.1931,-0.0058,0.5135,-0.2199,0.0001
59940,-106.6872,-4.8019,-0.028,-0.0299,-89.3589,-0.0,-0.0069,0.6187,0.1181,-0.0506,4.5591,-0.666,-0.0078
59953,-106.6872,-4.8019,-0.028,-0.0299,-89.3589,-0.0,-0.0069,0.6187,0.1181,-0.0506,4.5591,-0.666,-0.0078
59969,-106.6872,-4.8019,-0.028,-0.0299,-89.3589,-0.0,-0.0069,0.6187,0.1181,-0.0506,4.5591,-0.666,-0.0078
59985,-106.6872,-4.8019,-0.028,-0.0299,-89.3589,-0.0,-0.0069,0.6187,0.1181,-0.0506,4.5591,-0.666,-0.0078
60001,-106.6872,-4.8019,-0.028,-0.0299,-89.3589,-0.0,-0.0069,0.6187,0.1181,-0.0506,4.5591,-0.666,-0.0078
60017,-106.6872,-4.8019,-0.028,-0.0299,-89.3589,-0.0,-0.0069,0.6187,0.1181,-0.0506,4.5591,-0.666,-0.0078
60036,-106.6872,-4.8019,-0.028,-0.0299,-89.3589,-0.0,-0.0069,0.6187,0.1181,-0.0506,4.5591,-0.666,-0.0078
60049,-106.6881,-4.7219,-0.0196,-0.0478,-89.358,0.0,-0.0109,0.9877,0.065,-0.0418,3.87,-0.5568,-0.0106
60065,-106.6881,-4.7219,-0.0196,-0.0478,-89.358,0.0,-0.0109,0.9877,0.065,-0.0418,3.87,-0.5568,-0.0106
60081,-106.6881,-4.7219,-0.0196,-0.0478,-89.358,0.0,-0.0109,0.9877,0.065,-0.0418,3.87,-0.5568,-0.0106
60097,-106.6881,-4.7219,-0.0196,-0.0478,-89.358,0.0,-0.0109,0.9877,0.065,-0.0418,3.87,-0.5568,-0.0106
60113,-106.6881,-4.7219,-0.0196,-0.0478,-89.358,0.0,-0.0109,0.9877,0.065,-0.0418,3.87,-0.5568,-0.0106
60129,-106.6881,-4.7219,-0.0196,-0.0478,-89.358,0.0,-0.0109,0.9877,0.065,-0.0418,3.87,-0.5568,-0.0106
60145,-106.6881,-4.7219,-0.0196,-0.0478,-89.358,0.0,-0.0109,0.9877,0.065,-0.0418,3.87,-0.5568,-0.0106
60161,-106.6887,-4.6113,-0.0146,-0.0499,-89.4222,-0.0009,-0.0083,1.2767,0.036,0.0247,2.8016,-0.2821,-3.6367
60177,-106.6887,-4.6113,-0.0146,-0.0499,-89.4222,-0.0009,-0.0083,1.2767,0.036,0.0247,2.8016,-0.2821,-3.6367
60193,-106.6887,-4.6113,-0.0146,-0.0499,-89.4222,-0.0009,-0.0083,1.2767,0.036,0.0247,2.8016,-0.2821,-3.6367
60209,-106.6887,-4.6113,-0.0146,-0.0499,-89.4222,-0.0009,-0.0083,1.2767,0.036,0.0247,2.8016,-0.2821,-3.6367
60225,-106.6887,-4.6113,-0.0146,-0.0499,-89.4222,-0.0009,-0.0083,1.2767,0.036,0.0247,2.8016,-0.2821,-3.6367
60241,-106.6887,-4.6113,-0.0146,-0.0499,-89.4222,-0.0009,-0.0083,1.2767,0.036,0.0247,2.8016,-0.2821,-3.6367
60257,-106.6882,-4.4882,-0.0125,-0.0335,-89.4798,-0.0027,0.004,1.2398,0.0139,0.113,-0.3375,-0.2019,-3.197
60273,-106.6882,-4.4882,-0.0125,-0.0335,-89.4798,-0.0027,0.004,1.2398,0.0139,0.113,-0.3375,-0.2019,-3.197
60289,-106.6882,-4.4882,-0.0125,-0.0335,-89.4798,-0.0027,0.004,1.2398,0.0139,0.113,-0.3375,-0.2019,-3.197
60305,-106.6882,-4.4882,-0.0125,-0.0335,-89.4798,-0.0027,0.004,1.2398,0.0139,0.113,-0.3375,-0.2019,-3.197
60321,-106.6882,-4.4882,-0.0125,-0.0335,-89.4798,-0.0027,0.004,1.2398,0.0139,0.113,-0.3375,-0.2019,-3.197
60337,-106.6882,-4.4882,-0.0125,-0.0335,-89.4798,-0.0027,0.004,1.2398,0.0139,0.113,-0.3375,-0.2019,-3.197
60359,-106.6884,-4.3418,-0.0116,-0.0374,-89.5314,-0.0008,-0.0056,1.4966,0.0059,-0.0954,2.5374,-0.0798,-0.8779
60369,-106.6884,-4.3418,-0.0116,-0.0374,-89.5314,-0.0008,-0.0056,1.4966,0.0059,-0.0954,2.5374,-0.0798,-0.8779
60385,-106.6884,-4.3418,-0.0116,-0.0374,-89.5314,-0.0008,-0.0056,1.4966,0.0059,-0.0954,2.5374,-0.0798,-0.8779
60401,-106.6884,-4.3418,-0.0116,-0.0374,-89.5314,-0.0008,-0.0056,1.4966,0.0059,-0.0954,2.5374,-0.0798,-0.8779
60417,-106.6884,-4.3418,-0.0116,-0.0374,-89.5314,-0.0008,-0.0056,1.4966,0.0059,-0.0954,2.5374,-0.0798,-0.8779
60433,-106.6884,-4.3418,-0.0116,-0.0374,-89.5314,-0.0008,-0.0056,1.4966,0.0059,-0.0954,2.5374,-0.0798,-0.8779
60449,-106.6884,-4.3418,-0.0116,-0.0374,-89.5314,-0.0008,-0.0056,1.4966,0.0059,-0.0954,2.5374,-0.0798,-0.8779
60468,-106.6895,-4.1736,-0.0112,-0.0373,-89.5434,0.0002,-0.0118,1.7759,0.0026,-0.0542,2.4698,-0.0287,-0.412
60481,-106.6895,-4.1736,-0.0112,-0.0373,-89.5434,0.0002,-0.0118,1.7759,0.0026,-0.0542,2.4698,-0.0287,-0.412
60497,-106.6895,-4.1736,-0.0112,-0.0373,-89.5434,0.0002,-0.0118,1.7759,0.0026,-0.0542,2.4698,-0.0287,-0.412
60513,-106.6895,-4.1736,-0.0112,-0.0373,-89.5434,0.0002,-0.0118,1.7759,0.0026,-0.0542,2.4698,-0.0287,-0.412
60529,-106.6895,-4.1736,-0.0112,-0.0373,-89.5434,0.0002,-0.0118,1.7759,0.0026,-0.0542,2.4698,-0.0287,-0.412
60545,-106.6895,-4.1736,-0.0112,-0.0373,-89.5434,0.0002,-0.0118,1.7759,0.0026,-0.0542,2.4698,-0.0287,-0.412
60561,-106.6895,-4.1736,-0.0112,-0.0373,-89.5434,0.0002,-0.0118,1.7759,0.0026,-0.0542,2.4698,-0.0287,-0.412
60577,-106.692,-3.9468,-0.0108,-0.068,-89.5005,0.0012,-0.0243,2.6398,0.0012,-0.1185,8.1889,-0.0132,-4.5232
60593,-106.692,-3.9468,-0.0108,-0.068,-89.5005,0.0012,-0.0243,2.6398,0.0012,-0.1185,8.1889,-0.0132,-4.5232
60609,-106.692,-3.9468,-0.0108,-0.068,-89.5005,0.0012,-0.0243,2.6398,0.0012,-0.1185,8.1889,-0.0132,-4.5232
60625,-106.692,-3.9468,-0.0108,-0.068,-89.5005,0.0012,-0.0243,2.6398,0.0012,-0.1185,8.1889,-0.0132,-4.5232
60641,-106.692,-3.9468,-0.0108,-0.068,-89.5005,0.0012,-0.0243,2.6398,0.0012,-0.1185,8.1889,-0.0132,-4.5232
60657,-106.692,-3.9468,-0.0108,-0.068,-89.5005,0.0012,-0.0243,2.6398,0.0012,-0.1185,8.1889,-0.0132,-4.5232
60676,-106.6969,-3.664,-0.0107,-0.077,-89.3112,0.0029,-0.0415,3.116,0.0006,-0.1732,4.7793,-0.0065,-0.0081
60689,-106.6969,-3.664,-0.0107,-0.077,-89.3112,0.0029,-0.0415,3.116,0.0006,-0.1732,4.7793,-0.0065,-0.0081
60705,-106.6969,-3.664,-0.0107,-0.077,-89.3112,0.0029,-0.0415,3.116,0.0006,-0.1732,4.7793,-0.0065,-0.0081
60721,-106.6969,-3.664,-0.0107,-0.077,-89.3112,0.0029,-0.0415,3.116,0.0006,-0.1732,4.7793,-0.0065,-0.0081
60737,-106.6969,-3.664,-0.0107,-0.077,-89.3112,0.0029,-0.0415,3.116,0.0006,-0.1732,4.7793,-0.0065,-0.0081
60753,-106.6969,-3.664,-0.0107,-0.077,-89.3112,0.0029,-0.0415,3.116,0.0006,-0.1732,4.7793,-0.0065,-0.0081
60772,-106.702,-3.3434,-0.0107,-0.0722,-89.2115,0.0025,-0.0473,3.485,0.0003,-0.0573,3.6639,-0.0029,2.2115
60785,-106.702,-3.3434,-0.0107,-0.0722,-89.2115,0.0025,-0.0473,3.485,0.0003,-0.0573,3.6639,-0.0029,2.2115
60801,-106.702,-3.3434,-0.0107,-0.0722,-89.2115,0.0025,-0.0473,3.485,0.0003,-0.0573,3.6639,-0.0029,2.2115
60817,-106.702,-3.3434,-0.0107,-0.0722,-89.2115,0.0025,-0.0473,3.485,0.0003,-0.0573,3.6639,-0.0029,2.2115
60833,-106.702,-3.3434,-0.0107,-0.0722,-89.2115,0.0025,-0.0473,3.485,0.0003,-0.0573,3.6639,-0.0029,2.2115
60849,-106.702,-3.3434,-0.0107,-0.0722,-89.2115,0.0025,-0.0473,3.485,0.0003,-0.0573,3.6639,-0.0029,2.2115
60865,-106.702,-3.3434,-0.0107,-0.0722,-89.2115,0.0025,-0.0473,3.485,0.0003,-0.0573,3.6639,-0.0029,2.2115
60881,-106.7068,-2.9797,-0.0107,-0.0705,-89.2269,0.0014,-0.0537,3.8995,0.0001,-0.0631,4.0774,-0.0016,-2.0
60897,-106.7068,-2.9797,-0.0107,-0.0705,-89.2269,0.0014,-0.0537,3.8995,0.0001,-0.0631,4.0774,-0.0016,-2.0
60913,-106.7068,-2.9797,-0.0107,-0.0705,-89.2269,0.0014,-0.0537,3.8995,0.0001,-0.0631,4.0774,-0.0016,-2.0
60929,-106.7068,-2.9797,-0.0107,-0.0705,-89.2269,0.0014,-0.0537,3.8995,0.0001,-0.0631,4.0774,-0.0016,-2.0
60945,-106.7068,-2.9797,-0.0107,-0.0705,-89.2269,0.0014,-0.0537,3.8995,0.0001,-0.0631,4.0774,-0.0016,-2.0
60961,-106.7068,-2.9797,-0.0107,-0.0705,-89.2269,0.0014,-0.0537,3.8995,0.0001,-0.0631,4.0774,-0.0016,-2.0
60977,-106.7068,-2.9797,-0.0107,-0.0705,-89.2269,0.0014,-0.0537,3.8995,0.0001,-0.0631,4.0774,-0.0016,-2.0
60993,-106.7121,-2.5664,-0.0106,-0.0765,-89.2476,0.0002,-0.0564,4.4435,0.0001,-0.0229,4.6056,-0.0006,1.7694
61009,-106.7121,-2.5664,-0.0106,-0.0765,-89.2476,0.0002,-0.0564,4.4435,0.0001,-0.0229,4.6056,-0.0006,1.7694
61025,-106.7121,-2.5664,-0.0106,-0.0765,-89.2476,0.0002,-0.0564,4.4435,0.0001,-0.0229,4.6056,-0.0006,1.7694
61041,-106.7121,-2.5664,-0.0106,-0.0765,-89.2476,0.0002,-0.0564,4.4435,0.0001,-0.0229,4.6056,-0.0006,1.7694
61057,-106.7121,-2.5664,-0.0106,-0.0765,-89.2476,0.0002,-0.0564,4.4435,0.0001,-0.0229,4.6056,-0.0006,1.7694
61073,-106.7121,-2.5664,-0.0106,-0.0765,-89.2476,0.0002,-0.0564,4.4435,0.0001,-0.0229,4.6056,-0.0006,1.7694
61092,-106.7179,-2.0885,-0.0105,-0.0915,-89.2879,-0.0002,-0.0656,5.1461,0.0,-0.0901,6.8694,-0.0002,-2.1248
61105,-106.7179,-2.0885,-0.0105,-0.0915,-89.2879,-0.0002,-0.0656,5.1461,0.0,-0.0901,6.8694,-0.0002,-2.1248
61121,-106.7179,-2.0885,-0.0105,-0.0915,-89.2879,-0.0002,-0.0656,5.1461,0.0,-0.0901,6.8694,-0.0002,-2.1248
61137,-106.7179,-2.0885,-0.0105,-0.0915,-89.2879,-0.0002,-0.0656,5.1461,0.0,-0.0901,6.8694,-0.0002,-2.1248
61153,-106.7179,-2.0885,-0.0105,-0.0915,-89.2879,-0.0002,-0.0656,5.1461,0.0,-0.0901,6.8694,-0.0002,-2.1248
61169,-106.7179,-2.0885,-0.0105,-0.0915,-89.2879,-0.0002,-0.0656,5.1461,0.0,-0.0901,6.8694,-0.0002,-2.1248
61185,-106.7179,-2.0885,-0.0105,-0.0915,-89.2879,-0.0002,-0.0656,5.1461,0.0,-0.0901,6.8694,-0.0002,-2.1248
61205,-106.725,-1.5412,-0.0104,-0.1015,-89.2608,-0.0001,-0.0732,5.8259,0.0,-0.072,6.4368,-0.0002,1.9156
61217,-106.725,-1.5412,-0.0104,-0.1015,-89.2608,-0.0001,-0.0732,5.8259,0.0,-0.072,6.4368,-0.0002,1.9156
61233,-106.725,-1.5412,-0.0104,-0.1015,-89.2608,-0.0001,-0.0732,5.8259,0.0,-0.072,6.4368,-0.0002,1.9156
61249,-106.725,-1.5412,-0.0104,-0.1015,-89.2608,-0.0001,-0.0732,5.8259,0.0,-0.072,6.4368,-0.0002,1.9156
61265,-106.725,-1.5412,-0.0104,-0.1015,-89.2608,-0.0001,-0.0732,5.8259,0.0,-0.072,6.4368,-0.0002,1.9156
61281,-106.725,-1.5412,-0.0104,-0.1015,-89.2608,-0.0001,-0.0732,5.8259,0.0,-0.072,6.4368,-0.0002,1.9156
61297,-106.725,-1.5412,-0.0104,-0.1015,-89.2608,-0.0001,-0.0732,5.8259,0.0,-0.072,6.4368,-0.0002,1.9156
61316,-106.7328,-0.9226,-0.0104,-0.1094,-89.2736,0.0001,-0.0846,6.561,0.0,-0.0995,6.4507,-0.0,-1.4961
61329,-106.7328,-0.9226,-0.0104,-0.1094,-89.2736,0.0001,-0.0846,6.561,0.0,-0.0995,6.4507,-0.0,-1.4961
61345,-106.7328,-0.9226,-0.0104,-0.1094,-89.2736,0.0001,-0.0846,6.561,0.0,-0.0995,6.4507,-0.0,-1.4961
61361,-106.7328,-0.9226,-0.0104,-0.1094,-89.2736,0.0001,-0.0846,6.561,0.0,-0.0995,6.4507,-0.0,-1.4961
61377,-106.7328,-0.9226,-0.0104,-0.1094,-89.2736,0.0001,-0.0846,6.561,0.0,-0.0995,6.4507,-0.0,-1.4961
61393,-106.7328,-0.9226,-0.0104,-0.1094,-89.2736,0.0001,-0.0846,6.561,0.0,-0.0995,6.4507,-0.0,-1.4961
61409,-106.7328,-0.9226,-0.0104,-0.1094,-89.2736,0.0001,-0.0846,6.561,0.0,-0.0995,6.4507,-0.0,-1.4961
61425,-106.7418,-0.2271,-0.0103,-0.1171,-89.2627,0.0001,-0.0934,7.3334,0.0,-0.0884,7.7036,-0.0,1.1339
61441,-106.7418,-0.2271,-0.0103,-0.1171,-89.2627,0.0001,-0.0934,7.3334,0.0,-0.0884,7.7036,-0.0,1.1339
61457,-106.7418,-0.2271,-0.0103,-0.1171,-89.2627,0.0001,-0.0934,7.3334,0.0,-0.0884,7.7036,-0.0,1.1339
61473,-106.7418,-0.2271,-0.0103,-0.1171,-89.2627,0.0001,-0.0934,7.3334,0.0,-0.0884,7.7036,-0.0,1.1339
61489,-106.7418,-0.2271,-0.0103,-0.1171,-89.2627,0.0001,-0.0934,7.3334,0.0,-0.0884,7.7036,-0.0,1.1339
61505,-106.7418,-0.2271,-0.0103,-0.1171,-89.2627,0.0001,-0.0934,7.3334,0.0,-0.0884,7.7036,-0.0,1.1339
61526,-106.7517,0.5426,-0.0103,-0.1186,-89.2684,0.0001,-0.1032,8.0377,0.0,-0.091,6.539,0.0,-0.8666
61537,-106.7517,0.5426,-0.0103,-0.1186,-89.2684,0.0001,-0.1032,8.0377,0.0,-0.091,6.539,0.0,-0.8666
61553,-106.7517,0.5426,-0.0103,-0.1186,-89.2684,0.0001,-0.1032,8.0377,0.0,-0.091,6.539,0.0,-0.8666
61569,-106.7517,0.5426,-0.0103,-0.1186,-89.2684,0.0001,-0.1032,8.0377,0.0,-0.091,6.539,0.0,-0.8666
61585,-106.7517,0.5426,-0.0103,-0.1186,-89.2684,0.0001,-0.1032,8.0377,0.0,-0.091,6.539,0.0,-0.8666
61601,-106.7517,0.5426,-0.0103,-0.1186,-89.2684,0.0001,-0.1032,8.0377,0.0,-0.091,6.539,0.0,-0.8666
61617,-106.7517,0.5426,-0.0103,-0.1186,-89.2684,0.0001,-0.1032,8.0377,0.0,-0.091,6.539,0.0,-0.8666
61636,-106.7624,1.3788,-0.0103,-0.1139,-89.2641,0.0,-0.1109,8.6664,0.0,-0.0691,5.7067,0.0,0.6182
61649,-106.7624,1.3788,-0.0103,-0.1139,-89.2641,0.0,-0.1109,8.6664,0.0,-0.0691,5.7067,0.0,0.6182
61665,-106.7624,1.3788,-0.0103,-0.1139,-89.2641,0.0,-0.1109,8.6664,0.0,-0.0691,5.7067,0.0,0.6182
61681,-106.7624,1.3788,-0.0103,-0.1139,-89.2641,0.0,-0.1109,8.6664,0.0,-0.0691,5.7067,0.0,0.6182
61697,-106.7624,1.3788,-0.0103,-0.1139,-89.2641,0.0,-0.1109,8.6664,0.0,-0.0691,5.7067,0.0,0.6182
61713,-106.7624,1.3788,-0.0103,-0.1139,-89.2641,0.0,-0.1109,8.6664,0.0,-0.0691,5.7067,0.0,0.6182
61729,-106.7624,1.3788,-0.0103,-0.1139,-89.2641,0.0,-0.1109,8.6664,0.0,-0.0691,5.7067,0.0,0.6182
61745,-106.7624,1.3788,-0.0103,-0.1139,-89.2641,0.0,-0.1109,8.6664,0.0,-0.0691,5.7067,0.0,0.6182
61761,-106.7739,2.275,-0.0104,-0.1066,-89.2664,0.0,-0.1184,9.2328,-0.0,-0.0697,5.2326,-0.0001,-0.2805
61777,-106.7739,2.275,-0.0104,-0.1066,-89.2664,0.0,-0.1184,9.2328,-0.0,-0.0697,5.2326,-0.0001,-0.2805
61793,-106.7739,2.275,-0.0104,-0.1066,-89.2664,0.0,-0.1184,9.2328,-0.0,-0.0697,5.2326,-0.0001,-0.2805
61809,-106.7739,2.275,-0.0104,-0.1066,-89.2664,0.0,-0.1184,9.2328,-0.0,-0.0697,5.2326,-0.0001,-0.2805
61825,-106.7739,2.275,-0.0104,-0.1066,-89.2664,0.0,-0.1184,9.2328,-0.0,-0.0697,5.2326,-0.0001,-0.2805
61844,-106.7739,2.275,-0.0104,-0.1066,-89.2664,0.0,-0.1184,9.2328,-0.0,-0.0697,5.2326,-0.0001,-0.2805
61857,-106.786,3.2252,-0.0104,-0.0985,-89.2656,0.0,-0.1249,9.7496,0.0,-0.0622,4.9117,0.0001,0.041
61873,-106.786,3.2252,-0.0104,-0.0985,-89.2656,0.0,-0.1249,9.7496,0.0,-0.0622,4.9117,0.0001,0.041
61889,-106.786,3.2252,-0.0104,-0.0985,-89.2656,0.0,-0.1249,9.7496,0.0,-0.0622,4.9117,0.0001,0.041
61905,-106.786,3.2252,-0.0104,-0.0985,-89.2656,0.0,-0.1249,9.7496,0.0,-0.0622,4.9117,0.0001,0.041
61921,-106.786,3.2252,-0.0104,-0.0985,-89.2656,0.0,-0.1249,9.7496,0.0,-0.0622,4.9117,0.0001,0.041
61937,-106.786,3.2252,-0.0104,-0.0985,-89.2656,0.0,-0.1249,9.7496,0.0,-0.0622,4.9117,0.0001,0.041
61953,-106.7988,4.2249,-0.0105,-0.0921,-89.2657,0.0,-0.1314,10.2495,-0.0,-0.0643,5.0059,-0.0001,-0.0002
61969,-106.7988,4.2249,-0.0105,-0.0921,-89.2657,0.0,-0.1314,10.2495,-0.0,-0.0643,5.0059,-0.0001,-0.0002
61985,-106.7988,4.2249,-0.0105,-0.0921,-89.2657,0.0,-0.1314,10.2495,-0.0,-0.0643,5.0059,-0.0001,-0.0002
62001,-106.7988,4.2249,-0.0105,-0.0921,-89.2657,0.0,-0.1314,10.2495,-0.0,-0.0643,5.0059,-0.0001,-0.0002
62017,-106.7988,4.2249,-0.0105,-0.0921,-89.2657,0.0,-0.1314,10.2495,-0.0,-0.0643,5.0059,-0.0001,-0.0002
62033,-106.7988,4.2249,-0.0105,-0.0921,-89.2657,0.0,-0.1314,10.2495,-0.0,-0.0643,5.0059,-0.0001,-0.0002
62054,-106.8123,5.275,-0.0105,-0.0868,-89.2657,0.0,-0.1374,10.7185,0.0,-0.0575,4.4858,0.0001,0.0001
62065,-106.8123,5.275,-0.0105,-0.0868,-89.2657,0.0,-0.1374,10.7185,0.0,-0.0575,4.4858,0.0001,0.0001
62081,-106.8123,5.275,-0.0105,-0.0868,-89.2657,0.0,-0.1374,10.7185,0.0,-0.0575,4.4858,0.0001,0.0001
62097,-106.8123,5.275,-0.0105,-0.0868,-89.2657,0.0,-0.1374,10.7185,0.0,-0.0575,4.4858,0.0001,0.0001
62113,-106.8123,5.275,-0.0105,-0.0868,-89.2657,0.0,-0.1374,10.7185,0.0,-0.0575,4.4858,0.0001,0.0001
62129,-106.8123,5.275,-0.0105,-0.0868,-89.2657,0.0,-0.1374,10.7185,0.0,-0.0575,4.4858,0.0001,0.0001
62145,-106.8123,5.275,-0.0105,-0.0868,-89.2657,0.0,-0.1374,10.7185,0.0,-0.0575,4.4858,0.0001,0.0001
62161,-106.8263,6.3695,-0.0106,-0.0776,-89.2658,0.0043,-0.1426,11.1432,-0.0036,-0.0511,4.1313,-0.035,-0.008
62177,-106.8263,6.3695,-0.0106,-0.0776,-89.2658,0.0043,-0.1426,11.1432,-0.0036,-0.0511,4.1313,-0.035,-0.008
62193,-106.8263,6.3695,-0.0106,-0.0776,-89.2658,0.0043,-0.1426,11.1432,-0.0036,-0.0511,4.1313,-0.035,-0.008
62209,-106.8263,6.3695,-0.0106,-0.0776,-89.2658,0.0043,-0.1426,11.1432,-0.0036,-0.0511,4.1313,-0.035,-0.008
62225,-106.8263,6.3695,-0.0106,-0.0776,-89.2658,0.0043,-0.1426,11.1432,-0.0036,-0.0511,4.1313,-0.035,-0.008
62241,-106.8263,6.3695,-0.0106,-0.0776,-89.2658,0.0043,-0.1426,11.1432,-0.0036,-0.0511,4.1313,-0.035,-0.008
62260,-106.8408,7.5048,-0.0106,-0.0746,-89.2663,0.0,-0.1477,11.5341,0.0001,-0.0481,3.6767,0.0348,-0.0024
62273,-106.8408,7.5048,-0.0106,-0.0746,-89.2663,0.0,-0.1477,11.5341,0.0001,-0.0481,3.6767,0.0348,-0.0024
62289,-106.8408,7.5048,-0.0106,-0.0746,-89.2663,0.0,-0.1477,11.5341,0.0001,-0.0481,3.6767,0.0348,-0.0024
62305,-106.8408,7.5048,-0.0106,-0.0746,-89.2663,0.0,-0.1477,11.5341,0.0001,-0.0481,3.6767,0.0348,-0.0024
62321,-106.8408,7.5048,-0.0106,-0.0746,-89.2663,0.0,-0.1477,11.5341,0.0001,-0.0481,3.6767,0.0348,-0.0024
62337,-106.8408,7.5048,-0.0106,-0.0746,-89.2663,0.0,-0.1477,11.5341,0.0001,-0.0481,3.6767,0.0348,-0.0024
62353,-106.8557,8.6626,-0.0106,-0.0698,-89.2664,-0.0001,-0.1524,11.9002,0.0,-0.0472,3.7096,-0.0011,-0.0009
62369,-106.8557,8.6626,-0.0106,-0.0698,-89.2664,-0.0001,-0.1524,11.9002,0.0,-0.0472,3.7096,-0.0011,-0.0009
62385,-106.8557,8.6626,-0.0106,-0.0698,-89.2664,-0.0001,-0.1524,11.9002,0.0,-0.0472,3.7096,-0.0011,-0.0009
62417,-106.8557,8.6626,-0.0106,-0.0698,-89.2664,-0.0001,-0.1524,11.9002,0.0,-0.0472,3.7096,-0.0011,-0.0009
62433,-106.8557,8.6626,-0.0106,-0.0698,-89.2664,-0.0001,-0.1524,11.9002,0.0,-0.0472,3.7096,-0.0011,-0.0009
62449,-106.8557,8.6626,-0.0106,-0.0698,-89.2664,-0.0001,-0.1524,11.9002,0.0,-0.0472,3.7096,-0.0011,-0.0009
62468,-106.9012,9.8628,-0.0107,-0.055,-90.6908,0.1261,-1.002,12.0194,0.001,-8.2063,1.1513,0.0096,-31.2708
62481,-106.9012,9.8628,-0.0107,-0.055,-90.6908,0.1261,-1.002,12.0194,0.001,-8.2063,1.1513,0.0096,-31.2708
62497,-106.9012,9.8628,-0.0107,-0.055,-90.6908,0.1261,-1.002,12.0194,0.001,-8.2063,1.1513,0.0096,-31.2708
62513,-106.9012,9.8628,-0.0107,-0.055,-90.6908,0.1261,-1.002,12.0194,0.001,-8.2063,1.1513,0.0096,-31.2708
62529,-106.9012,9.8628,-0.0107,-0.055,-90.6908,0.1261,-1.002,12.0194,0.001,-8.2063,1.1513,0.0096,-31.2708
62545,-106.9012,9.8628,-0.0107,-0.055,-90.6908,0.1261,-1.002,12.0194,0.001,-8.2063,1.1513,0.0096,-31.2708
62561,-106.9012,9.8628,-0.0107,-0.055,-90.6908,0.1261,-1.002,12.0194,0.001,-8.2063,1.1513,0.0096,-31.2708
62577,-107.015,11.0524,-0.0109,-0.0164,-96.5014,0.2655,-1.9721,11.8117,0.0011,-8.9502,-1.9163,0.0006,-82.531
62593,-107.015,11.0524,-0.0109,-0.0164,-96.5014,0.2655,-1.9721,11.8117,0.0011,-8.9502,-1.9163,0.0006,-82.531
62609,-107.015,11.0524,-0.0109,-0.0164,-96.5014,0.2655,-1.9721,11.8117,0.0011,-8.9502,-1.9163,0.0006,-82.531
62625,-107.015,11.0524,-0.0109,-0.0164,-96.5014,0.2655,-1.9721,11.8117,0.0011,-8.9502,-1.9163,0.0006,-82.531
62641,-107.015,11.0524,-0.0109,-0.0164,-96.5014,0.2655,-1.9721,11.8117,0.0011,-8.9502,-1.9163,0.0006,-82.531
62657,-107.015,11.0524,-0.0109,-0.0164,-96.5014,0.2655,-1.9721,11.8117,0.0011,-8.9502,-1.9163,0.0006,-82.531
62673,-107.015,11.0524,-0.0109,-0.0164,-96.5014,0.2655,-1.9721,11.8117,0.0011,-8.9502,-1.9163,0.0006,-82.531
62689,-107.015,11.0524,-0.0109,-0.0164,-96.5014,0.2655,-1.9721,11.8117,0.0011,-8.9502,-1.9163,0.0006,-82.531
62705,-107.1617,12.2012,-0.0111,0.0169,-107.9459,0.2638,-2.4605,11.5446,-0.0001,-4.2201,-2.3082,-0.0099,-142.1674
62721,-107.1617,12.2012,-0.0111,0.0169,-107.9459,0.2638,-2.4605,11.5446,-0.0001,-4.2201,-2.3082,-0.0099,-142.1674
62737,-107.1617,12.2012,-0.0111,0.0169,-107.9459,0.2638,-2.4605,11.5446,-0.0001,-4.2201,-2.3082,-0.0099,-142.1674
62753,-107.1617,12.2012,-0.0111,0.0169,-107.9459,0.2638,-2.4605,11.5446,-0.0001,-4.2201,-2.3082,-0.0099,-142.1674
62769,-107.1617,12.2012,-0.0111,0.0169,-107.9459,0.2638,-2.4605,11.5446,-0.0001,-4.2201,-2.3082,-0.0099,-142.1674
62785,-107.1617,12.2012,-0.0111,0.0169,-107.9459,0.2638,-2.4605,11.5446,-0.0001,-4.2201,-2.3082,-0.0099,-142.1674
62801,-107.2776,13.2942,-0.011,-0.0031,-125.0972,0.102,-1.8795,11.5248,-0.0013,5.2216,-0.1774,-0.011,-190.2669
62817,-107.2776,13.2942,-0.011,-0.0031,-125.0972,0.102,-1.8795,11.5248,-0.0013,5.2216,-0.1774,-0.011,-190.2669
62833,-107.2776,13.2942,-0.011,-0.0031,-125.0972,0.102,-1.8795,11.5248,-0.0013,5.2216,-0.1774,-0.011,-190.2669
62849,-107.2776,13.2942,-0.011,-0.0031,-125.0972,0.102,-1.8795,11.5248,-0.0013,5.2216,-0.1774,-0.011,-190.2669
62865,-107.2776,13.2942,-0.011,-0.0031,-125.0972,0.102,-1.8795,11.5248,-0.0013,5.2216,-0.1774,-0.011,-190.2669
62881,-107.2776,13.2942,-0.011,-0.0031,-125.0972,0.102,-1.8795,11.5248,-0.0013,5.2216,-0.1774,-0.011,-190.2669
62897,-107.2563,14.3426,-0.0102,-0.1137,-145.2352,-0.1863,0.1217,11.4649,0.0012,18.8112,-0.5637,0.0231,-208.4263
62913,-107.2563,14.3426,-0.0102,-0.1137,-145.2352,-0.1863,0.1217,11.4649,0.0012,18.8112,-0.5637,0.0231,-208.4263
62929,-107.2563,14.3426,-0.0102,-0.1137,-145.2352,-0.1863,0.1217,11.4649,0.0012,18.8112,-0.5637,0.0231,-208.4263
62945,-107.2563,14.3426,-0.0102,-0.1137,-145.2352,-0.1863,0.1217,11.4649,0.0012,18.8112,-0.5637,0.0231,-208.4263
62961,-107.2563,14.3426,-0.0102,-0.1137,-145.2352,-0.1863,0.1217,11.4649,0.0012,18.8112,-0.5637,0.0231,-208.4263
62977,-107.2563,14.3426,-0.0102,-0.1137,-145.2352,-0.1863,0.1217,11.4649,0.0012,18.8112,-0.5637,0.0231,-208.4263
62993,-107.2563,14.3426,-0.0102,-0.1137,-145.2352,-0.1863,0.1217,11.4649,0.0012,18.8112,-0.5637,0.0231,-208.4263
63025,-107.0598,15.2783,-0.0092,-0.2234,-165.8918,-0.4225,2.4053,10.69,0.0021,23.5984,-8.0075,0.0093,-217.119
63041,-107.0598,15.2783,-0.0092,-0.2234,-165.8918,-0.4225,2.4053,10.69,0.0021,23.5984,-8.0075,0.0093,-217.119
63057,-107.0598,15.2783,-0.0092,-0.2234,-165.8918,-0.4225,2.4053,10.69,0.0021,23.5984,-8.0075,0.0093,-217.119
63073,-107.0598,15.2783,-0.0092,-0.2234,-165.8918,-0.4225,2.4053,10.69,0.0021,23.5984,-8.0075,0.0093,-217.119
63089,-107.0598,15.2783,-0.0092,-0.2234,-165.8918,-0.4225,2.4053,10.69,0.0021,23.5984,-8.0075,0.0093,-217.119
63105,-106.722,16.0752,-0.0086,-0.2743,172.2969,-0.6762,3.7589,8.4851,0.0022,12.5074,-20.3736,0.0018,-217.1868
63121,-106.722,16.0752,-0.0086,-0.2743,172.2969,-0.6762,3.7589,8.4851,0.0022,12.5074,-20.3736,0.0018,-217.1868
63137,-106.722,16.0752,-0.0086,-0.2743,172.2969,-0.6762,3.7589,8.4851,0.0022,12.5074,-20.3736,0.0018,-217.1868
63153,-106.722,16.0752,-0.0086,-0.2743,172.2969,-0.6762,3.7589,8.4851,0.0022,12.5074,-20.3736,0.0018,-217.1868
63169,-106.722,16.0752,-0.0086,-0.2743,172.2969,-0.6762,3.7589,8.4851,0.0022,12.5074,-20.3736,0.0018,-217.1868
63185,-106.722,16.0752,-0.0086,-0.2743,172.2969,-0.6762,3.7589,8.4851,0.0022,12.5074,-20.3736,0.0018,-217.1868
63201,-106.722,16.0752,-0.0086,-0.2743,172.2969,-0.6762,3.7589,8.4851,0.0022,12.5074,-20.3736,0.0018,-217.1868
63217,-106.4409,16.661,-0.0092,-0.1991,151.9481,-0.8683,2.4643,6.5061,-0.002,-12.6785,-19.3808,-0.0412,-190.088
63233,-106.4409,16.661,-0.0092,-0.1991,151.9481,-0.8683,2.4643,6.5061,-0.002,-12.6785,-19.3808,-0.0412,-190.088
63249,-106.4409,16.661,-0.0092,-0.1991,151.9481,-0.8683,2.4643,6.5061,-0.002,-12.6785,-19.3808,-0.0412,-190.088
63265,-106.4409,16.661,-0.0092,-0.1991,151.9481,-0.8683,2.4643,6.5061,-0.002,-12.6785,-19.3808,-0.0412,-190.088
63281,-106.4409,16.661,-0.0092,-0.1991,151.9481,-0.8683,2.4643,6.5061,-0.002,-12.6785,-19.3808,-0.0412,-190.088
63297,-106.4409,16.661,-0.0092,-0.1991,151.9481,-0.8683,2.4643,6.5061,-0.002,-12.6785,-19.3808,-0.0412,-190.088
63313,-106.3984,17.1747,-0.0102,-0.0242,135.0367,-0.9125,0.0828,6.1613,0.0011,-23.7227,-3.4351,0.0301,-145.286
63329,-106.3984,17.1747,-0.0102,-0.0242,135.0367,-0.9125,0.0828,6.1613,0.0011,-23.7227,-3.4351,0.0301,-145.286
63345,-106.3984,17.1747,-0.0102,-0.0242,135.0367,-0.9125,0.0828,6.1613,0.0011,-23.7227,-3.4351,0.0301,-145.286
63361,-106.3984,17.1747,-0.0102,-0.0242,135.0367,-0.9125,0.0828,6.1613,0.0011,-23.7227,-3.4351,0.0301,-145.286
63377,-106.3984,17.1747,-0.0102,-0.0242,135.0367,-0.9125,0.0828,6.1613,0.0011,-23.7227,-3.4351,0.0301,-145.286
63393,-106.3984,17.1747,-0.0102,-0.0242,135.0367,-0.9125,0.0828,6.1613,0.0011,-23.7227,-3.4351,0.0301,-145.286
63412,-106.5705,17.7938,-0.0116,0.1473,123.4144,-0.7261,-1.7121,7.2417,-0.0012,-17.9814,10.8241,-0.0226,-97.1202
63425,-106.5705,17.7938,-0.0116,0.1473,123.4144,-0.7261,-1.7121,7.2417,-0.0012,-17.9814,10.8241,-0.0226,-97.1202
63441,-106.5705,17.7938,-0.0116,0.1473,123.4144,-0.7261,-1.7121,7.2417,-0.0012,-17.9814,10.8241,-0.0226,-97.1202
63457,-106.5705,17.7938,-0.0116,0.1473,123.4144,-0.7261,-1.7121,7.2417,-0.0012,-17.9814,10.8241,-0.0226,-97.1202
63473,-106.5705,17.7938,-0.0116,0.1473,123.4144,-0.7261,-1.7121,7.2417,-0.0012,-17.9814,10.8241,-0.0226,-97.1202
63489,-106.5705,17.7938,-0.0116,0.1473,123.4144,-0.7261,-1.7121,7.2417,-0.0012,-17.9814,10.8241,-0.0226,-97.1202
63521,-106.7842,18.4908,-0.0121,0.1953,114.9516,-0.3728,-1.5589,8.2006,-0.0029,1.6454,10.3003,-0.0178,-89.1491
63537,-106.7842,18.4908,-0.0121,0.1953,114.9516,-0.3728,-1.5589,8.2006,-0.0029,1.6454,10.3003,-0.0178,-89.1491
63553,-106.7842,18.4908,-0.0121,0.1953,114.9516,-0.3728,-1.5589,8.2006,-0.0029,1.6454,10.3003,-0.0178,-89.1491
63569,-106.7842,18.4908,-0.0121,0.1953,114.9516,-0.3728,-1.5589,8.2006,-0.0029,1.6454,10.3003,-0.0178,-89.1491
63585,-106.7842,18.4908,-0.0121,0.1953,114.9516,-0.3728,-1.5589,8.2006,-0.0029,1.6454,10.3003,-0.0178,-89.1491
63612,-107.0019,19.3254,-0.0123,0.1786,108.1797,-0.2133,-2.0924,8.6433,-0.0018,-5.0353,4.1789,0.01,-40.9809
63617,-107.0019,19.3254,-0.0123,0.1786,108.1797,-0.2133,-2.0924,8.6433,-0.0018,-5.0353,4.1789,0.01,-40.9809
63633,-107.0019,19.3254,-0.0123,0.1786,108.1797,-0.2133,-2.0924,8.6433,-0.0018,-5.0353,4.1789,0.01,-40.9809
63649,-107.0019,19.3254,-0.0123,0.1786,108.1797,-0.2133,-2.0924,8.6433,-0.0018,-5.0353,4.1789,0.01,-40.9809
63665,-107.0019,19.3254,-0.0123,0.1786,108.1797,-0.2133,-2.0924,8.6433,-0.0018,-5.0353,4.1789,0.01,-40.9809
63681,-107.0019,19.3254,-0.0123,0.1786,108.1797,-0.2133,-2.0924,8.6433,-0.0018,-5.0353,4.1789,0.01,-40.9809
63697,-107.0019,19.3254,-0.0123,0.1786,108.1797,-0.2133,-2.0924,8.6433,-0.0018,-5.0353,4.1789,0.01,-40.9809
63718,-107.2537,20.1901,-0.0119,0.1257,106.0899,-0.2048,-2.4839,8.7436,-0.0002,-3.7167,0.9518,0.015,-9.4827
63729,-107.2537,20.1901,-0.0119,0.1257,106.0899,-0.2048,-2.4839,8.7436,-0.0002,-3.7167,0.9518,0.015,-9.4827
63745,-107.2537,20.1901,-0.0119,0.1257,106.0899,-0.2048,-2.4839,8.7436,-0.0002,-3.7167,0.9518,0.015,-9.4827
63761,-107.2537,20.1901,-0.0119,0.1257,106.0899,-0.2048,-2.4839,8.7436,-0.0002,-3.7167,0.9518,0.015,-9.4827
63777,-107.2537,20.1901,-0.0119,0.1257,106.0899,-0.2048,-2.4839,8.7436,-0.0002,-3.7167,0.9518,0.015,-9.4827
63793,-107.2537,20.1901,-0.0119,0.1257,106.0899,-0.2048,-2.4839,8.7436,-0.0002,-3.7167,0.9518,0.015,-9.4827
63809,-107.2537,20.1901,-0.0119,0.1257,106.0899,-0.2048,-2.4839,8.7436,-0.0002,-3.7167,0.9518,0.015,-9.4827
63830,-107.5073,21.0697,-0.0117,0.0811,105.5496,-0.1249,-2.5061,8.8585,-0.0005,-0.2032,1.0535,-0.0026,-1.8343
63841,-107.5073,21.0697,-0.0117,0.0811,105.5496,-0.1249,-2.5061,8.8585,-0.0005,-0.2032,1.0535,-0.0026,-1.8343
63857,-107.5073,21.0697,-0.0117,0.0811,105.5496,-0.1249,-2.5061,8.8585,-0.0005,-0.2032,1.0535,-0.0026,-1.8343
63873,-107.5073,21.0697,-0.0117,0.0811,105.5496,-0.1249,-2.5061,8.8585,-0.0005,-0.2032,1.0535,-0.0026,-1.8343
63889,-107.5073,21.0697,-0.0117,0.0811,105.5496,-0.1249,-2.5061,8.8585,-0.0005,-0.2032,1.0535,-0.0026,-1.8343
63905,-107.5073,21.0697,-0.0117,0.0811,105.5496,-0.1249,-2.5061,8.8585,-0.0005,-0.2032,1.0535,-0.0026,-1.8343
63925,-107.7494,21.9304,-0.0115,0.0539,105.4075,-0.0667,-2.4979,8.9619,-0.0004,0.0851,1.0706,0.0008,0.0813
63937,-107.7494,21.9304,-0.0115,0.0539,105.4075,-0.0667,-2.4979,8.9619,-0.0004,0.0851,1.0706,0.0008,0.0813
63953,-107.7494,21.9304,-0.0115,0.0539,105.4075,-0.0667,-2.4979,8.9619,-0.0004,0.0851,1.0706,0.0008,0.0813
63969,-107.7494,21.9304,-0.0115,0.0539,105.4075,-0.0667,-2.4979,8.9619,-0.0004,0.0851,1.0706,0.0008,0.0813
63985,-107.7494,21.9304,-0.0115,0.0539,105.4075,-0.0667,-2.4979,8.9619,-0.0004,0.0851,1.0706,0.0008,0.0813
64001,-107.7494,21.9304,-0.0115,0.0539,105.4075,-0.0667,-2.4979,8.9619,-0.0004,0.0851,1.0706,0.0008,0.0813
64017,-107.7494,21.9304,-0.0115,0.0539,105.4075,-0.0667,-2.4979,8.9619,-0.0004,0.0851,1.0706,0.0008,0.0813
64036,-107.999,22.8306,-0.0114,0.0358,105.3671,-0.0334,-2.4965,9.0354,-0.0002,0.0128,0.6564,0.0018,0.6974
64049,-107.999,22.8306,-0.0114,0.0358,105.3671,-0.0334,-2.4965,9.0354,-0.0002,0.0128,0.6564,0.0018,0.6974
64065,-107.999,22.8306,-0.0114,0.0358,105.3671,-0.0334,-2.4965,9.0354,-0.0002,0.0128,0.6564,0.0018,0.6974
64081,-107.999,22.8306,-0.0114,0.0358,105.3671,-0.0334,-2.4965,9.0354,-0.0002,0.0128,0.6564,0.0018,0.6974
64097,-107.999,22.8306,-0.0114,0.0358,105.3671,-0.0334,-2.4965,9.0354,-0.0002,0.0128,0.6564,0.0018,0.6974
64113,-107.999,22.8306,-0.0114,0.0358,105.3671,-0.0334,-2.4965,9.0354,-0.0002,0.0128,0.6564,0.0018,0.6974
64135,-108.2428,23.7151,-0.0113,0.0256,105.3556,-0.0171,-2.5066,9.1078,-0.0001,-0.1036,0.7437,0.0015,0.7833
64145,-108.2428,23.7151,-0.0113,0.0256,105.3556,-0.0171,-2.5066,9.1078,-0.0001,-0.1036,0.7437,0.0015,0.7833
64161,-108.2428,23.7151,-0.0113,0.0256,105.3556,-0.0171,-2.5066,9.1078,-0.0001,-0.1036,0.7437,0.0015,0.7833
64177,-108.2428,23.7151,-0.0113,0.0256,105.3556,-0.0171,-2.5066,9.1078,-0.0001,-0.1036,0.7437,0.0015,0.7833
64193,-108.2428,23.7151,-0.0113,0.0256,105.3556,-0.0171,-2.5066,9.1078,-0.0001,-0.1036,0.7437,0.0015,0.7833
64209,-108.2428,23.7151,-0.0113,0.0256,105.3556,-0.0171,-2.5066,9.1078,-0.0001,-0.1036,0.7437,0.0015,0.7833
64225,-108.2428,23.7151,-0.0113,0.0256,105.3556,-0.0171,-2.5066,9.1078,-0.0001,-0.1036,0.7437,0.0015,0.7833
64245,-108.4941,24.6292,-0.0113,0.0191,105.3524,-0.0088,-2.5186,9.167,-0.0,-0.1105,0.5425,0.0006,0.8735
64257,-108.4941,24.6292,-0.0113,0.0191,105.3524,-0.0088,-2.5186,9.167,-0.0,-0.1105,0.5425,0.0006,0.8735
64273,-108.4941,24.6292,-0.0113,0.0191,105.3524,-0.0088,-2.5186,9.167,-0.0,-0.1105,0.5425,0.0006,0.8735
64289,-108.4941,24.6292,-0.0113,0.0191,105.3524,-0.0088,-2.5186,9.167,-0.0,-0.1105,0.5425,0.0006,0.8735
64305,-108.4941,24.6292,-0.0113,0.0191,105.3524,-0.0088,-2.5186,9.167,-0.0,-0.1105,0.5425,0.0006,0.8735
64321,-108.4941,24.6292,-0.0113,0.0191,105.3524,-0.0088,-2.5186,9.167,-0.0,-0.1105,0.5425,0.0006,0.8735
64344,-108.7467,25.5491,-0.0113,0.0153,105.3513,-0.0046,-2.533,9.2255,0.0,-0.1416,0.5765,0.0003,0.8773
64353,-108.7467,25.5491,-0.0113,0.0153,105.3513,-0.0046,-2.533,9.2255,0.0,-0.1416,0.5765,0.0003,0.8773
64369,-108.7467,25.5491,-0.0113,0.0153,105.3513,-0.0046,-2.533,9.2255,0.0,-0.1416,0.5765,0.0003,0.8773
64385,-108.7467,25.5491,-0.0113,0.0153,105.3513,-0.0046,-2.533,9.2255,0.0,-0.1416,0.5765,0.0003,0.8773
64401,-108.7467,25.5491,-0.0113,0.0153,105.3513,-0.0046,-2.533,9.2255,0.0,-0.1416,0.5765,0.0003,0.8773
64417,-108.7467,25.5491,-0.0113,0.0153,105.3513,-0.0046,-2.533,9.2255,0.0,-0.1416,0.5765,0.0003,0.8773
64433,-108.7467,25.5491,-0.0113,0.0153,105.3513,-0.0046,-2.533,9.2255,0.0,-0.1416,0.5765,0.0003,0.8773
64449,-109.0008,26.4748,-0.0113,0.0131,105.351,-0.0025,-2.5481,9.2832,0.0,-0.1451,0.5521,-0.0001,0.8723
64465,-109.0008,26.4748,-0.0113,0.0131,105.351,-0.0025,-2.5481,9.2832,0.0,-0.1451,0.5521,-0.0001,0.8723
64481,-109.0008,26.4748,-0.0113,0.0131,105.351,-0.0025,-2.5481,9.2832,0.0,-0.1451,0.5521,-0.0001,0.8723
64497,-109.0008,26.4748,-0.0113,0.0131,105.351,-0.0025,-2.5481,9.2832,0.0,-0.1451,0.5521,-0.0001,0.8723
64513,-109.0008,26.4748,-0.0113,0.0131,105.351,-0.0025,-2.5481,9.2832,0.0,-0.1451,0.5521,-0.0001,0.8723
64529,-109.0008,26.4748,-0.0113,0.0131,105.351,-0.0025,-2.5481,9.2832,0.0,-0.1451,0.5521,-0.0001,0.8723
64545,-109.2515,27.3883,-0.0112,0.0122,105.3507,-0.0014,-2.5646,9.3442,0.0,-0.1682,0.6224,0.0,0.8211
64561,-109.2515,27.3883,-0.0112,0.0122,105.3507,-0.0014,-2.5646,9.3442,0.0,-0.1682,0.6224,0.0,0.8211
64577,-109.2515,27.3883,-0.0112,0.0122,105.3507,-0.0014,-2.5646,9.3442,0.0,-0.1682,0.6224,0.0,0.8211
64593,-109.2515,27.3883,-0.0112,0.0122,105.3507,-0.0014,-2.5646,9.3442,0.0,-0.1682,0.6224,0.0,0.8211
64609,-109.2515,27.3883,-0.0112,0.0122,105.3507,-0.0014,-2.5646,9.3442,0.0,-0.1682,0.6224,0.0,0.8211
64625,-109.2515,27.3883,-0.0112,0.0122,105.3507,-0.0014,-2.5646,9.3442,0.0,-0.1682,0.6224,0.0,0.8211
64641,-109.2515,27.3883,-0.0112,0.0122,105.3507,-0.0014,-2.5646,9.3442,0.0,-0.1682,0.6224,0.0,0.8211
64657,-109.5088,28.3257,-0.0112,0.0113,105.3508,-0.0008,-2.579,9.3971,0.0,-0.1374,0.505,-0.0,0.8565
64673,-109.5088,28.3257,-0.0112,0.0113,105.3508,-0.0008,-2.579,9.3971,0.0,-0.1374,0.505,-0.0,0.8565
64689,-109.5088,28.3257,-0.0112,0.0113,105.3508,-0.0008,-2.579,9.3971,0.0,-0.1374,0.505,-0.0,0.8565
64705,-109.5088,28.3257,-0.0112,0.0113,105.3508,-0.0008,-2.579,9.3971,0.0,-0.1374,0.505,-0.0,0.8565
