timestamp,x,y,z,pitch,yaw,roll,vx,vy,vz,ax,ay,az,yaw_rate
35531,-106.6867,-4.8475,0.4564,0.0,-89.3578,0.0,0.0,0.0,-1.6317,0.0,0.0,-9.8,0.0
35547,-106.6867,-4.8475,0.4564,0.0,-89.3578,0.0,0.0,0.0,-1.6317,0.0,0.0,-9.8,0.0
35563,-106.6867,-4.8475,0.4564,0.0,-89.3578,0.0,0.0,0.0,-1.6317,0.0,0.0,-9.8,0.0
35581,-106.6867,-4.8475,0.3768,0.0,-89.3578,0.0,0.0,0.0,-2.0466,0.0,0.0,-9.8,0.0
35595,-106.6867,-4.8475,0.3251,0.0,-89.3578,0.0,0.0,0.0,-2.2771,0.0,0.0,-9.8,0.0
35611,-106.6867,-4.8475,0.3251,0.0,-89.3578,0.0,0.0,0.0,-2.2771,0.0,0.0,-9.8,0.0
35627,-106.6867,-4.8475,0.2655,0.0,-89.3578,0.0,0.0,0.0,-2.5165,0.0,0.0,-9.8,0.0
35645,-106.6867,-4.8475,0.2008,0.0,-89.3578,0.0,0.0,0.0,-2.7538,0.0,0.0,-9.8,0.0
35659,-106.6867,-4.8475,0.2008,0.0,-89.3578,0.0,0.0,0.0,-2.7538,0.0,0.0,-9.8,0.0
35675,-106.6867,-4.8475,0.1386,0.0,-89.3578,0.0,0.0,0.0,-2.9644,0.0,0.0,-9.8,0.0
35693,-106.6867,-4.8475,0.0732,0.0,-89.3578,0.0,0.0,0.0,-3.1709,0.0,0.0,-9.8,0.0
35708,-106.6867,-4.8457,0.0117,-0.0027,-89.3578,0.0,-0.0013,0.1197,-2.4044,-0.06,5.3523,34.2735,-0.0
35723,-106.6867,-4.8457,0.0117,-0.0027,-89.3578,0.0,-0.0013,0.1197,-2.4044,-0.06,5.3523,34.2735,-0.0
35739,-106.6868,-4.8453,-0.0287,-0.0019,-89.3578,0.0,0.0004,-0.0334,-1.6092,0.0789,-7.0394,36.5573,-0.0
35757,-106.6868,-4.8442,-0.0546,-0.0027,-89.3578,0.0,-0.0011,0.0995,-1.0341,-0.0696,6.21,26.8742,-0.0
35771,-106.6868,-4.843,-0.0705,-0.003,-89.3578,0.0,-0.0005,0.046,-0.6158,0.0281,-2.5004,19.5714,-0.0001
35787,-106.6868,-4.843,-0.0705,-0.003,-89.3578,0.0,-0.0005,0.046,-0.6158,0.0281,-2.5004,19.5714,-0.0001
35803,-106.6868,-4.8416,-0.0792,-0.0036,-89.3578,0.0,-0.0009,0.0817,-0.3168,-0.019,1.6787,14.0867,0.0004
35820,-106.6868,-4.8393,-0.0829,-0.005,-89.3572,0.0,-0.0017,0.1492,-0.0989,-0.0365,3.0504,9.8446,0.079
35835,-106.6868,-4.8338,-0.0828,-0.0107,-89.3724,-0.0,-0.0033,0.2982,0.0436,-0.0746,7.0664,6.7589,-0.6607
35851,-106.6868,-4.8338,-0.0828,-0.0107,-89.3724,-0.0,-0.0033,0.2982,0.0436,-0.0746,7.0664,6.7589,-0.6607
35867,-106.6869,-4.8249,-0.0804,-0.0182,-89.3629,0.0,-0.0058,0.4577,0.1398,-0.1177,7.3737,4.4489,0.8642
35885,-106.687,-4.813,-0.0765,-0.0267,-89.3745,-0.0001,-0.0066,0.5984,0.1983,-0.0348,6.6524,2.7665,-0.7734
35899,-106.6871,-4.7982,-0.0717,-0.035,-89.377,-0.0,-0.0081,0.7434,0.2313,-0.0733,6.8565,1.5592,0.5145
35915,-106.6871,-4.7982,-0.0717,-0.035,-89.377,-0.0,-0.0081,0.7434,0.2313,-0.0733,6.8565,1.5592,0.5145
35931,-106.6874,-4.7805,-0.0663,-0.0421,-89.3699,0.0,-0.0099,0.8588,0.2465,-0.0807,5.2186,0.6844,0.673
35948,-106.6876,-4.7605,-0.061,-0.0488,-89.3663,0.0001,-0.0117,0.987,0.2477,-0.0822,6.0703,0.0611,0.4724
35963,-106.6879,-4.7384,-0.0555,-0.0546,-89.3652,0.0001,-0.0126,1.0914,0.2629,-0.0457,4.9873,0.7218,0.0132
35979,-106.6879,-4.7384,-0.0555,-0.0546,-89.3652,0.0001,-0.0126,1.0914,0.2629,-0.0457,4.9873,0.7218,0.0132
35997,-106.6882,-4.7138,-0.0498,-0.0564,-89.3563,0.0002,-0.0128,1.0532,0.2426,-0.0072,-1.6698,-0.8852,0.1826
36013,-106.6885,-4.6899,-0.0449,-0.0558,-89.3576,0.0002,-0.0132,1.1266,0.2177,-0.0211,3.3795,-1.1485,-0.1575
36027,-106.6888,-4.6661,-0.0405,-0.0519,-89.3587,0.0001,-0.012,1.0557,0.195,0.0548,-3.2202,-1.0306,0.0182
36043,-106.6888,-4.6661,-0.0405,-0.0519,-89.3587,0.0001,-0.012,1.0557,0.195,0.0548,-3.2202,-1.0306,0.0182
36061,-106.689,-4.6425,-0.0366,-0.0486,-89.3589,0.0001,-0.0128,1.1321,0.1729,-0.0367,3.5713,-1.0321,-0.0219
36077,-106.6893,-4.6182,-0.0332,-0.0456,-89.3591,0.0001,-0.0128,1.1352,0.153,-0.0017,0.1454,-0.9291,-0.0014
36091,-106.6893,-4.6182,-0.0332,-0.0456,-89.3591,0.0001,-0.0128,1.1352,0.153,-0.0017,0.1454,-0.9291,-0.0014
36107,-106.6896,-4.591,-0.0301,-0.0447,-89.3592,0.0,-0.0148,1.3125,0.1345,-0.0856,7.9126,-0.8255,-0.0225
36124,-106.6899,-4.5625,-0.0273,-0.0431,-89.3595,0.0,-0.0138,1.2318,0.1168,0.0409,-3.5669,-0.7807,-0.0129
36140,-106.6902,-4.5337,-0.025,-0.0431,-89.3666,0.0001,-0.0174,1.4166,0.1011,-0.1627,8.5502,-0.7292,0.2552
36155,-106.6902,-4.5337,-0.025,-0.0431,-89.3666,0.0001,-0.0174,1.4166,0.1011,-0.1627,8.5502,-0.7292,0.2552
36171,-106.6906,-4.5044,-0.0231,-0.0425,-89.3622,0.0002,-0.0165,1.3752,0.0878,0.0394,-1.9446,-0.6223,0.2382
36189,-106.691,-4.4706,-0.0212,-0.0438,-89.3681,0.0002,-0.0187,1.5602,0.0761,-0.0967,8.1023,-0.5112,0.3735
36203,-106.691,-4.4706,-0.0212,-0.0438,-89.3681,0.0002,-0.0187,1.5602,0.0761,-0.0967,8.1023,-0.5112,0.3735
36219,-106.6915,-4.4335,-0.0196,-0.0438,-89.3636,0.0002,-0.0186,1.5408,0.0649,0.0039,-0.7988,-0.4619,0.0423
36236,-106.6919,-4.3966,-0.0183,-0.0456,-89.3664,0.0003,-0.021,1.717,0.0548,-0.1034,7.7976,-0.4455,0.4972
36253,-106.6924,-4.3587,-0.0171,-0.0455,-89.3549,0.0003,-0.0202,1.6463,0.0469,0.0331,-3.1233,-0.353,0.3708
36267,-106.6924,-4.3587,-0.0171,-0.0455,-89.3549,0.0003,-0.0202,1.6463,0.0469,0.0331,-3.1233,-0.353,0.3708
36283,-106.693,-4.3205,-0.0162,-0.0461,-89.3436,0.0005,-0.0234,1.8169,0.04,-0.1458,7.7908,-0.313,-0.6368
36299,-106.6936,-4.2788,-0.0154,-0.0493,-89.332,0.0004,-0.0257,1.9958,0.0343,-0.1014,8.0632,-0.2575,0.6265
36315,-106.6936,-4.2788,-0.0154,-0.0493,-89.332,0.0004,-0.0257,1.9958,0.0343,-0.1014,8.0632,-0.2575,0.6265
36331,-106.6942,-4.2321,-0.0147,-0.0577,-89.3295,0.0005,-0.0272,2.1698,0.0293,-0.0689,8.0297,-0.2297,0.7085
36349,-106.695,-4.1844,-0.0141,-0.0634,-89.3093,0.0005,-0.0289,2.2886,0.0251,-0.084,5.6029,-0.1971,1.5728
36363,-106.6957,-4.1334,-0.0135,-0.07,-89.299,0.0004,-0.0268,2.4474,0.0216,0.101,7.6026,-0.1673,-2.2496
36379,-106.6957,-4.1334,-0.0135,-0.07,-89.299,0.0004,-0.0268,2.4474,0.0216,0.101,7.6026,-0.1673,-2.2496
36395,-106.6961,-4.0798,-0.0131,-0.0743,-89.3199,-0.0001,-0.0288,2.5876,0.0186,-0.0922,6.6396,-0.1431,-2.2592
36412,-106.6966,-4.0229,-0.0127,-0.0741,-89.3365,-0.0004,-0.0274,2.5313,0.016,0.064,-2.5384,-0.1198,-1.1261
36429,-106.6971,-3.9645,-0.0124,-0.0762,-89.3605,-0.0007,-0.0301,2.7765,0.0136,-0.129,11.4329,-0.1107,-1.5552
36443,-106.6971,-3.9645,-0.0124,-0.0762,-89.3605,-0.0007,-0.0301,2.7765,0.0136,-0.129,11.4329,-0.1107,-1.5552
36459,-106.6976,-3.9026,-0.0121,-0.0752,-89.3726,-0.0008,-0.0288,2.739,0.0116,0.0591,-1.678,-0.0884,-0.9736
36477,-106.6981,-3.8386,-0.0119,-0.0773,-89.3967,-0.001,-0.0313,3.0069,0.0098,-0.1158,12.3261,-0.0809,-1.7331
36491,-106.6987,-3.7729,-0.0117,-0.0772,-89.4081,-0.0011,-0.0299,3.0026,0.0084,0.0633,-0.1984,-0.0665,-0.6431
36507,-106.6987,-3.7729,-0.0117,-0.0772,-89.4081,-0.0011,-0.0299,3.0026,0.0084,0.0633,-0.1984,-0.0665,-0.6431
36525,-106.6993,-3.7008,-0.0115,-0.0802,-89.4178,-0.0012,-0.0321,3.2764,0.0071,-0.0979,12.1511,-0.0555,0.7642
36540,-106.6999,-3.629,-0.0113,-0.0808,-89.4327,-0.0012,-0.0323,3.2942,0.006,-0.0052,0.8142,-0.0502,-0.8111
36555,-106.6999,-3.629,-0.0113,-0.0808,-89.4327,-0.0012,-0.0323,3.2942,0.006,-0.0052,0.8142,-0.0502,-0.8111
36571,-106.7007,-3.5505,-0.0112,-0.0822,-89.4318,-0.0011,-0.0348,3.4868,0.0051,-0.1104,8.4005,-0.0401,-1.5161
36589,-106.7015,-3.4717,-0.0111,-0.0819,-89.4251,-0.001,-0.0349,3.5217,0.0043,-0.0029,1.5533,-0.0363,0.3886
36603,-106.7022,-3.3941,-0.011,-0.0835,-89.4278,-0.0009,-0.0361,3.7323,0.0036,-0.0574,9.9347,-0.0311,1.3045
36619,-106.7022,-3.3941,-0.011,-0.0835,-89.4278,-0.0009,-0.0361,3.7323,0.0036,-0.0574,9.9347,-0.0311,1.3045
36635,-106.703,-3.3124,-0.0109,-0.0847,-89.4376,-0.0009,-0.0368,3.8139,0.0031,-0.0361,3.784,-0.0242,0.1936
36653,-106.7039,-3.2246,-0.0109,-0.0875,-89.4378,-0.0007,-0.0403,4.0258,0.0026,-0.1561,9.5433,-0.0215,-1.4474
36667,-106.7048,-3.1379,-0.0108,-0.0894,-89.4283,-0.0005,-0.0414,4.1193,0.0022,-0.0522,4.4032,-0.019,-0.0473
36683,-106.7048,-3.1379,-0.0108,-0.0894,-89.4283,-0.0005,-0.0414,4.1193,0.0022,-0.0522,4.4032,-0.019,-0.0473
36701,-106.7057,-3.0426,-0.0107,-0.0927,-89.4275,-0.0005,-0.0425,4.3363,0.0019,-0.0485,9.708,-0.0144,1.411
36717,-106.7066,-2.9419,-0.0107,-0.0945,-89.4378,-0.0005,-0.0433,4.4161,0.0016,-0.0342,3.4793,-0.0134,0.0767
36731,-106.7066,-2.9419,-0.0107,-0.0945,-89.4378,-0.0005,-0.0433,4.4161,0.0016,-0.0342,3.4793,-0.0134,0.0767
36747,-106.7077,-2.8383,-0.0106,-0.097,-89.4369,-0.0004,-0.0465,4.6358,0.0014,-0.1412,9.6829,-0.0106,-1.2996
36764,-106.7089,-2.7266,-0.0106,-0.0983,-89.4248,-0.0003,-0.0474,4.7288,0.0012,-0.0368,3.9138,-0.0093,-0.0074
36779,-106.7089,-2.7266,-0.0106,-0.0983,-89.4248,-0.0003,-0.0474,4.7288,0.0012,-0.0368,3.9138,-0.0093,-0.0074
36795,-106.71,-2.6162,-0.0105,-0.1006,-89.4261,-0.0003,-0.0487,4.955,0.001,-0.0597,9.9969,-0.0083,1.1166
36813,-106.711,-2.5035,-0.0105,-0.1026,-89.4338,-0.0003,-0.0502,5.0869,0.0008,-0.0652,5.9043,-0.0065,-0.0385
36827,-106.7122,-2.3916,-0.0105,-0.106,-89.4314,-0.0002,-0.0532,5.3256,0.0007,-0.1404,11.1997,-0.006,-0.5411
36844,-106.7133,-2.2764,-0.0104,-0.1099,-89.4288,-0.0002,-0.0548,5.4977,0.0006,-0.0747,8.1268,-0.0048,0.1144
36859,-106.7133,-2.2764,-0.0104,-0.1099,-89.4288,-0.0002,-0.0548,5.4977,0.0006,-0.0747,8.1268,-0.0048,0.1144
36877,-106.7145,-2.1549,-0.0104,-0.1147,-89.4297,-0.0002,-0.057,5.739,0.0005,-0.1067,11.2376,-0.0045,0.0856
36891,-106.7158,-2.0292,-0.0103,-0.1188,-89.4297,-0.0002,-0.0588,5.9067,0.0004,-0.0803,7.8098,-0.0032,-0.0004
36907,-106.7158,-2.0292,-0.0103,-0.1188,-89.4297,-0.0002,-0.0588,5.9067,0.0004,-0.0803,7.8098,-0.0032,-0.0004
36923,-106.7171,-1.8991,-0.0103,-0.1225,-89.4296,-0.0001,-0.0609,6.1149,0.0004,-0.0971,9.6771,-0.0026,0.0004
36941,-106.7184,-1.7632,-0.0103,-0.1245,-89.4295,-0.0001,-0.0623,6.2571,0.0003,-0.0651,6.5002,-0.0034,0.0024
36955,-106.7198,-1.6237,-0.0103,-0.1258,-89.4294,-0.0001,-0.0641,6.4369,0.0003,-0.0822,8.2227,-0.002,0.0017
36971,-106.7198,-1.6237,-0.0103,-0.1258,-89.4294,-0.0001,-0.0641,6.4369,0.0003,-0.0822,8.2227,-0.002,0.0017
36989,-106.7213,-1.4745,-0.0103,-0.1249,-89.4294,-0.0001,-0.0651,6.5405,0.0002,-0.0453,4.5205,-0.0011,0.0008
37005,-106.7228,-1.3227,-0.0103,-0.123,-89.4294,-0.0001,-0.0666,6.6926,0.0002,-0.0665,6.6508,-0.0017,0.0011
37019,-106.7228,-1.3227,-0.0103,-0.123,-89.4294,-0.0001,-0.0666,6.6926,0.0002,-0.0665,6.6508,-0.0017,0.0011
37035,-106.7243,-1.1738,-0.0103,-0.1201,-89.4294,-0.0001,-0.0676,6.7913,0.0002,-0.0448,4.4782,-0.0008,-0.0001
37053,-106.7258,-1.0227,-0.0103,-0.1182,-89.4294,-0.0001,-0.0693,6.9636,0.0001,-0.0787,7.8766,-0.0012,-0.0007
37067,-106.7274,-0.8617,-0.0103,-0.1165,-89.4294,-0.0,-0.0707,7.0958,0.0001,-0.0576,5.7877,-0.001,0.0001
37083,-106.7274,-0.8617,-0.0103,-0.1165,-89.4294,-0.0,-0.0707,7.0958,0.0001,-0.0576,5.7877,-0.001,0.0001
37099,-106.7291,-0.6887,-0.0103,-0.1154,-89.4294,-0.0,-0.0724,7.2717,0.0001,-0.0731,7.3366,-0.001,0.0001
37117,-106.7307,-0.526,-0.0103,-0.1138,-89.4294,-0.0,-0.0736,7.3865,0.0001,-0.0516,5.1803,-0.0005,0.0001
37131,-106.7307,-0.526,-0.0103,-0.1138,-89.4294,-0.0,-0.0736,7.3865,0.0001,-0.0516,5.1803,-0.0005,0.0001
37147,-106.7323,-0.3653,-0.0103,-0.113,-89.4294,-0.0,-0.0752,7.5497,0.0001,-0.0758,7.6106,-0.0007,0.0001
37163,-106.7341,-0.1933,-0.0103,-0.1123,-89.4294,-0.0,-0.0766,7.6888,0.0001,-0.0617,6.1861,-0.0008,-0.0
37179,-106.7358,-0.0191,-0.0103,-0.1119,-89.4294,-0.0,-0.0781,7.8467,0.0,-0.0703,7.0622,-0.0003,0.0001
37195,-106.7358,-0.0191,-0.0103,-0.1119,-89.4294,-0.0,-0.0781,7.8467,0.0,-0.0703,7.0622,-0.0003,0.0001
37213,-106.7375,0.1494,-0.0103,-0.1114,-89.4294,-0.0,-0.0794,7.9762,0.0,-0.0607,6.0955,-0.0003,-0.0001
37229,-106.7392,0.321,-0.0103,-0.1108,-89.4294,0.0,-0.0808,8.1163,0.0,-0.0657,6.5877,0.0002,0.0
37243,-106.7409,0.4955,-0.0104,-0.1102,-89.4294,0.0,-0.0821,8.2457,0.0,-0.0606,6.0835,-0.0003,-0.0001
37259,-106.7409,0.4955,-0.0104,-0.1102,-89.4294,0.0,-0.0821,8.2457,0.0,-0.0606,6.0835,-0.0003,-0.0001
37277,-106.7428,0.6836,-0.0104,-0.1093,-89.4294,-0.0,-0.0835,8.3842,0.0,-0.0613,6.141,-0.0001,0.0
37291,-106.7447,0.8706,-0.0104,-0.1083,-89.4294,0.0,-0.0848,8.5136,0.0,-0.0583,5.8617,-0.0009,-0.0
37307,-106.7447,0.8706,-0.0104,-0.1083,-89.4294,0.0,-0.0848,8.5136,0.0,-0.0583,5.8617,-0.0009,-0.0
37323,-106.7465,1.0579,-0.0104,-0.1072,-89.4294,0.0,-0.086,8.6405,0.0,-0.0581,5.8241,0.0003,0.0
37339,-106.7485,1.2561,-0.0104,-0.106,-89.4294,0.0,-0.0873,8.7688,0.0,-0.0562,5.647,-0.0002,-0.0
37356,-106.7504,1.4504,-0.0104,-0.1046,-89.4294,0.0,-0.0885,8.891,0.0,-0.0555,5.568,-0.0002,0.0
37371,-106.7504,1.4504,-0.0104,-0.1046,-89.4294,0.0,-0.0885,8.891,0.0,-0.0555,5.568,-0.0002,0.0
37388,-106.7525,1.6567,-0.0104,-0.1031,-89.4294,0.0,-0.0898,9.0161,0.0,-0.0542,5.4414,-0.0003,-0.0001
37405,-106.7545,1.8623,-0.0104,-0.1017,-89.4294,0.0,-0.091,9.1371,0.0,-0.0533,5.3526,0.0003,0.0
37419,-106.7545,1.8623,-0.0104,-0.1017,-89.4294,0.0,-0.091,9.1371,0.0,-0.0533,5.3526,0.0003,0.0
37435,-106.7566,2.0648,-0.0104,-0.1002,-89.4294,0.0,-0.0921,9.2525,0.0,-0.0523,5.2514,-0.0003,-0.0
37453,-106.7586,2.2725,-0.0104,-0.0987,-89.4294,-0.0,-0.0933,9.3676,-0.0,-0.0514,5.1672,-0.0008,-0.0
37467,-106.7609,2.5014,-0.0104,-0.0971,-89.4294,0.0,-0.0945,9.4905,0.0,-0.0506,5.0769,0.0008,-0.0001
37483,-106.7609,2.5014,-0.0104,-0.0971,-89.4294,0.0,-0.0945,9.4905,0.0,-0.0506,5.0769,0.0008,-0.0001
37501,-106.7631,2.7191,-0.0105,-0.0955,-89.4294,0.0,-0.0956,9.6041,-0.0,-0.0497,4.9912,-0.0004,0.0
37517,-106.7652,2.9303,-0.0105,-0.0941,-89.4294,0.0,-0.0967,9.7113,0.0,-0.0489,4.9114,0.0004,-0.0001
37531,-106.7652,2.9303,-0.0105,-0.0941,-89.4294,0.0,-0.0967,9.7113,0.0,-0.0489,4.9114,0.0004,-0.0001
37547,-106.7675,3.1598,-0.0105,-0.0926,-89.4294,0.0,-0.0978,9.8247,0.0,-0.0481,4.8344,-0.0002,0.0
37564,-106.7696,3.37,-0.0105,-0.0912,-89.4294,0.0,-0.0988,9.9258,-0.0,-0.0474,4.7589,-0.0002,-0.0
37579,-106.7717,3.5907,-0.0105,-0.0898,-89.4294,0.0,-0.0999,10.0294,0.0,-0.0467,4.6889,0.0002,-0.0
37595,-106.7717,3.5907,-0.0105,-0.0898,-89.4294,0.0,-0.0999,10.0294,0.0,-0.0467,4.6889,0.0002,-0.0
37612,-106.774,3.8158,-0.0105,-0.0884,-89.4294,0.0,-0.1009,10.1323,-0.0,-0.046,4.6183,-0.0002,-0.0
37629,-106.7763,4.0478,-0.0105,-0.087,-89.4294,0.0,-0.1019,10.2358,0.0,-0.0453,4.5484,0.0003,-0.0
37644,-106.7763,4.0478,-0.0105,-0.087,-89.4294,0.0,-0.1019,10.2358,0.0,-0.0453,4.5484,0.0003,-0.0
37659,-106.7786,4.2821,-0.0105,-0.0857,-89.4294,0.0,-0.103,10.3376,-0.0,-0.0446,4.4791,-0.0003,-0.0
37677,-106.7808,4.4989,-0.0105,-0.0845,-89.4294,0.0,-0.1039,10.4296,0.0,-0.0439,4.4137,0.0002,-0.0
37691,-106.783,4.7233,-0.0105,-0.0832,-89.4294,0.0,-0.1048,10.5227,0.0,-0.0434,4.3521,0.0002,-0.0
37707,-106.783,4.7233,-0.0105,-0.0832,-89.4294,0.0,-0.1048,10.5227,0.0,-0.0434,4.3521,0.0002,-0.0
37725,-106.7854,4.9618,-0.0106,-0.082,-89.4294,0.0,-0.1058,10.6193,0.0,-0.0427,4.289,0.0,-0.0
37741,-106.7877,5.1957,-0.0106,-0.0808,-89.4294,0.0,-0.1067,10.7119,-0.0,-0.0421,4.226,-0.0005,-0.0
37755,-106.7901,5.4286,-0.0106,-0.0796,-89.4294,0.0,-0.1076,10.802,-0.0,-0.0414,4.1653,-0.0001,-0.0
37771,-106.7901,5.4286,-0.0106,-0.0796,-89.4294,0.0,-0.1076,10.802,-0.0,-0.0414,4.1653,-0.0001,-0.0
37789,-106.7926,5.6828,-0.0106,-0.0784,-89.4294,0.0,-0.1085,10.8979,0.0,-0.0409,4.104,0.0003,-0.0
37805,-106.7949,5.9141,-0.0106,-0.0773,-89.4294,0.0,-0.1094,10.9833,0.0,-0.0403,4.0434,0.0001,-0.0
37821,-106.7972,6.1462,-0.0106,-0.0762,-89.4294,0.0,-0.1102,11.0672,-0.0,-0.0397,3.9877,-0.0008,-0.0
37835,-106.7972,6.1462,-0.0106,-0.0762,-89.4294,0.0,-0.1102,11.0672,-0.0,-0.0397,3.9877,-0.0008,-0.0
37852,-106.7995,6.3808,-0.0106,-0.0752,-89.4294,0.0,-0.111,11.1501,-0.0,-0.0391,3.9328,0.0001,-0.0
37869,-106.802,6.632,-0.0106,-0.0741,-89.4294,0.0,-0.1119,11.237,-0.0,-0.0387,3.8769,0.0003,-0.0
37883,-106.802,6.632,-0.0106,-0.0741,-89.4294,0.0,-0.1119,11.237,-0.0,-0.0387,3.8769,0.0003,-0.0
37899,-106.8046,6.8873,-0.0106,-0.073,-89.4294,0.0,-0.1128,11.3234,0.0,-0.0381,3.8197,0.0004,-0.0
37917,-106.807,7.1249,-0.0106,-0.072,-89.4294,0.0,-0.1136,11.402,0.0,-0.0375,3.765,0.0001,-0.0
37931,-106.8094,7.3708,-0.0106,-0.071,-89.4294,0.0,-0.1143,11.4817,0.0,-0.037,3.7132,-0.0001,-0.0
37947,-106.8094,7.3708,-0.0106,-0.071,-89.4294,0.0,-0.1143,11.4817,0.0,-0.037,3.7132,-0.0001,-0.0
37963,-106.8119,7.6196,-0.0106,-0.07,-89.4294,0.0,-0.1151,11.5607,0.0,-0.0365,3.6609,0.0,-0.0
37981,-106.8144,7.8734,-0.0106,-0.0691,-89.4294,-0.0,-0.1159,11.6396,-0.0,-0.0359,3.6089,-0.0003,-0.0
37996,-106.8169,8.1235,-0.0107,-0.0681,-89.4294,0.0,-0.1167,11.7157,-0.0,-0.0354,3.5578,0.0001,-0.0
38011,-106.8169,8.1235,-0.0107,-0.0681,-89.4294,0.0,-0.1167,11.7157,-0.0,-0.0354,3.5578,0.0001,-0.0
38027,-106.8195,8.3807,-0.0107,-0.0671,-89.4294,0.0,-0.1174,11.7923,-0.0,-0.0349,3.5077,-0.0006,-0.0
38045,-106.8221,8.6469,-0.0107,-0.0662,-89.4294,-0.0,-0.1182,11.87,0.0,-0.0345,3.4569,0.0008,-0.0
38059,-106.8247,8.9041,-0.0107,-0.0653,-89.4294,0.0,-0.1189,11.9436,-0.0,-0.0339,3.407,-0.0002,-0.0
38075,-106.8247,8.9041,-0.0107,-0.0653,-89.4294,0.0,-0.1189,11.9436,-0.0,-0.0339,3.407,-0.0002,-0.0
38092,-106.8274,9.1787,-0.0107,-0.0643,-89.4294,0.0,-0.1197,12.0204,0.0,-0.0334,3.3577,0.0003,-0.0
38107,-106.8301,9.4492,-0.0107,-0.0634,-89.4294,0.0,-0.1204,12.0946,0.0,-0.033,3.308,0.0,-0.0
38123,-106.8301,9.4492,-0.0107,-0.0634,-89.4294,0.0,-0.1204,12.0946,0.0,-0.033,3.308,0.0,-0.0
38139,-106.8327,9.7046,-0.0107,-0.0626,-89.4294,0.0,-0.1211,12.1632,0.0,-0.0325,3.2608,-0.0002,-0.0
38156,-106.8353,9.9702,-0.0107,-0.0617,-89.4294,0.0,-0.1218,12.2331,0.0,-0.032,3.2154,0.0002,-0.0
38171,-106.838,10.2405,-0.0107,-0.0608,-89.4294,0.0,-0.1225,12.3029,0.0,-0.0315,3.1695,0.0001,-0.0
38187,-106.838,10.2405,-0.0107,-0.0608,-89.4294,0.0,-0.1225,12.3029,0.0,-0.0315,3.1695,0.0001,-0.0
38203,-106.8407,10.5089,-0.0107,-0.06,-89.4294,0.0,-0.1232,12.3708,-0.0,-0.0312,3.1241,-0.0006,-0.0
38221,-106.8433,10.7792,-0.0107,-0.0592,-89.4294,0.0,-0.1239,12.4378,-0.0,-0.0306,3.0797,0.0002,-0.0
38235,-106.8461,11.051,-0.0107,-0.0584,-89.4294,0.0,-0.1245,12.504,0.0,-0.0303,3.0357,0.0005,-0.0
38251,-106.8461,11.051,-0.0107,-0.0584,-89.4294,0.0,-0.1245,12.504,0.0,-0.0303,3.0357,0.0005,-0.0
38269,-106.8487,11.3173,-0.0107,-0.0576,-89.4294,0.0,-0.1252,12.5675,0.0,-0.0298,2.9931,-0.0003,-0.0
38285,-106.8514,11.589,-0.0107,-0.0568,-89.4294,0.0,-0.1258,12.6309,0.0,-0.0293,2.9439,-0.0001,-0.0
38299,-106.8541,11.8623,-0.0107,-0.0559,-89.4294,0.0,-0.1264,12.6902,0.0,-0.0274,2.7498,0.0,-0.0
38315,-106.8541,11.8623,-0.0107,-0.0559,-89.4294,0.0,-0.1264,12.6902,0.0,-0.0274,2.7498,0.0,-0.0
38333,-106.8568,12.1325,-0.0108,-0.0549,-89.4294,0.0,-0.1269,12.7439,-0.0,-0.0252,2.5266,-0.0002,-0.0
38349,-106.8596,12.4083,-0.0108,-0.0537,-89.4294,-0.0,-0.1274,12.794,-0.0,-0.0231,2.3227,-0.0008,-0.0
38363,-106.8596,12.4083,-0.0108,-0.0537,-89.4294,-0.0,-0.1274,12.794,-0.0,-0.0231,2.3227,-0.0008,-0.0
38379,-106.8623,12.6826,-0.0108,-0.0523,-89.4294,-0.0,-0.1279,12.8396,0.0,-0.0213,2.1329,0.0013,-0.0
38396,-106.8651,12.9622,-0.0108,-0.0507,-89.4294,-0.0,-0.1283,12.8822,0.0,-0.0195,1.9589,-0.0001,-0.0
38413,-106.8679,13.2462,-0.0108,-0.0489,-89.4294,0.0,-0.1287,12.9217,0.0,-0.0178,1.7972,0.0001,-0.0
38428,-106.8707,13.5206,-0.0108,-0.0471,-89.4294,0.0,-0.129,12.9566,0.0,-0.0164,1.6462,-0.0,-0.0
38443,-106.8707,13.5206,-0.0108,-0.0471,-89.4294,0.0,-0.129,12.9566,0.0,-0.0164,1.6462,-0.0,-0.0
38461,-106.8736,13.8113,-0.0108,-0.045,-89.4294,0.0,-0.1294,12.9905,0.0,-0.0151,1.5128,-0.0,-0.0
38475,-106.8765,14.1039,-0.0108,-0.0429,-89.4294,0.0,-0.1297,13.0217,-0.0,-0.0138,1.3846,-0.0003,-0.0
38491,-106.8765,14.1039,-0.0108,-0.0429,-89.4294,0.0,-0.1297,13.0217,-0.0,-0.0138,1.3846,-0.0003,-0.0
38508,-106.8794,14.4052,-0.0109,-0.0407,-89.4294,0.0,-0.13,13.0509,-0.0,-0.0126,1.2666,-0.0003,-0.0
38539,-106.8825,14.7106,-0.0109,-0.0384,-89.4294,0.0,-0.1302,13.0779,0.0,-0.0115,1.1559,0.0006,-0.0
38555,-106.8866,15.0229,-0.0109,-0.0361,-89.4729,0.0074,-0.2201,13.0959,0.0,-3.7668,0.7538,0.0011,-3.0773
38573,-106.8936,15.3411,-0.0109,-0.0331,-89.6426,0.0294,-0.394,13.0941,0.0002,-7.1571,-0.0732,0.0086,-9.1542
38587,-106.8936,15.3411,-0.0109,-0.0331,-89.6426,0.0294,-0.394,13.0941,0.0002,-7.1571,-0.0732,0.0086,-9.1542
38603,-106.9038,15.6453,-0.0109,-0.0293,-89.972,0.0611,-0.6041,13.0732,0.0006,-9.0347,-0.9015,0.0134,-16.8088
38620,-106.9169,15.9329,-0.0109,-0.0247,-90.4659,0.0965,-0.8237,13.0375,0.0008,-9.9615,-1.6197,0.013,-25.2929
38635,-106.933,16.2108,-0.011,-0.0193,-91.1358,0.1326,-1.044,12.9902,0.0011,-10.3066,-2.213,0.01,-34.4417
38651,-106.933,16.2108,-0.011,-0.0193,-91.1358,0.1326,-1.044,12.9902,0.0011,-10.3066,-2.213,0.01,-34.4417
38669,-106.9522,16.4869,-0.011,-0.013,-92.0107,0.1677,-1.2628,12.9327,0.0012,-10.2555,-2.6927,0.0063,-44.3483
38684,-106.9744,16.7625,-0.011,-0.0061,-93.1107,0.1998,-1.4741,12.8673,0.0012,-9.8743,-3.054,0.0027,-54.9533
38699,-106.9997,17.0405,-0.011,0.0015,-94.4693,0.2277,-1.6745,12.7957,0.0012,-9.2177,-3.2978,-0.0022,-66.3121
38715,-106.9997,17.0405,-0.011,0.0015,-94.4693,0.2277,-1.6745,12.7957,0.0012,-9.2177,-3.2978,-0.0022,-66.3121
38733,-107.0268,17.3142,-0.0111,0.009,-96.0673,0.249,-1.8534,12.7222,0.0011,-8.2985,-3.4089,-0.0045,-78.062
38748,-107.0571,17.599,-0.0111,0.0168,-98.0253,0.2642,-2.0164,12.6447,0.0009,-7.2049,-3.4259,-0.0076,-90.8522
38763,-107.0571,17.599,-0.0111,0.0168,-98.0253,0.2642,-2.0164,12.6447,0.0009,-7.2049,-3.4259,-0.0076,-90.8522
38779,-107.0869,17.8676,-0.0111,0.0234,-100.1582,0.2709,-2.1415,12.5741,0.0007,-5.8168,-3.2798,-0.011,-103.3077
38797,-107.1174,18.1364,-0.0112,0.029,-102.5898,0.27,-2.2367,12.5072,0.0004,-4.3815,-3.0786,-0.0115,-116.1419
38813,-107.1484,18.4099,-0.0112,0.0333,-105.3833,0.2611,-2.2994,12.4445,0.0001,-2.8071,-2.8076,-0.0135,-129.5235
38827,-107.1484,18.4099,-0.0112,0.0333,-105.3833,0.2611,-2.2994,12.4445,0.0001,-2.8071,-2.8076,-0.0135,-129.5235
38843,-107.1766,18.6635,-0.0112,0.0356,-108.2686,0.2458,-2.3213,12.3935,-0.0001,-1.0474,-2.4396,-0.0134,-142.0984
38860,-107.2054,18.9371,-0.0112,0.0359,-111.7239,0.2218,-2.3083,12.3445,-0.0004,0.5718,-2.1462,-0.0129,-155.9358
38875,-107.2298,19.1853,-0.0112,0.0338,-115.1701,0.1945,-2.2562,12.3077,-0.0007,2.4838,-1.751,-0.0121,-168.5544
38891,-107.2298,19.1853,-0.0112,0.0338,-115.1701,0.1945,-2.2562,12.3077,-0.0007,2.4838,-1.751,-0.0121,-168.5544
38907,-107.2516,19.4352,-0.0112,0.0288,-118.9405,0.1602,-2.1381,12.2878,-0.0009,5.531,-0.9339,-0.0102,-180.3414
38924,-107.2692,19.6905,-0.0111,0.0188,-123.0591,0.115,-1.9084,12.2934,-0.0012,10.4219,0.2526,-0.0112,-189.8492
38939,-107.2805,19.9371,-0.0111,0.0037,-127.2472,0.0623,-1.6001,12.3044,-0.0015,14.3437,0.5134,-0.0146,-197.1485
38955,-107.2805,19.9371,-0.0111,0.0037,-127.2472,0.0623,-1.6001,12.3044,-0.0015,14.3437,0.5134,-0.0146,-197.1485
38972,-107.2846,20.1955,-0.0109,-0.0176,-131.8289,-0.001,-1.2055,12.3058,-0.0018,17.3427,0.0611,-0.0146,-203.3538
38988,-107.2798,20.4585,-0.0108,-0.0437,-136.6741,-0.0699,-0.7419,12.2837,-0.0006,19.7936,-0.9445,0.0515,-208.4652
39003,-107.2798,20.4585,-0.0108,-0.0437,-136.6741,-0.0699,-0.7419,12.2837,-0.0006,19.7936,-0.9445,0.0515,-208.4652
39019,-107.2664,20.7024,-0.0106,-0.0705,-141.324,-0.1342,-0.2675,12.2324,0.0005,21.533,-2.3283,0.0489,-212.2918
39037,-107.2439,20.9444,-0.0103,-0.0989,-146.0875,-0.198,0.2369,12.1449,0.0012,22.7045,-3.9375,0.033,-215.4478
39051,-107.2133,21.1744,-0.0101,-0.1264,-150.7608,-0.2571,0.7414,12.0216,0.0017,23.4463,-5.7316,0.0223,-218.0065
39067,-107.2133,21.1744,-0.0101,-0.1264,-150.7608,-0.2571,0.7414,12.0216,0.0017,23.4463,-5.7316,0.0223,-218.0065
39083,-107.1738,21.4012,-0.0099,-0.1536,-155.5204,-0.3139,1.2573,11.8564,0.002,23.7969,-7.617,0.0123,-220.2693
39100,-107.124,21.6289,-0.0096,-0.1805,-160.4757,-0.3691,1.7893,11.642,0.0021,23.7992,-9.5956,0.006,-222.404
39115,-107.124,21.6289,-0.0096,-0.1805,-160.4757,-0.3691,1.7893,11.642,0.0021,23.7992,-9.5956,0.006,-222.404
39149,-107.0002,22.0578,-0.0092,-0.2284,-170.3969,-0.4659,2.8101,11.0878,0.002,22.8117,-13.4934,-0.0028,-226.5582
39165,-106.932,22.2474,-0.009,-0.2471,-175.0931,-0.5078,3.2218,10.723,0.0021,19.9301,-17.6596,0.0012,-227.5545
39179,-106.8609,22.4249,-0.0088,-0.2613,-179.7321,-0.5531,3.5331,10.281,0.0021,15.3225,-21.7548,0.0025,-228.7576
39195,-106.8609,22.4249,-0.0088,-0.2613,-179.7321,-0.5531,3.5331,10.281,0.0021,15.3225,-21.7548,0.0025,-228.7576
39213,-106.7815,22.6047,-0.0087,-0.2724,175.2537,-0.6061,3.7946,9.7564,0.0021,11.9679,-24.0061,0.0009,-229.7591
39229,-106.7,22.7743,-0.0086,-0.2798,170.1743,-0.6614,3.9777,9.1864,0.0021,8.2958,-25.8236,0.0002,-230.263
39243,-106.7,22.7743,-0.0086,-0.2798,170.1743,-0.6614,3.9777,9.1864,0.0021,8.2958,-25.8236,0.0002,-230.263
39259,-106.6232,22.9238,-0.0085,-0.2835,165.3536,-0.7137,4.0712,8.621,0.0021,4.4653,-27.0094,-0.0026,-230.2252
39277,-106.5548,23.0545,-0.0085,-0.2799,160.8901,-0.7626,3.9039,8.1832,0.0021,-8.5134,-22.2771,-0.0022,-224.2676
39294,-106.4934,23.1862,-0.0086,-0.2631,156.5067,-0.7924,3.5034,7.8866,-0.0009,-19.7741,-14.6424,-0.145,-212.5819
39307,-106.4395,23.3221,-0.0089,-0.2349,152.0907,-0.8184,3.0348,7.5904,-0.0008,-21.8125,-13.7893,0.006,-202.4665
39323,-106.4395,23.3221,-0.0089,-0.2349,152.0907,-0.8184,3.0348,7.5904,-0.0008,-21.8125,-13.7893,0.006,-202.4665
39341,-106.398,23.4529,-0.0091,-0.1999,147.8859,-0.8487,2.5482,7.3056,0.0026,-22.8683,-13.388,0.1567,-195.4804
39356,-106.3705,23.572,-0.0093,-0.1639,144.0574,-0.8796,2.0817,7.0759,0.0021,-23.3748,-11.5095,-0.0238,-190.741
39371,-106.3539,23.6882,-0.0095,-0.1293,140.3881,-0.9039,1.5858,6.9422,0.0017,-25.1713,-6.7832,-0.0228,-184.396
39387,-106.3468,23.809,-0.0097,-0.095,136.7758,-0.9164,1.0644,6.9223,0.0011,-25.7116,-0.983,-0.0253,-174.7109
39403,-106.3468,23.809,-0.0097,-0.095,136.7758,-0.9164,1.0644,6.9223,0.0011,-25.7116,-0.983,-0.0253,-174.7109
39419,-106.3504,23.9345,-0.01,-0.0579,133.3446,-0.9171,0.544,6.9855,0.0007,-25.3499,3.0774,-0.0224,-163.283
39437,-106.3641,24.0605,-0.0103,-0.0183,130.2737,-0.9066,0.0561,7.1028,0.0003,-24.5485,5.9035,-0.0187,-151.553
39451,-106.3885,24.2056,-0.0106,0.0215,127.1358,-0.8886,-0.4441,7.271,-0.0001,-22.6994,7.6335,-0.0202,-137.6807
39467,-106.3885,24.2056,-0.0106,0.0215,127.1358,-0.8886,-0.4441,7.271,-0.0001,-22.6994,7.6335,-0.0202,-137.6807
39485,-106.425,24.3697,-0.0109,0.062,124.1016,-0.86,-0.921,7.4901,-0.0005,-20.0317,9.2025,-0.0145,-122.4184
39501,-106.4648,24.5248,-0.0111,0.0938,121.6412,-0.824,-1.2394,7.7178,-0.0008,-14.8095,10.5899,-0.0156,-110.8165
39515,-106.4648,24.5248,-0.0111,0.0938,121.6412,-0.824,-1.2394,7.7178,-0.0008,-14.8095,10.5899,-0.0156,-110.8165
39532,-106.515,24.7115,-0.0114,0.1241,119.0396,-0.7588,-1.4124,7.9908,-0.0012,-6.9836,11.019,-0.0171,-102.6737
39548,-106.5653,24.9023,-0.0116,0.1455,116.6179,-0.6738,-1.4333,8.2421,-0.0017,-0.858,10.3327,-0.0185,-98.3125
39563,-106.5653,24.9023,-0.0116,0.1455,116.6179,-0.6738,-1.4333,8.2421,-0.0017,-0.858,10.3327,-0.0185,-98.3125
39581,-106.6134,25.0973,-0.0117,0.1593,114.2921,-0.5756,-1.3496,8.4703,-0.0022,3.4809,9.4947,-0.0214,-96.1763
39595,-106.655,25.2817,-0.0119,0.1666,112.1792,-0.4803,-1.2093,8.6604,-0.0026,6.3464,8.5971,-0.0184,-95.3451
39611,-106.655,25.2817,-0.0119,0.1666,112.1792,-0.4803,-1.2093,8.6604,-0.0026,6.3464,8.5971,-0.0184,-95.3451
39627,-106.6972,25.4949,-0.012,0.1702,109.811,-0.3683,-1.0005,8.8553,-0.003,8.3832,7.8223,-0.016,-95.0171
39659,-106.733,25.7078,-0.012,0.1701,107.5011,-0.2633,-0.7572,9.0237,-0.0033,10.0131,6.9299,-0.0104,-95.1272
39677,-106.7678,25.9536,-0.0121,0.1684,104.9806,-0.1626,-0.6132,9.224,-0.0034,5.2588,7.3145,-0.0042,-89.7296
39691,-106.7951,26.1639,-0.0122,0.1668,103.0621,-0.111,-0.6201,9.3711,-0.0031,-0.3049,6.4211,0.0106,-80.3862
39707,-106.7951,26.1639,-0.0122,0.1668,103.0621,-0.111,-0.6201,9.3711,-0.0031,-0.3049,6.4211,0.0106,-80.3862
39724,-106.8239,26.3892,-0.0122,0.1633,101.3389,-0.0861,-0.7325,9.489,-0.0026,-4.6614,4.8909,0.0222,-66.7785
39739,-106.8546,26.6189,-0.0122,0.1571,99.9749,-0.0887,-0.9317,9.5549,-0.0019,-8.2,2.7136,0.0299,-50.6569
39755,-106.8546,26.6189,-0.0122,0.1571,99.9749,-0.0887,-0.9317,9.5549,-0.0019,-8.2,2.7136,0.0299,-50.6569
39771,-106.888,26.8548,-0.0122,0.148,98.9704,-0.1056,-1.1078,9.6034,-0.0009,-7.1198,1.9622,0.0375,-36.0064
39787,-106.9212,27.0838,-0.0121,0.1378,98.2855,-0.1188,-1.2094,9.6503,-0.0003,-4.2597,1.9639,0.0275,-25.428
39803,-106.9212,27.0838,-0.0121,0.1378,98.2855,-0.1188,-1.2094,9.6503,-0.0003,-4.2597,1.9639,0.0275,-25.428
39819,-106.9557,27.3226,-0.0121,0.1268,97.7935,-0.1235,-1.2627,9.6975,0.0,-2.157,1.9122,0.0134,-17.4249
39835,-106.9557,27.3226,-0.0121,0.1268,97.7935,-0.1235,-1.2627,9.6975,0.0,-2.157,1.9122,0.0134,-17.4249
39851,-106.9915,27.5756,-0.012,0.1151,97.4442,-0.1189,-1.2822,9.7421,0.0001,-0.7466,1.7087,0.0033,-11.6861
39869,-107.023,27.8045,-0.0119,0.1052,97.2309,-0.1093,-1.2812,9.7802,0.0001,0.0419,1.6281,-0.0026,-7.9067
39883,-107.023,27.8045,-0.0119,0.1052,97.2309,-0.1093,-1.2812,9.7802,0.0001,0.0419,1.6281,-0.0026,-7.9067
39899,-107.0551,28.044,-0.0115,0.1091,97.0704,-0.0569,-1.2772,9.7998,-0.0222,0.1616,0.797,-0.9096,-5.8314
39917,-107.0881,28.2945,-0.0114,0.1023,96.955,-0.0374,-1.2594,9.8281,-0.0107,0.7007,1.1116,0.4493,-3.986
39931,-107.0881,28.2945,-0.0114,0.1023,96.955,-0.0374,-1.2594,9.8281,-0.0107,0.7007,1.1116,0.4493,-3.986
39949,-107.119,28.534,-0.0115,0.0858,96.8821,-0.0499,-1.2419,9.8597,-0.0069,0.7176,1.2963,0.1559,-2.5085
39964,-107.1501,28.7793,-0.0115,0.073,96.8295,-0.0495,-1.2273,9.8785,-0.0046,0.5856,0.7569,0.0953,-2.0065
39979,-107.1501,28.7793,-0.0115,0.073,96.8295,-0.0495,-1.2273,9.8785,-0.0046,0.5856,0.7569,0.0953,-2.0065
39997,-107.1795,29.0167,-0.0115,0.0636,96.7967,-0.0444,-1.2176,9.9051,-0.003,0.4073,1.1088,0.0643,-1.0993
40012,-107.2099,29.2637,-0.0115,0.0555,96.771,-0.0377,-1.208,9.9147,-0.002,0.383,0.3849,0.0418,-0.9876
40027,-107.2099,29.2637,-0.0115,0.0555,96.771,-0.0377,-1.208,9.9147,-0.002,0.383,0.3849,0.0418,-0.9876
40045,-107.2413,29.5225,-0.0115,0.0486,96.7538,-0.0309,-1.2025,9.9427,-0.0013,0.2123,1.0733,0.0281,-0.5385
40059,-107.2701,29.7605,-0.0115,0.0431,96.742,-0.0255,-1.1962,9.9448,-0.0008,0.2614,0.0898,0.0201,-0.4462
40075,-107.2701,29.7605,-0.0115,0.0431,96.742,-0.0255,-1.1962,9.9448,-0.0008,0.2614,0.0898,0.0201,-0.4462
40091,-107.2995,30.0063,-0.0115,0.0385,96.7337,-0.0206,-1.1939,9.972,-0.0005,0.095,1.1015,0.0127,-0.2922
40107,-107.3288,30.2513,-0.0114,0.0345,96.7278,-0.0167,-1.1899,9.975,-0.0002,0.1638,0.1207,0.0089,-0.2176
40123,-107.3288,30.2513,-0.0114,0.0345,96.7278,-0.0167,-1.1899,9.975,-0.0002,0.1638,0.1207,0.0089,-0.2176
40141,-107.3584,30.4995,-0.0114,0.0311,96.7236,-0.0134,-1.1894,10.0013,-0.0001,0.0165,1.0601,0.0064,-0.1486
40155,-107.3584,30.4995,-0.0114,0.0311,96.7236,-0.0134,-1.1894,10.0013,-0.0001,0.0165,1.0601,0.0064,-0.1486
40171,-107.3884,30.7532,-0.011,0.0074,96.7166,0.0131,-1.1897,9.9891,-0.0095,-0.0091,-0.4791,-0.369,-0.5629
40189,-107.4211,31.0284,-0.0109,0.0044,96.714,0.0127,-1.19,10.0302,-0.0056,-0.012,1.4967,0.1415,0.0716
40203,-107.4211,31.0284,-0.0109,0.0044,96.714,0.0127,-1.19,10.0302,-0.0056,-0.012,1.4967,0.1415,0.0716
40221,-107.4508,31.2784,-0.0111,0.0121,96.7092,0.0013,-1.1856,10.0246,-0.0038,0.1788,-0.2253,0.0697,-0.1875
40235,-107.4508,31.2784,-0.0111,0.0121,96.7092,0.0013,-1.1856,10.0246,-0.0038,0.1788,-0.2253,0.0697,-0.1875
40251,-107.4806,31.53,-0.0112,0.0162,96.7064,-0.0031,-1.1865,10.0521,-0.0025,-0.0382,1.0964,0.0531,-0.0966
40268,-107.5104,31.7828,-0.0113,0.0177,96.7042,-0.0045,-1.1851,10.0527,-0.0015,0.0552,0.025,0.0385,-0.079
40283,-107.5104,31.7828,-0.0113,0.0177,96.7042,-0.0045,-1.1851,10.0527,-0.0015,0.0552,0.025,0.0385,-0.079
40299,-107.54,32.0337,-0.0113,0.0181,96.7027,-0.0046,-1.1872,10.0791,-0.0009,-0.0835,1.0578,0.0252,-0.0521
40317,-107.5687,32.2774,-0.0113,0.0178,96.7017,-0.0043,-1.1867,10.0814,-0.0005,0.0189,0.097,0.0164,-0.0387
40331,-107.5687,32.2774,-0.0113,0.0178,96.7017,-0.0043,-1.1867,10.0814,-0.0005,0.0189,0.097,0.0164,-0.0387
40347,-107.5981,32.5271,-0.0113,0.0173,96.701,-0.0038,-1.1891,10.106,-0.0003,-0.0936,0.9957,0.0103,-0.0264
40363,-107.6294,32.7936,-0.0113,0.0164,96.7004,-0.0032,-1.1885,10.1055,-0.0001,0.0201,-0.0209,0.0066,-0.019
40379,-107.6294,32.7936,-0.0113,0.0164,96.7004,-0.0032,-1.1885,10.1055,-0.0001,0.0201,-0.0209,0.0066,-0.019
40397,-107.6595,33.0493,-0.0113,0.0156,96.7,-0.0027,-1.1913,10.132,0.0,-0.1096,1.0478,0.0041,-0.0132
40411,-107.6888,33.2983,-0.0113,0.0147,96.6997,-0.0023,-1.1911,10.1324,0.0001,0.0085,0.0186,0.0028,-0.0097
40427,-107.6888,33.2983,-0.0113,0.0147,96.6997,-0.0023,-1.1911,10.1324,0.0001,0.0085,0.0186,0.0028,-0.0097
40444,-107.719,33.5558,-0.0113,0.0141,96.6996,-0.0019,-1.1938,10.1576,0.0001,-0.1079,0.9909,0.0004,-0.0067
40461,-107.7476,33.7986,-0.0113,0.0134,96.6994,-0.0016,-1.1939,10.1595,0.0001,-0.0032,0.0833,0.0008,-0.005
40475,-107.7476,33.7986,-0.0113,0.0134,96.6994,-0.0016,-1.1939,10.1595,0.0001,-0.0032,0.0833,0.0008,-0.005
40493,-107.7772,34.051,-0.0113,0.013,96.6993,-0.0014,-1.1965,10.183,0.0001,-0.1056,0.9444,0.0004,-0.0034
40507,-107.7772,34.051,-0.0113,0.013,96.6993,-0.0014,-1.1965,10.183,0.0001,-0.1056,0.9444,0.0004,-0.0034
40523,-107.8072,34.306,-0.0113,0.0124,96.6992,-0.0012,-1.1966,10.1848,0.0001,-0.0044,0.0724,-0.0003,-0.0025
40541,-107.8372,34.562,-0.0113,0.012,96.6992,-0.001,-1.1993,10.2085,0.0001,-0.1077,0.9443,0.0001,-0.0018
40555,-107.8372,34.562,-0.0113,0.012,96.6992,-0.001,-1.1993,10.2085,0.0001,-0.1077,0.9443,0.0001,-0.0018
40571,-107.8671,34.8158,-0.0113,0.0115,96.6992,-0.0009,-1.1994,10.2093,0.0001,-0.0014,0.0332,-0.0008,-0.0013
40589,-107.8955,35.0579,-0.0113,0.0113,96.6991,-0.0007,-1.202,10.2319,0.0001,-0.11,0.953,-0.0004,-0.0009
40603,-107.8955,35.0579,-0.0113,0.0113,96.6991,-0.0007,-1.202,10.2319,0.0001,-0.11,0.953,-0.0004,-0.0009
40619,-107.9244,35.3042,-0.0112,0.011,96.6991,-0.0006,-1.2025,10.2364,0.0001,-0.0204,0.1866,-0.0006,-0.0006
40635,-107.9543,35.5582,-0.0112,0.0108,96.6991,-0.0005,-1.2049,10.2576,0.0001,-0.0993,0.8557,-0.0001,-0.0005
40651,-107.9543,35.5582,-0.0112,0.0108,96.6991,-0.0005,-1.2049,10.2576,0.0001,-0.0993,0.8557,-0.0001,-0.0005
40669,-107.9836,35.8074,-0.0112,0.0105,96.6991,-0.0005,-1.2053,10.2605,0.0001,-0.0134,0.1217,-0.0005,-0.0003
40683,-108.0131,36.0589,-0.0112,0.0104,96.6991,-0.0004,-1.2077,10.2815,0.0001,-0.1001,0.8582,-0.0004,-0.0002
40699,-108.0131,36.0589,-0.0112,0.0104,96.6991,-0.0004,-1.2077,10.2815,0.0001,-0.1001,0.8582,-0.0004,-0.0002
40717,-108.0441,36.3226,-0.0112,0.0101,96.6991,-0.0003,-1.2078,10.2829,0.0001,-0.0055,0.0515,-0.0004,-0.0002
40731,-108.0441,36.3226,-0.0112,0.0101,96.6991,-0.0003,-1.2078,10.2829,0.0001,-0.0055,0.0515,-0.0004,-0.0002
40747,-108.0756,36.591,-0.0112,0.0099,96.6991,-0.0003,-1.2105,10.3058,0.0,-0.1028,0.8788,-0.0004,-0.0001
40765,-108.1049,36.8402,-0.0112,0.0096,96.6991,-0.0003,-1.2105,10.3054,0.0,0.0023,-0.0162,-0.0001,-0.0001
40779,-108.1049,36.8402,-0.0112,0.0096,96.6991,-0.0003,-1.2105,10.3054,0.0,0.0023,-0.0162,-0.0001,-0.0001
40795,-108.136,37.105,-0.0112,0.0096,96.6991,-0.0003,-1.2131,10.3279,0.0,-0.1029,0.8778,-0.0001,-0.0001
40812,-108.1683,37.3804,-0.0112,0.0091,96.6991,-0.0002,-1.2127,10.3248,0.0,0.0138,-0.1157,-0.0002,-0.0
40827,-108.1683,37.3804,-0.0112,0.0091,96.6991,-0.0002,-1.2127,10.3248,0.0,0.0138,-0.1157,-0.0002,-0.0
