timestamp,x,y,z,pitch,yaw,roll,vx,vy,vz,ax,ay,az,yaw_rate
39922,-106.6867,-4.8475,0.4719,0.0,-89.3578,0.0,0.0,0.0,-1.5391,0.0,0.0,-9.8,0.0
39938,-106.6867,-4.8475,0.4719,0.0,-89.3578,0.0,0.0,0.0,-1.5391,0.0,0.0,-9.8,0.0
39954,-106.6867,-4.8475,0.4719,0.0,-89.3578,0.0,0.0,0.0,-1.5391,0.0,0.0,-9.8,0.0
39970,-106.6867,-4.8475,0.4719,0.0,-89.3578,0.0,0.0,0.0,-1.5391,0.0,0.0,-9.8,0.0
39986,-106.6867,-4.8475,0.4719,0.0,-89.3578,0.0,0.0,0.0,-1.5391,0.0,0.0,-9.8,0.0
40002,-106.6867,-4.8475,0.3158,0.0,-89.3578,0.0,0.0,0.0,-2.3137,0.0,0.0,-9.8,0.0
40018,-106.6867,-4.8475,0.3158,0.0,-89.3578,0.0,0.0,0.0,-2.3137,0.0,0.0,-9.8,0.0
40034,-106.6867,-4.8475,0.3158,0.0,-89.3578,0.0,0.0,0.0,-2.3137,0.0,0.0,-9.8,0.0
40050,-106.6867,-4.8475,0.2241,0.0,-89.3578,0.0,0.0,0.0,-2.6681,0.0,0.0,-9.8,0.0
40066,-106.6867,-4.8475,0.2241,0.0,-89.3578,0.0,0.0,0.0,-2.6681,0.0,0.0,-9.8,0.0
40082,-106.6867,-4.8475,0.1304,0.0,-89.3578,0.0,0.0,0.0,-2.9884,0.0,0.0,-9.8,0.0
40099,-106.6867,-4.8475,0.1304,0.0,-89.3578,0.0,0.0,0.0,-2.9884,0.0,0.0,-9.8,0.0
40114,-106.6867,-4.8462,0.0308,-0.0019,-89.3578,0.0,-0.0006,0.0518,-2.7594,-0.0178,1.5833,6.9919,0.0
40130,-106.6868,-4.8442,-0.028,-0.0035,-89.3578,0.0,-0.0008,0.0758,-1.6389,-0.009,0.8089,37.8536,-0.0
40146,-106.6868,-4.8442,-0.028,-0.0035,-89.3578,0.0,-0.0008,0.0758,-1.6389,-0.009,0.8089,37.8536,-0.0
40162,-106.6868,-4.8424,-0.062,-0.0038,-89.3578,0.0,-0.0008,0.0744,-0.8477,0.0005,-0.0467,25.8669,-0.0
40178,-106.6868,-4.8424,-0.062,-0.0038,-89.3578,0.0,-0.0008,0.0744,-0.8477,0.0005,-0.0467,25.8669,-0.0
40195,-106.6868,-4.841,-0.0773,-0.0031,-89.3578,0.0,-0.0004,0.033,-0.3879,0.016,-1.4268,15.8687,-0.0
40210,-106.6868,-4.841,-0.0773,-0.0031,-89.3578,0.0,-0.0004,0.033,-0.3879,0.016,-1.4268,15.8687,-0.0
40228,-106.6869,-4.8354,-0.0827,-0.0087,-89.3542,0.0,-0.0035,0.3052,-0.0787,-0.1054,9.0369,10.2639,0.1391
40242,-106.6869,-4.8354,-0.0827,-0.0087,-89.3542,0.0,-0.0035,0.3052,-0.0787,-0.1054,9.0369,10.2639,0.1391
40260,-106.6872,-4.8229,-0.0814,-0.0197,-89.3374,0.0001,-0.006,0.44,0.0934,-0.0821,4.5911,5.8607,-0.6304
40274,-106.6872,-4.8229,-0.0814,-0.0197,-89.3374,0.0001,-0.006,0.44,0.0934,-0.0821,4.5911,5.8607,-0.6304
40290,-106.6873,-4.8049,-0.0764,-0.0306,-89.3432,-0.0,-0.0072,0.6535,0.1926,-0.0401,6.9666,3.2373,-0.1144
40306,-106.6873,-4.8049,-0.0764,-0.0306,-89.3432,-0.0,-0.0072,0.6535,0.1926,-0.0401,6.9666,3.2373,-0.1144
40322,-106.6875,-4.7833,-0.0699,-0.0401,-89.3524,-0.0001,-0.0086,0.8329,0.2345,-0.0496,6.3105,1.4762,-0.5286
40338,-106.6877,-4.7558,-0.0626,-0.049,-89.3578,-0.0002,-0.0102,0.9909,0.2463,-0.0534,5.3179,0.3948,-0.0253
40354,-106.6877,-4.7558,-0.0626,-0.049,-89.3578,-0.0002,-0.0102,0.9909,0.2463,-0.0534,5.3179,0.3948,-0.0253
40370,-106.6876,-4.7256,-0.0549,-0.0547,-89.4076,-0.0008,-0.0035,1.0281,0.2692,0.2333,1.29,0.7977,0.0241
40386,-106.6876,-4.7256,-0.0549,-0.0547,-89.4076,-0.0008,-0.0035,1.0281,0.2692,0.2333,1.29,0.7977,0.0241
40404,-106.6879,-4.6893,-0.0476,-0.0614,-89.4047,-0.0009,-0.0099,1.2618,0.2364,-0.2201,7.9509,-1.1185,0.0787
40418,-106.6879,-4.6893,-0.0476,-0.0614,-89.4047,-0.0009,-0.0099,1.2618,0.2364,-0.2201,7.9509,-1.1185,0.0787
40436,-106.6882,-4.6538,-0.0413,-0.0576,-89.4029,-0.0006,-0.0101,1.1584,0.2028,-0.006,-3.471,-1.1277,0.0478
40450,-106.6882,-4.6538,-0.0413,-0.0576,-89.4029,-0.0006,-0.0101,1.1584,0.2028,-0.006,-3.471,-1.1277,0.0478
40466,-106.6885,-4.6198,-0.0362,-0.0528,-89.402,-0.0004,-0.0118,1.2386,0.1715,-0.06,2.8598,-1.1167,0.0276
40482,-106.6885,-4.6198,-0.0362,-0.0528,-89.402,-0.0004,-0.0118,1.2386,0.1715,-0.06,2.8598,-1.1167,0.0276
40498,-106.6888,-4.5861,-0.0318,-0.0448,-89.4014,-0.0002,-0.0112,1.1392,0.1454,0.0218,-3.4412,-0.9046,0.017
40514,-106.6892,-4.546,-0.028,-0.0446,-89.4021,0.0,-0.0133,1.3247,0.117,-0.0695,6.0967,-0.931,2.0964
40530,-106.6892,-4.546,-0.028,-0.0446,-89.4021,0.0,-0.0133,1.3247,0.117,-0.0695,6.0967,-0.931,2.0964
40548,-106.6899,-4.5017,-0.0249,-0.0495,-89.3827,0.0005,-0.019,1.5543,0.1013,-0.1975,7.9166,-0.5416,0.6146
40562,-106.6899,-4.5017,-0.0249,-0.0495,-89.3827,0.0005,-0.019,1.5543,0.1013,-0.1975,7.9166,-0.5416,0.6146
40579,-106.6908,-4.4569,-0.0223,-0.0478,-89.3373,0.001,-0.0203,1.4894,0.0833,-0.0438,-2.2077,-0.6113,1.2563
40594,-106.6908,-4.4569,-0.0223,-0.0478,-89.3373,0.001,-0.0203,1.4894,0.0833,-0.0438,-2.2077,-0.6113,1.2563
40612,-106.6917,-4.4084,-0.0201,-0.0479,-89.3192,0.0014,-0.0261,1.6772,0.0657,-0.1919,6.249,-0.5866,0.9583
40626,-106.6917,-4.4084,-0.0201,-0.0479,-89.3192,0.0014,-0.0261,1.6772,0.0657,-0.1919,6.249,-0.5866,0.9583
40642,-106.6924,-4.355,-0.0183,-0.0498,-89.3235,0.0014,-0.0249,1.8043,0.0541,0.0396,4.1518,-0.3797,-0.0966
40658,-106.6924,-4.355,-0.0183,-0.0498,-89.3235,0.0014,-0.0249,1.8043,0.0541,0.0396,4.1518,-0.3797,-0.0966
40676,-106.6931,-4.3001,-0.0169,-0.0502,-89.3213,0.0009,-0.0241,1.8873,0.0442,0.0242,2.7635,-0.3286,0.0709
40690,-106.6931,-4.3001,-0.0169,-0.0502,-89.3213,0.0009,-0.0241,1.8873,0.0442,0.0242,2.7635,-0.3286,0.0709
40706,-106.694,-4.2413,-0.0157,-0.0497,-89.308,0.0006,-0.026,2.0023,0.036,-0.061,3.7291,-0.2665,-0.9386
40722,-106.694,-4.2413,-0.0157,-0.0497,-89.308,0.0006,-0.026,2.0023,0.036,-0.061,3.7291,-0.2665,-0.9386
40738,-106.6946,-4.1815,-0.0147,-0.051,-89.3101,0.0001,-0.0235,2.0122,0.0303,0.0869,0.3392,-0.1964,-0.0565
40754,-106.6952,-4.1195,-0.014,-0.0508,-89.3269,0.0,-0.0262,2.1918,0.0243,-0.0915,6.0985,-0.2022,-2.2932
40770,-106.6952,-4.1195,-0.014,-0.0508,-89.3269,0.0,-0.0262,2.1918,0.0243,-0.0915,6.0985,-0.2022,-2.2932
40788,-106.6963,-4.0586,-0.0134,-0.0457,-89.2748,-0.0,-0.0229,2.0746,0.0195,0.1121,-4.0168,-0.1639,2.2492
40802,-106.6963,-4.0586,-0.0134,-0.0457,-89.2748,-0.0,-0.0229,2.0746,0.0195,0.1121,-4.0168,-0.1639,2.2492
40819,-106.6972,-3.9866,-0.0128,-0.0529,-89.278,0.0001,-0.0304,2.5021,0.0151,-0.2474,14.0411,-0.1443,-0.9699
40834,-106.6972,-3.9866,-0.0128,-0.0529,-89.278,0.0001,-0.0304,2.5021,0.0151,-0.2474,14.0411,-0.1443,-0.9699
40852,-106.698,-3.9082,-0.0124,-0.0596,-89.2968,-0.0001,-0.0317,2.6548,0.0123,-0.0409,4.9814,-0.094,-1.3843
40866,-106.698,-3.9082,-0.0124,-0.0596,-89.2968,-0.0001,-0.0317,2.6548,0.0123,-0.0409,4.9814,-0.094,-1.3843
40883,-106.6987,-3.8227,-0.012,-0.0699,-89.329,-0.0004,-0.033,2.9526,0.0099,-0.0425,9.8628,-0.0777,-1.0324
40898,-106.6987,-3.8227,-0.012,-0.0699,-89.329,-0.0004,-0.033,2.9526,0.0099,-0.0425,9.8628,-0.0777,-1.0324
40914,-106.6993,-3.7363,-0.0117,-0.0744,-89.3692,-0.001,-0.0298,2.9232,0.0083,0.1096,-1.0137,-0.0545,-1.008
40930,-106.6993,-3.7363,-0.0117,-0.0744,-89.3692,-0.001,-0.0298,2.9232,0.0083,0.1096,-1.0137,-0.0545,-1.008
40946,-106.6999,-3.6437,-0.0114,-0.0792,-89.4111,-0.0013,-0.0322,3.2153,0.0067,-0.0838,9.9953,-0.0571,-1.3005
40962,-106.7008,-3.5475,-0.0113,-0.0795,-89.4249,-0.0014,-0.0324,3.2866,0.0053,-0.0045,2.4235,-0.0447,-0.8087
40978,-106.7008,-3.5475,-0.0113,-0.0795,-89.4249,-0.0014,-0.0324,3.2866,0.0053,-0.0045,2.4235,-0.0447,-0.8087
40996,-106.7017,-3.4476,-0.0111,-0.0795,-89.4366,-0.0012,-0.0352,3.5012,0.0043,-0.0964,7.3114,-0.0361,-1.6453
41010,-106.7017,-3.4476,-0.0111,-0.0795,-89.4366,-0.0012,-0.0352,3.5012,0.0043,-0.0964,7.3114,-0.0361,-1.6453
41027,-106.7028,-3.3392,-0.011,-0.0795,-89.4356,-0.001,-0.0372,3.659,0.0033,-0.0668,5.1563,-0.033,-1.0911
41042,-106.7028,-3.3392,-0.011,-0.0795,-89.4356,-0.001,-0.0372,3.659,0.0033,-0.0668,5.1563,-0.033,-1.0911
41060,-106.7039,-3.2259,-0.0109,-0.0819,-89.4309,-0.0008,-0.0395,3.8562,0.0027,-0.0749,6.5163,-0.0207,-1.1104
41074,-106.7039,-3.2259,-0.0109,-0.0819,-89.4309,-0.0008,-0.0395,3.8562,0.0027,-0.0749,6.5163,-0.0207,-1.1104
41092,-106.7052,-3.1119,-0.0108,-0.0819,-89.418,-0.0007,-0.0389,3.843,0.0022,0.0201,-0.4532,-0.0148,-0.8894
41106,-106.7052,-3.1119,-0.0108,-0.0819,-89.418,-0.0007,-0.0389,3.843,0.0022,0.0201,-0.4532,-0.0148,-0.8894
41122,-106.7061,-2.9903,-0.0108,-0.0852,-89.4526,-0.001,-0.04,4.1994,0.0018,-0.037,12.0332,-0.0141,-2.0934
41138,-106.7061,-2.9903,-0.0108,-0.0852,-89.4526,-0.001,-0.04,4.1994,0.0018,-0.037,12.0332,-0.0141,-2.0934
41154,-106.7069,-2.8651,-0.0107,-0.0847,-89.4856,-0.0016,-0.0364,4.2179,0.0015,0.1221,0.6246,-0.0117,0.2195
41170,-106.7078,-2.7314,-0.0107,-0.0887,-89.5246,-0.002,-0.0376,4.582,0.0011,-0.04,12.1356,-0.0112,-0.4187
41186,-106.7078,-2.7314,-0.0107,-0.0887,-89.5246,-0.002,-0.0376,4.582,0.0011,-0.04,12.1356,-0.0112,-0.4187
41204,-106.7088,-2.5883,-0.0105,-0.0991,-89.5406,-0.0021,-0.0394,4.9126,0.0009,-0.0621,11.1448,-0.0058,-0.0595
41218,-106.7088,-2.5883,-0.0105,-0.0991,-89.5406,-0.0021,-0.0394,4.9126,0.0009,-0.0621,11.1448,-0.0058,-0.0595
41236,-106.71,-2.4319,-0.0105,-0.1061,-89.5515,-0.002,-0.0412,5.2169,0.0007,-0.0585,9.8108,-0.0072,-0.4205
41250,-106.71,-2.4319,-0.0105,-0.1061,-89.5515,-0.002,-0.0412,5.2169,0.0007,-0.0585,9.8108,-0.0072,-0.4205
41267,-106.7112,-2.2718,-0.0104,-0.1145,-89.5587,-0.002,-0.0421,5.4277,0.0006,-0.0303,7.0978,-0.0038,-0.1949
41282,-106.7112,-2.2718,-0.0104,-0.1145,-89.5587,-0.002,-0.0421,5.4277,0.0006,-0.0303,7.0978,-0.0038,-0.1949
41300,-106.7125,-2.0951,-0.0104,-0.1177,-89.5635,-0.0018,-0.0436,5.6696,0.0004,-0.0454,7.6401,-0.0051,-0.1057
41314,-106.7125,-2.0951,-0.0104,-0.1177,-89.5635,-0.0018,-0.0436,5.6696,0.0004,-0.0454,7.6401,-0.0051,-0.1057
41331,-106.7138,-1.9239,-0.0103,-0.1194,-89.5661,-0.0016,-0.0449,5.8703,0.0004,-0.0443,6.8235,-0.0018,-0.0489
41346,-106.7138,-1.9239,-0.0103,-0.1194,-89.5661,-0.0016,-0.0449,5.8703,0.0004,-0.0443,6.8235,-0.0018,-0.0489
41362,-106.7151,-1.7495,-0.0104,-0.1142,-89.5685,-0.0014,-0.045,5.9271,0.0003,-0.0054,1.9185,-0.0031,-0.0911
41378,-106.7151,-1.7495,-0.0104,-0.1142,-89.5685,-0.0014,-0.045,5.9271,0.0003,-0.0054,1.9185,-0.0031,-0.0911
41394,-106.7165,-1.5629,-0.0104,-0.1128,-89.5687,-0.0013,-0.0471,6.225,0.0002,-0.0677,9.7571,-0.0026,-0.0347
41410,-106.7165,-1.5629,-0.0104,-0.1128,-89.5687,-0.0013,-0.0471,6.225,0.0002,-0.0677,9.7571,-0.0026,-0.0347
41426,-106.718,-1.365,-0.0103,-0.1171,-89.5691,-0.0011,-0.0494,6.5452,0.0002,-0.0734,10.4197,-0.0011,-0.0089
41442,-106.7196,-1.1548,-0.0103,-0.1222,-89.5693,-0.001,-0.0514,6.8329,0.0002,-0.0663,9.2201,-0.0011,0.0001
41458,-106.7196,-1.1548,-0.0103,-0.1222,-89.5693,-0.001,-0.0514,6.8329,0.0002,-0.0663,9.2201,-0.0011,0.0001
41474,-106.7212,-0.9465,-0.0102,-0.1256,-89.5695,-0.0009,-0.0532,7.0799,0.0001,-0.0603,8.3014,-0.0007,-0.018
41490,-106.7212,-0.9465,-0.0102,-0.1256,-89.5695,-0.0009,-0.0532,7.0799,0.0001,-0.0603,8.3014,-0.0007,-0.018
41506,-106.7228,-0.7356,-0.0103,-0.1214,-89.5695,-0.0008,-0.0534,7.105,0.0001,-0.0055,0.8466,-0.0009,-0.0117
41522,-106.7228,-0.7356,-0.0103,-0.1214,-89.5695,-0.0008,-0.0534,7.105,0.0001,-0.0055,0.8466,-0.0009,-0.0117
41540,-106.7244,-0.5176,-0.0103,-0.1174,-89.5696,-0.0006,-0.0552,7.3424,0.0001,-0.0587,7.9052,-0.0009,-0.0027
41554,-106.7244,-0.5176,-0.0103,-0.1174,-89.5696,-0.0006,-0.0552,7.3424,0.0001,-0.0587,7.9052,-0.0009,-0.0027
41571,-106.7262,-0.2792,-0.0103,-0.1169,-89.5697,-0.0005,-0.0571,7.5989,0.0001,-0.0602,8.0808,-0.0006,-0.0008
41586,-106.7262,-0.2792,-0.0103,-0.1169,-89.5697,-0.0005,-0.0571,7.5989,0.0001,-0.0602,8.0808,-0.0006,-0.0008
41604,-106.7279,-0.0469,-0.0103,-0.1172,-89.5697,-0.0005,-0.0588,7.8245,0.0001,-0.0561,7.5295,-0.0001,-0.0035
41618,-106.7279,-0.0469,-0.0103,-0.1172,-89.5697,-0.0005,-0.0588,7.8245,0.0001,-0.0561,7.5295,-0.0001,-0.0035
41636,-106.7298,0.1963,-0.0103,-0.1155,-89.5698,-0.0004,-0.0601,8.0054,0.0,-0.0441,5.8886,-0.0012,-0.0015
41650,-106.7298,0.1963,-0.0103,-0.1155,-89.5698,-0.0004,-0.0601,8.0054,0.0,-0.0441,5.8886,-0.0012,-0.0015
41668,-106.7316,0.4452,-0.0103,-0.1145,-89.5698,-0.0003,-0.0617,8.2122,0.0,-0.0505,6.7526,0.0003,-0.0009
41682,-106.7316,0.4452,-0.0103,-0.1145,-89.5698,-0.0003,-0.0617,8.2122,0.0,-0.0505,6.7526,0.0003,-0.0009
41698,-106.7335,0.689,-0.0103,-0.1133,-89.5698,-0.0003,-0.0629,8.3802,0.0,-0.043,5.7378,-0.0001,0.0002
41714,-106.7335,0.689,-0.0103,-0.1133,-89.5698,-0.0003,-0.0629,8.3802,0.0,-0.043,5.7378,-0.0001,0.0002
41730,-106.7352,0.9412,-0.0104,-0.1152,-89.5741,-0.0131,-0.0647,8.5447,-0.005,-0.0597,5.5402,-0.1703,-0.1558
41746,-106.7371,1.1926,-0.0105,-0.1122,-89.5767,-0.0204,-0.0654,8.5933,-0.0022,-0.0229,1.6597,0.0959,-0.0804
41762,-106.7371,1.1926,-0.0105,-0.1122,-89.5767,-0.0204,-0.0654,8.5933,-0.0022,-0.0229,1.6597,0.0959,-0.0804
41780,-106.7391,1.4608,-0.0106,-0.1088,-89.5788,-0.0212,-0.0662,8.7931,-0.0006,-0.0273,6.4931,0.0528,-0.0557
41794,-106.7391,1.4608,-0.0106,-0.1088,-89.5788,-0.0212,-0.0662,8.7931,-0.0006,-0.0273,6.4931,0.0528,-0.0557
41812,-106.7411,1.7233,-0.0106,-0.1074,-89.5801,-0.0195,-0.067,8.9965,0.0002,-0.0265,6.9212,0.0267,-0.0371
41826,-106.7411,1.7233,-0.0106,-0.1074,-89.5801,-0.0195,-0.067,8.9965,0.0002,-0.0265,6.9212,0.0267,-0.0371
41844,-106.7431,1.9944,-0.0106,-0.1051,-89.5807,-0.0172,-0.0674,9.1267,0.0006,-0.0129,4.3653,0.0139,-0.0151
41858,-106.7431,1.9944,-0.0106,-0.1051,-89.5807,-0.0172,-0.0674,9.1267,0.0006,-0.0129,4.3653,0.0139,-0.0151
41876,-106.7451,2.2648,-0.0106,-0.102,-89.5812,-0.015,-0.0681,9.2738,0.0008,-0.0241,5.0183,0.0063,-0.0142
41890,-106.7451,2.2648,-0.0106,-0.102,-89.5812,-0.015,-0.0681,9.2738,0.0008,-0.0241,5.0183,0.0063,-0.0142
41906,-106.7471,2.5438,-0.0106,-0.0968,-89.5815,-0.0129,-0.0684,9.3498,0.0008,-0.01,2.5402,0.0012,-0.0093
41922,-106.7492,2.8194,-0.0106,-0.0927,-89.5817,-0.011,-0.0693,9.5028,0.0008,-0.0326,5.2443,-0.0006,-0.006
41938,-106.7492,2.8194,-0.0106,-0.0927,-89.5817,-0.011,-0.0693,9.5028,0.0008,-0.0326,5.2443,-0.0006,-0.006
41954,-106.7513,3.1048,-0.0106,-0.0886,-89.5818,-0.0094,-0.0699,9.5997,0.0007,-0.02,3.2495,-0.0024,-0.0038
41970,-106.7513,3.1048,-0.0106,-0.0886,-89.5818,-0.0094,-0.0699,9.5997,0.0007,-0.02,3.2495,-0.0024,-0.0038
41987,-106.7533,3.3861,-0.0106,-0.0863,-89.5819,-0.008,-0.071,9.7625,0.0006,-0.0389,5.6146,-0.003,-0.0023
42002,-106.7533,3.3861,-0.0106,-0.0863,-89.5819,-0.008,-0.071,9.7625,0.0006,-0.0389,5.6146,-0.003,-0.0023
42020,-106.7554,3.6736,-0.0106,-0.0843,-89.582,-0.0068,-0.0719,9.8798,0.0006,-0.0282,4.0157,-0.003,-0.0017
42034,-106.7554,3.6736,-0.0106,-0.0843,-89.582,-0.0068,-0.0719,9.8798,0.0006,-0.0282,4.0157,-0.003,-0.0017
42052,-106.7575,3.9617,-0.0106,-0.0838,-89.582,-0.0058,-0.0731,10.0497,0.0005,-0.0427,5.8937,-0.0029,-0.001
42066,-106.7575,3.9617,-0.0106,-0.0838,-89.582,-0.0058,-0.0731,10.0497,0.0005,-0.0427,5.8937,-0.0029,-0.001
42082,-106.7597,4.2608,-0.0106,-0.0832,-89.582,-0.0049,-0.074,10.1764,0.0004,-0.0313,4.294,-0.0021,-0.0005
42098,-106.7619,4.5588,-0.0106,-0.0832,-89.582,-0.0042,-0.0752,10.3378,0.0003,-0.041,5.5681,-0.0024,-0.0004
42114,-106.7619,4.5588,-0.0106,-0.0832,-89.582,-0.0042,-0.0752,10.3378,0.0003,-0.041,5.5681,-0.0024,-0.0004
42130,-106.7642,4.8801,-0.0106,-0.0832,-89.582,-0.0036,-0.0764,10.495,0.0003,-0.0378,5.1028,-0.0021,-0.0003
42146,-106.7642,4.8801,-0.0106,-0.0832,-89.582,-0.0036,-0.0764,10.495,0.0003,-0.0378,5.1028,-0.0021,-0.0003
42164,-106.7664,5.1846,-0.0106,-0.0836,-89.582,-0.003,-0.0775,10.6408,0.0002,-0.0376,5.0745,-0.0013,-0.0002
42178,-106.7664,5.1846,-0.0106,-0.0836,-89.582,-0.003,-0.0775,10.6408,0.0002,-0.0376,5.0745,-0.0013,-0.0002
42196,-106.7688,5.5057,-0.0106,-0.0837,-89.5821,-0.0026,-0.0786,10.7897,0.0002,-0.0369,4.979,-0.0014,-0.0001
42210,-106.7688,5.5057,-0.0106,-0.0837,-89.5821,-0.0026,-0.0786,10.7897,0.0002,-0.0369,4.979,-0.0014,-0.0001
42227,-106.7712,5.8341,-0.0106,-0.0833,-89.5821,-0.0022,-0.0796,10.9281,0.0001,-0.0341,4.5836,-0.0018,-0.0001
42242,-106.7712,5.8341,-0.0106,-0.0833,-89.5821,-0.0022,-0.0796,10.9281,0.0001,-0.0341,4.5836,-0.0018,-0.0001
42258,-106.7735,6.1611,-0.0106,-0.0824,-89.5821,-0.0018,-0.0806,11.059,0.0001,-0.0326,4.4096,-0.0004,-0.0001
42274,-106.7735,6.1611,-0.0106,-0.0824,-89.5821,-0.0018,-0.0806,11.059,0.0001,-0.0326,4.4096,-0.0004,-0.0001
42290,-106.7759,6.4871,-0.0106,-0.0812,-89.5821,-0.0015,-0.0815,11.1839,0.0001,-0.0316,4.2696,-0.0007,-0.0
42306,-106.7784,6.8225,-0.0106,-0.0797,-89.5821,-0.0013,-0.0824,11.305,0.0001,-0.0302,4.0668,-0.0006,-0.0002
42322,-106.7784,6.8225,-0.0106,-0.0797,-89.5821,-0.0013,-0.0824,11.305,0.0001,-0.0302,4.0668,-0.0006,-0.0002
42339,-106.7808,7.1514,-0.0106,-0.0781,-89.5821,-0.0011,-0.0832,11.4203,0.0001,-0.0294,3.9886,-0.0007,0.0001
42354,-106.7808,7.1514,-0.0106,-0.0781,-89.5821,-0.0011,-0.0832,11.4203,0.0001,-0.0294,3.9886,-0.0007,0.0001
42371,-106.7833,7.5038,-0.0106,-0.0763,-89.582,-0.0009,-0.0841,11.5376,0.0001,-0.0283,3.8262,-0.0005,-0.0
42386,-106.7833,7.5038,-0.0106,-0.0763,-89.582,-0.0009,-0.0841,11.5376,0.0001,-0.0283,3.8262,-0.0005,-0.0
42403,-106.7859,7.8572,-0.0106,-0.0745,-89.582,-0.0008,-0.0849,11.651,0.0,-0.0275,3.7262,-0.0004,-0.0
42418,-106.7859,7.8572,-0.0106,-0.0745,-89.582,-0.0008,-0.0849,11.651,0.0,-0.0275,3.7262,-0.0004,-0.0
42435,-106.7886,8.2204,-0.0106,-0.0725,-89.582,-0.0007,-0.0858,11.7634,0.0,-0.0267,3.6268,-0.0002,-0.0001
42450,-106.7886,8.2204,-0.0106,-0.0725,-89.582,-0.0007,-0.0858,11.7634,0.0,-0.0267,3.6268,-0.0002,-0.0001
42468,-106.7911,8.5657,-0.0106,-0.0707,-89.582,-0.0006,-0.0865,11.8666,0.0,-0.026,3.5371,-0.0001,-0.0
42482,-106.7911,8.5657,-0.0106,-0.0707,-89.582,-0.0006,-0.0865,11.8666,0.0,-0.026,3.5371,-0.0001,-0.0
42498,-106.7937,8.9206,-0.0107,-0.0689,-89.582,-0.0005,-0.0873,11.9693,0.0,-0.0253,3.4538,-0.0003,-0.0
42514,-106.7962,9.2692,-0.0107,-0.0672,-89.582,-0.0004,-0.088,12.0671,0.0,-0.0248,3.3757,-0.0001,-0.0
42530,-106.7962,9.2692,-0.0107,-0.0672,-89.582,-0.0004,-0.088,12.0671,0.0,-0.0248,3.3757,-0.0001,-0.0
42546,-106.7991,9.6612,-0.0107,-0.0655,-89.5821,-0.0003,-0.0888,12.1737,0.0,-0.0242,3.2984,-0.0005,-0.0
42562,-106.7991,9.6612,-0.0107,-0.0655,-89.5821,-0.0003,-0.0888,12.1737,0.0,-0.0242,3.2984,-0.0005,-0.0
42578,-106.802,10.0552,-0.0107,-0.0638,-89.5821,-0.0003,-0.0895,12.2774,0.0,-0.0236,3.2218,-0.0003,-0.0
42594,-106.802,10.0552,-0.0107,-0.0638,-89.5821,-0.0003,-0.0895,12.2774,0.0,-0.0236,3.2218,-0.0003,-0.0
42610,-106.8046,10.4197,-0.0107,-0.0623,-89.5821,-0.0002,-0.0902,12.3705,-0.0,-0.0231,3.1525,-0.0003,-0.0
42626,-106.8046,10.4197,-0.0107,-0.0623,-89.5821,-0.0002,-0.0902,12.3705,-0.0,-0.0231,3.1525,-0.0003,-0.0
42642,-106.8073,10.7876,-0.0107,-0.0608,-89.5821,-0.0002,-0.0909,12.4619,0.0,-0.0226,3.0873,0.0009,0.0
42658,-106.8073,10.7876,-0.0107,-0.0608,-89.5821,-0.0002,-0.0909,12.4619,0.0,-0.0226,3.0873,0.0009,0.0
42675,-106.8101,11.1718,-0.0107,-0.0594,-89.5821,-0.0002,-0.0916,12.5547,0.0,-0.0221,3.0226,-0.0002,-0.0
42690,-106.8101,11.1718,-0.0107,-0.0594,-89.5821,-0.0002,-0.0916,12.5547,0.0,-0.0221,3.0226,-0.0002,-0.0
42708,-106.8129,11.5578,-0.0107,-0.0581,-89.582,-0.0002,-0.0922,12.6447,0.0,-0.0215,2.9416,-0.0002,-0.0
42722,-106.8129,11.5578,-0.0107,-0.0581,-89.582,-0.0002,-0.0922,12.6447,0.0,-0.0215,2.9416,-0.0002,-0.0
42740,-106.8157,11.9354,-0.0107,-0.0566,-89.582,-0.0001,-0.0928,12.7245,0.0,-0.0196,2.684,0.0,-0.0
42754,-106.8157,11.9354,-0.0107,-0.0566,-89.582,-0.0001,-0.0928,12.7245,0.0,-0.0196,2.684,0.0,-0.0
42772,-106.8185,12.3239,-0.0108,-0.0547,-89.582,-0.0001,-0.0933,12.7964,-0.0,-0.0173,2.3651,-0.0009,-0.0
42786,-106.8185,12.3239,-0.0108,-0.0547,-89.582,-0.0001,-0.0933,12.7964,-0.0,-0.0173,2.3651,-0.0009,-0.0
42802,-106.8213,12.6983,-0.0108,-0.0526,-89.582,-0.0001,-0.0938,12.8583,0.0,-0.0155,2.1216,0.0009,-0.0
42818,-106.824,13.0739,-0.0108,-0.0501,-89.5821,-0.0001,-0.0942,12.9136,0.0,-0.0138,1.8961,-0.0001,-0.0
42834,-106.824,13.0739,-0.0108,-0.0501,-89.5821,-0.0001,-0.0942,12.9136,0.0,-0.0138,1.8961,-0.0001,-0.0
42850,-106.827,13.4903,-0.0108,-0.0473,-89.5821,-0.0001,-0.0946,12.9669,0.0,-0.0122,1.6596,-0.0001,-0.0
42866,-106.827,13.4903,-0.0108,-0.0473,-89.5821,-0.0001,-0.0946,12.9669,0.0,-0.0122,1.6596,-0.0001,-0.0
42883,-106.8299,13.8811,-0.0108,-0.0445,-89.5821,-0.0001,-0.0949,13.0107,-0.0,-0.0107,1.4559,-0.0002,-0.0
42898,-106.8299,13.8811,-0.0108,-0.0445,-89.5821,-0.0001,-0.0949,13.0107,-0.0,-0.0107,1.4559,-0.0002,-0.0
42915,-106.8328,14.2797,-0.0109,-0.0415,-89.5821,-0.0001,-0.0952,13.0502,0.0,-0.0094,1.29,0.0003,-0.0
42948,-106.8356,14.6657,-0.0109,-0.0385,-89.5821,-0.0001,-0.0954,13.0848,-0.0,-0.0085,1.1719,-0.0005,-0.0
42962,-106.8356,14.6657,-0.0109,-0.0385,-89.5821,-0.0001,-0.0954,13.0848,-0.0,-0.0085,1.1719,-0.0005,-0.0
42979,-106.8404,15.0712,-0.0109,-0.0354,-89.6607,0.0125,-0.2326,13.1038,0.0001,-4.432,0.6145,0.0031,-4.713
42994,-106.8404,15.0712,-0.0109,-0.0354,-89.6607,0.0125,-0.2326,13.1038,0.0001,-4.432,0.6145,0.0031,-4.713
43012,-106.8497,15.4517,-0.0109,-0.0311,-89.9567,0.0473,-0.4716,13.091,0.0004,-8.2233,-0.441,0.0111,-13.1882
43026,-106.8497,15.4517,-0.0109,-0.0311,-89.9567,0.0473,-0.4716,13.091,0.0004,-8.2233,-0.441,0.0111,-13.1882
43042,-106.8655,15.8506,-0.0109,-0.0251,-90.5704,0.094,-0.7692,13.0479,0.0008,-9.7476,-1.41,0.0133,-24.499
43058,-106.8655,15.8506,-0.0109,-0.0251,-90.5704,0.094,-0.7692,13.0479,0.0008,-9.7476,-1.41,0.0133,-24.499
43074,-106.8887,16.2573,-0.011,-0.0169,-91.5993,0.1471,-1.0935,12.9766,0.0011,-10.3687,-2.2808,0.01,-38.1185
43090,-106.8887,16.2573,-0.011,-0.0169,-91.5993,0.1471,-1.0935,12.9766,0.0011,-10.3687,-2.2808,0.01,-38.1185
43106,-106.9185,16.6601,-0.011,-0.007,-93.0815,0.1962,-1.4085,12.8856,0.0012,-10.0904,-2.9138,0.0036,-53.2596
43122,-106.9185,16.6601,-0.011,-0.007,-93.0815,0.1962,-1.4085,12.8856,0.0012,-10.0904,-2.9138,0.0036,-53.2596
43138,-106.9543,17.0626,-0.011,0.0039,-95.0805,0.2357,-1.6975,12.782,0.0012,-9.1816,-3.2917,-0.0015,-69.7861
43154,-106.9543,17.0626,-0.011,0.0039,-95.0805,0.2357,-1.6975,12.782,0.0012,-9.1816,-3.2917,-0.0015,-69.7861
43170,-106.9965,17.4808,-0.0111,0.0155,-97.769,0.2628,-1.9543,12.6686,0.001,-7.7651,-3.4306,-0.0067,-88.2614
43186,-106.9965,17.4808,-0.0111,0.0155,-97.769,0.2628,-1.9543,12.6686,0.001,-7.7651,-3.4306,-0.0067,-88.2614
43202,-107.037,17.8526,-0.0111,0.0251,-100.7426,0.2728,-2.1355,12.5683,0.0007,-6.0838,-3.3689,-0.0096,-105.6967
43218,-107.037,17.8526,-0.0111,0.0251,-100.7426,0.2728,-2.1355,12.5683,0.0007,-6.0838,-3.3689,-0.0096,-105.6967
43234,-107.0803,18.2419,-0.0112,0.0323,-104.451,0.2666,-2.2514,12.4759,0.0002,-3.671,-2.9226,-0.014,-124.4222
43250,-107.1188,18.5948,-0.0112,0.036,-108.4091,0.2463,-2.2987,12.4004,-0.0001,-1.628,-2.5984,-0.0129,-142.0653
43266,-107.1188,18.5948,-0.0112,0.036,-108.4091,0.2463,-2.2987,12.4004,-0.0001,-1.628,-2.5984,-0.0129,-142.0653
43284,-107.1557,18.955,-0.0112,0.0356,-113.0249,0.2139,-2.2643,12.3412,-0.0005,1.143,-1.9653,-0.0135,-160.0909
43298,-107.1557,18.955,-0.0112,0.0356,-113.0249,0.2139,-2.2643,12.3412,-0.0005,1.143,-1.9653,-0.0135,-160.0909
43316,-107.1866,19.2991,-0.0112,0.0304,-118.0504,0.1692,-2.1613,12.2962,-0.0009,3.5225,-1.539,-0.0116,-177.48
43330,-107.1866,19.2991,-0.0112,0.0304,-118.0504,0.1692,-2.1613,12.2962,-0.0009,3.5225,-1.539,-0.0116,-177.48
43347,-107.2122,19.6811,-0.0111,0.0154,-124.213,0.103,-1.8218,12.3022,-0.0012,10.2968,0.1798,-0.0111,-191.8603
43362,-107.2122,19.6811,-0.0111,0.0154,-124.213,0.103,-1.8218,12.3022,-0.0012,10.2968,0.1798,-0.0111,-191.8603
43380,-107.2224,20.008,-0.011,-0.0081,-129.8766,0.0265,-1.3776,12.3133,-0.0017,15.5354,0.388,-0.015,-200.8486
43394,-107.2224,20.008,-0.011,-0.0081,-129.8766,0.0265,-1.3776,12.3133,-0.0017,15.5354,0.388,-0.015,-200.8486
43412,-107.2193,20.3533,-0.0108,-0.04,-136.171,-0.0591,-0.7897,12.2933,-0.0008,19.1841,-0.6521,0.0289,-207.9224
43426,-107.2193,20.3533,-0.0108,-0.04,-136.171,-0.0591,-0.7897,12.2933,-0.0008,19.1841,-0.6521,0.0289,-207.9224
43442,-107.1991,20.6967,-0.0105,-0.0779,-142.7365,-0.1498,-0.1178,12.2163,0.0007,21.6339,-2.4783,0.0478,-213.2856
43458,-107.1991,20.6967,-0.0105,-0.0779,-142.7365,-0.1498,-0.1178,12.2163,0.0007,21.6339,-2.4783,0.0478,-213.2856
43474,-107.1625,21.022,-0.0102,-0.1164,-149.2333,-0.2347,0.5773,12.0723,0.0015,23.0909,-4.7854,0.0277,-217.221
43490,-107.1091,21.3329,-0.0099,-0.1554,-155.7378,-0.3174,1.2813,11.8576,0.002,23.7495,-7.2416,0.0159,-220.4512
43506,-107.1091,21.3329,-0.0099,-0.1554,-155.7378,-0.3174,1.2813,11.8576,0.002,23.7495,-7.2416,0.0159,-220.4512
43524,-107.0405,21.6299,-0.0095,-0.1909,-162.2561,-0.3895,1.9779,11.5672,0.0022,23.7536,-9.9037,0.0053,-223.1956
43556,-106.9586,21.9103,-0.0092,-0.2223,-168.7499,-0.4525,2.6467,11.2062,0.0021,23.1718,-12.5041,-0.0019,-225.8822
43570,-106.9586,21.9103,-0.0092,-0.2223,-168.7499,-0.4525,2.6467,11.2062,0.0021,23.1718,-12.5041,-0.0019,-225.8822
43588,-106.8633,22.1786,-0.009,-0.2483,-175.36,-0.516,3.2132,10.6796,0.0022,19.4325,-18.0654,0.0023,-227.1296
43602,-106.8633,22.1786,-0.009,-0.2483,-175.36,-0.516,3.2132,10.6796,0.0022,19.4325,-18.0654,0.0023,-227.1296
43618,-106.7682,22.4112,-0.0088,-0.2644,178.4585,-0.5812,3.5904,10.0625,0.0022,13.9122,-22.7633,0.0013,-228.4485
43634,-106.6657,22.6344,-0.0086,-0.2749,171.9827,-0.6538,3.8631,9.3464,0.0022,9.6426,-25.3224,0.0001,-229.2004
43650,-106.6657,22.6344,-0.0086,-0.2749,171.9827,-0.6538,3.8631,9.3464,0.0022,9.6426,-25.3224,0.0001,-229.2004
43667,-106.5638,22.8368,-0.0085,-0.2794,165.5146,-0.7267,3.9908,8.5842,0.0022,4.5263,-26.9988,-0.002,-228.9499
43682,-106.5638,22.8368,-0.0085,-0.2794,165.5146,-0.7267,3.9908,8.5842,0.0022,4.5263,-26.9988,-0.002,-228.9499
43699,-106.4796,23.0168,-0.0087,-0.2615,159.6658,-0.7748,3.4902,8.1445,-0.0032,-18.7427,-16.4642,-0.1988,-214.1153
43714,-106.4796,23.0168,-0.0087,-0.2615,159.6658,-0.7748,3.4902,8.1445,-0.0032,-18.7427,-16.4642,-0.1988,-214.1153
43730,-106.4116,23.1942,-0.009,-0.2259,154.0557,-0.8088,2.9139,7.7367,-0.0019,-21.0633,-14.9026,0.0448,-201.1108
43746,-106.3617,23.3694,-0.0093,-0.1782,148.5477,-0.8525,2.2747,7.3369,0.0038,-22.6607,-14.1735,0.2033,-192.799
43762,-106.3617,23.3694,-0.0093,-0.1782,148.5477,-0.8525,2.2747,7.3369,0.0038,-22.6607,-14.1735,0.2033,-192.799
43780,-106.3337,23.5307,-0.0095,-0.1328,143.4676,-0.8914,1.6262,7.0587,0.0026,-24.1145,-10.3448,-0.0435,-186.6288
43794,-106.3337,23.5307,-0.0095,-0.1328,143.4676,-0.8914,1.6262,7.0587,0.0026,-24.1145,-10.3448,-0.0435,-186.6288
43811,-106.3257,23.6993,-0.0098,-0.0832,138.4285,-0.9138,0.8985,6.9783,0.0017,-25.8323,-2.8536,-0.032,-174.5026
43826,-106.3371,23.8657,-0.0102,-0.0335,133.9791,-0.9122,0.2106,7.0623,0.0009,-25.5047,3.1128,-0.0305,-159.9969
43842,-106.3371,23.8657,-0.0102,-0.0335,133.9791,-0.9122,0.2106,7.0623,0.0009,-25.5047,3.1128,-0.0305,-159.9969
43859,-106.3666,24.045,-0.0105,0.0181,129.8449,-0.8929,-0.4541,7.2385,0.0002,-23.9879,6.3586,-0.0264,-143.601
43874,-106.3666,24.045,-0.0105,0.0181,129.8449,-0.8929,-0.4541,7.2385,0.0002,-23.9879,6.3586,-0.0264,-143.601
43890,-106.4089,24.2241,-0.0109,0.0632,126.3573,-0.8632,-1.0089,7.46,-0.0003,-21.0811,8.4197,-0.0197,-126.9803
43906,-106.4089,24.2241,-0.0109,0.0632,126.3573,-0.8632,-1.0089,7.46,-0.0003,-21.0811,8.4197,-0.0197,-126.9803
43922,-106.467,24.4312,-0.0112,0.1064,123.0079,-0.8114,-1.4425,7.7571,-0.0009,-15.0692,10.3216,-0.018,-111.7692
43938,-106.5326,24.6539,-0.0115,0.1394,119.9202,-0.7285,-1.6332,8.07,-0.0013,-6.4971,10.6607,-0.0159,-102.5178
43954,-106.5326,24.6539,-0.0115,0.1394,119.9202,-0.7285,-1.6332,8.07,-0.0013,-6.4971,10.6607,-0.0159,-102.5178
43970,-106.6014,24.8956,-0.0117,0.1603,116.8957,-0.6204,-1.6161,8.3733,-0.0019,0.561,9.9658,-0.0204,-97.9803
43986,-106.6014,24.8956,-0.0117,0.1603,116.8957,-0.6204,-1.6161,8.3733,-0.0019,0.561,9.9658,-0.0204,-97.9803
44004,-106.6693,25.1582,-0.0119,0.1716,113.8273,-0.4856,-1.4496,8.658,-0.0026,5.2456,8.9681,-0.0204,-96.1602
44018,-106.6693,25.1582,-0.0119,0.1716,113.8273,-0.4856,-1.4496,8.658,-0.0026,5.2456,8.9681,-0.0204,-96.1602
44036,-106.7296,25.4283,-0.012,0.1748,110.8086,-0.3473,-1.1884,8.9081,-0.0031,8.2841,7.933,-0.015,-95.6758
44068,-106.7789,25.6945,-0.0121,0.1727,107.9201,-0.2202,-0.8768,9.1175,-0.0033,10.3258,6.9372,-0.0086,-95.8154
44082,-106.7789,25.6945,-0.0121,0.1727,107.9201,-0.2202,-0.8768,9.1175,-0.0033,10.3258,6.9372,-0.0086,-95.8154
44099,-106.8233,25.9868,-0.0122,0.1688,104.9487,-0.1101,-0.711,9.3469,-0.0034,5.1489,7.1236,-0.0018,-88.9449
44114,-106.8233,25.9868,-0.0122,0.1688,104.9487,-0.1101,-0.711,9.3469,-0.0034,5.1489,7.1236,-0.0018,-88.9449
44131,-106.8619,26.2641,-0.0122,0.1648,102.5842,-0.0583,-0.7774,9.521,-0.003,-2.2334,5.8605,0.0137,-74.3473
44146,-106.8619,26.2641,-0.0122,0.1648,102.5842,-0.0583,-0.7774,9.521,-0.003,-2.2334,5.8605,0.0137,-74.3473
44164,-106.9049,26.5677,-0.0123,0.1574,100.6029,-0.0544,-0.9951,9.629,-0.002,-6.8143,3.3813,0.0312,-54.111
44178,-106.9049,26.5677,-0.0123,0.1574,100.6029,-0.0544,-0.9951,9.629,-0.002,-6.8143,3.3813,0.0312,-54.111
44196,-106.9528,26.8843,-0.0122,0.1451,99.2412,-0.0797,-1.2245,9.6913,-0.0008,-6.9652,1.89,0.0371,-34.5164
44210,-106.9528,26.8843,-0.0122,0.1451,99.2412,-0.0797,-1.2245,9.6913,-0.0008,-6.9652,1.89,0.0371,-34.5164
44228,-107.0013,27.2,-0.0121,0.1308,98.3986,-0.0971,-1.3324,9.7538,-0.0,-3.3145,1.9205,0.0225,-21.3738
44242,-107.0013,27.2,-0.0121,0.1308,98.3986,-0.0971,-1.3324,9.7538,-0.0,-3.3145,1.9205,0.0225,-21.3738
44260,-107.0481,27.5105,-0.012,0.1167,97.8918,-0.0983,-1.3654,9.8107,0.0002,-1.0391,1.7902,0.0068,-13.1409
44274,-107.0481,27.5105,-0.012,0.1167,97.8918,-0.0983,-1.3654,9.8107,0.0002,-1.0391,1.7902,0.0068,-13.1409
44291,-107.0948,27.8308,-0.0119,0.1029,97.5766,-0.0879,-1.3622,9.8622,0.0001,0.0978,1.5819,-0.0018,-7.8522
44306,-107.0948,27.8308,-0.0119,0.1029,97.5766,-0.0879,-1.3622,9.8622,0.0001,0.0978,1.5819,-0.0018,-7.8522
44323,-107.1387,28.1478,-0.011,0.132,97.3922,0.0459,-1.3526,9.9058,0.0033,0.2988,1.359,0.0985,-4.656
44338,-107.1387,28.1478,-0.011,0.132,97.3922,0.0459,-1.3526,9.9058,0.0033,0.2988,1.359,0.0985,-4.656
44355,-107.1835,28.4745,-0.0109,0.1169,97.2905,0.0321,-1.3307,9.9622,-0.0268,0.6678,1.7166,-0.9163,-2.1267
44370,-107.1835,28.4745,-0.0109,0.1169,97.2905,0.0321,-1.3307,9.9622,-0.0268,0.6678,1.7166,-0.9163,-2.1267
44388,-107.2275,28.8021,-0.0112,0.0815,97.2322,-0.0264,-1.3053,9.991,-0.0159,0.7719,0.876,0.3315,-0.8801
44402,-107.2275,28.8021,-0.0112,0.0815,97.2322,-0.0264,-1.3053,9.991,-0.0159,0.7719,0.876,0.3315,-0.8801
44419,-107.2708,29.134,-0.0115,0.0604,97.1978,-0.0389,-1.2915,10.0146,-0.0085,0.4155,0.7115,0.2226,-0.0645
44434,-107.2708,29.134,-0.0115,0.0604,97.1978,-0.0389,-1.2915,10.0146,-0.0085,0.4155,0.7115,0.2226,-0.0645
44450,-107.3121,29.455,-0.0116,0.0477,97.1779,-0.037,-1.2839,10.0373,-0.0044,0.2376,0.7094,0.128,0.2691
44466,-107.3121,29.455,-0.0116,0.0477,97.1779,-0.037,-1.2839,10.0373,-0.0044,0.2376,0.7094,0.128,0.2691
44482,-107.3121,29.455,-0.0116,0.0477,97.1779,-0.037,-1.2839,10.0373,-0.0044,0.2376,0.7094,0.128,0.2691
44498,-107.357,29.807,-0.0116,0.0383,97.1675,-0.0307,-1.2786,10.0568,-0.002,0.152,0.5579,0.0712,1.0426
44516,-107.3996,30.1423,-0.0116,0.032,97.1599,-0.0248,-1.2758,10.0742,-0.0006,0.0849,0.5203,0.0405,1.03
44530,-107.3996,30.1423,-0.0116,0.032,97.1599,-0.0248,-1.2758,10.0742,-0.0006,0.0849,0.5203,0.0405,1.03
44546,-107.3996,30.1423,-0.0116,0.032,97.1599,-0.0248,-1.2758,10.0742,-0.0006,0.0849,0.5203,0.0405,1.03
44562,-107.4421,30.4787,-0.0115,0.0273,97.1554,-0.0197,-1.2743,10.0916,0.0001,0.0454,0.5218,0.0213,1.0787
44578,-107.4421,30.4787,-0.0115,0.0273,97.1554,-0.0197,-1.2743,10.0916,0.0001,0.0454,0.5218,0.0213,1.0787
44596,-107.4839,30.8138,-0.0104,-0.0322,97.1526,0.053,-1.2781,10.1096,0.02,-0.1154,0.5424,0.6,1.0805
44610,-107.4839,30.8138,-0.0104,-0.0322,97.1526,0.053,-1.2781,10.1096,0.02,-0.1154,0.5424,0.6,1.0805
44628,-107.5265,31.1492,-0.0108,-0.0099,97.1514,0.0165,-1.2754,10.1285,-0.0072,0.0815,0.5705,-0.8236,1.0093
44642,-107.5265,31.1492,-0.0108,-0.0099,97.1514,0.0165,-1.2754,10.1285,-0.0072,0.0815,0.5705,-0.8236,1.0093
44660,-107.5674,31.4735,-0.011,0.0041,97.1501,0.0008,-1.2743,10.1464,-0.0045,0.0332,0.5593,0.0872,0.8932
44674,-107.5674,31.4735,-0.011,0.0041,97.1501,0.0008,-1.2743,10.1464,-0.0045,0.0332,0.5593,0.0872,0.8932
44691,-107.6105,31.817,-0.0112,0.0107,97.1506,-0.0042,-1.2751,10.1628,-0.0024,-0.0219,0.4865,0.06,1.1572
44706,-107.6105,31.817,-0.0112,0.0107,97.1506,-0.0042,-1.2751,10.1628,-0.0024,-0.0219,0.4865,0.06,1.1572
44724,-107.6509,32.139,-0.0113,0.0131,97.1494,-0.0051,-1.2768,10.1796,-0.0012,-0.0531,0.5306,0.0376,0.8692
44738,-107.6509,32.139,-0.0113,0.0131,97.1494,-0.0051,-1.2768,10.1796,-0.0012,-0.0531,0.5306,0.0376,0.8692
44755,-107.6932,32.4762,-0.0113,0.0139,97.1497,-0.0048,-1.2786,10.1963,-0.0005,-0.0563,0.5032,0.021,1.0185
44770,-107.6932,32.4762,-0.0113,0.0139,97.1497,-0.0048,-1.2786,10.1963,-0.0005,-0.0563,0.5032,0.021,1.0185
44787,-107.7345,32.8056,-0.0113,0.0137,97.1493,-0.0042,-1.2806,10.2126,-0.0001,-0.0603,0.5052,0.0123,0.9262
44802,-107.7345,32.8056,-0.0113,0.0137,97.1493,-0.0042,-1.2806,10.2126,-0.0001,-0.0603,0.5052,0.0123,0.9262
44820,-107.7761,33.1371,-0.0113,0.0133,97.1492,-0.0036,-1.2825,10.2289,0.0001,-0.0609,0.5028,0.0062,0.9201
44834,-107.7761,33.1371,-0.0113,0.0133,97.1492,-0.0036,-1.2825,10.2289,0.0001,-0.0609,0.5028,0.0062,0.9201
44852,-107.8169,33.4628,-0.0113,0.0127,97.1488,-0.0031,-1.2845,10.2451,0.0002,-0.0629,0.5114,0.0032,0.8238
44866,-107.8169,33.4628,-0.0113,0.0127,97.1488,-0.0031,-1.2845,10.2451,0.0002,-0.0629,0.5114,0.0032,0.8238
44884,-107.8591,33.7993,-0.0113,0.0122,97.1492,-0.0025,-1.2865,10.261,0.0002,-0.0591,0.4845,0.0008,0.9356
44898,-107.8591,33.7993,-0.0113,0.0122,97.1492,-0.0025,-1.2865,10.261,0.0002,-0.0591,0.4845,0.0008,0.9356
44916,-107.9001,34.1265,-0.0113,0.0116,97.1488,-0.0021,-1.2884,10.2767,0.0002,-0.0611,0.4923,0.0005,0.8233
44930,-107.9001,34.1265,-0.0113,0.0116,97.1488,-0.0021,-1.2884,10.2767,0.0002,-0.0611,0.4923,0.0005,0.8233
44948,-107.9419,34.4594,-0.0113,0.0112,97.1489,-0.0018,-1.2904,10.2924,0.0002,-0.0596,0.4829,-0.0006,0.8581
44962,-107.9419,34.4594,-0.0113,0.0112,97.1489,-0.0018,-1.2904,10.2924,0.0002,-0.0596,0.4829,-0.0006,0.8581
44980,-107.9843,34.7978,-0.0113,0.0107,97.1491,-0.0015,-1.2922,10.3075,0.0002,-0.0566,0.4601,-0.0006,0.9355
44994,-107.9843,34.7978,-0.0113,0.0107,97.1491,-0.0015,-1.2922,10.3075,0.0002,-0.0566,0.4601,-0.0006,0.9355
45011,-108.0274,35.1413,-0.0113,0.0103,97.1494,-0.0012,-1.294,10.3221,0.0002,-0.0538,0.4378,-0.0002,1.0229
45026,-108.0274,35.1413,-0.0113,0.0103,97.1494,-0.0012,-1.294,10.3221,0.0002,-0.0538,0.4378,-0.0002,1.0229
45044,-108.07,35.4818,-0.0112,0.0099,97.1493,-0.001,-1.2958,10.3366,0.0001,-0.055,0.4426,-0.0009,0.9859
45058,-108.07,35.4818,-0.0112,0.0099,97.1493,-0.001,-1.2958,10.3366,0.0001,-0.055,0.4426,-0.0009,0.9859
45075,-108.1136,35.8295,-0.0112,0.0096,97.1496,-0.0008,-1.2976,10.351,0.0001,-0.0528,0.4281,-0.0007,1.0726
45090,-108.1136,35.8295,-0.0112,0.0096,97.1496,-0.0008,-1.2976,10.351,0.0001,-0.0528,0.4281,-0.0007,1.0726
45106,-108.1543,36.154,-0.0112,0.0093,97.1486,-0.0007,-1.2995,10.3663,0.0001,-0.062,0.4877,-0.0008,0.7462
45122,-108.1543,36.154,-0.0112,0.0093,97.1486,-0.0007,-1.2995,10.3663,0.0001,-0.062,0.4877,-0.0008,0.7462
45138,-108.1977,36.5,-0.0112,0.0092,97.1493,-0.0005,-1.3014,10.3815,0.0001,-0.0565,0.455,-0.0001,0.9393
45154,-108.1977,36.5,-0.0112,0.0092,97.1493,-0.0005,-1.3014,10.3815,0.0001,-0.0565,0.455,-0.0001,0.9393
45170,-108.1977,36.5,-0.0112,0.0092,97.1493,-0.0005,-1.3014,10.3815,0.0001,-0.0565,0.455,-0.0001,0.9393
45186,-108.2408,36.844,-0.0112,0.009,97.1494,-0.0005,-1.3032,10.3958,0.0001,-0.0541,0.4328,-0.0007,0.9634
45203,-108.2837,37.1862,-0.0112,0.0088,97.1493,-0.0004,-1.305,10.4102,0.0,-0.0548,0.437,-0.0003,0.9327
45218,-108.2837,37.1862,-0.0112,0.0088,97.1493,-0.0004,-1.305,10.4102,0.0,-0.0548,0.437,-0.0003,0.9327
45234,-108.2837,37.1862,-0.0112,0.0088,97.1493,-0.0004,-1.305,10.4102,0.0,-0.0548,0.437,-0.0003,0.9327
