timestamp,x,y,z,pitch,yaw,roll,vx,vy,vz,ax,ay,az,yaw_rate
12507,-106.6867,-4.8475,0.5267,0.0,-89.3578,0.0,0.0,0.0,-1.0918,0.0,0.0,-9.8,0.0
12523,-106.6867,-4.8475,0.5267,0.0,-89.3578,0.0,0.0,0.0,-1.0918,0.0,0.0,-9.8,0.0
12539,-106.6867,-4.8475,0.4859,0.0,-89.3578,0.0,0.0,0.0,-1.4025,0.0,0.0,-9.8,0.0
12555,-106.6867,-4.8475,0.4859,0.0,-89.3578,0.0,0.0,0.0,-1.4025,0.0,0.0,-9.8,0.0
12574,-106.6867,-4.8475,0.4453,0.0,-89.3578,0.0,0.0,0.0,-1.6559,0.0,0.0,-9.8,0.0
12590,-106.6867,-4.8475,0.3989,0.0,-89.3578,0.0,0.0,0.0,-1.9055,0.0,0.0,-9.8,0.0
12603,-106.6867,-4.8475,0.3989,0.0,-89.3578,0.0,0.0,0.0,-1.9055,0.0,0.0,-9.8,0.0
12623,-106.6867,-4.8475,0.3525,0.0,-89.3578,0.0,0.0,0.0,-2.127,0.0,0.0,-9.8,0.0
12635,-106.6867,-4.8475,0.3525,0.0,-89.3578,0.0,0.0,0.0,-2.127,0.0,0.0,-9.8,0.0
12658,-106.6867,-4.8475,0.2763,0.0,-89.3578,0.0,0.0,0.0,-2.4475,0.0,0.0,-9.8,0.0
12668,-106.6867,-4.8475,0.2763,0.0,-89.3578,0.0,0.0,0.0,-2.4475,0.0,0.0,-9.8,0.0
12691,-106.6867,-4.8475,0.1808,0.0,-89.3578,0.0,0.0,0.0,-2.7987,0.0,0.0,-9.8,0.0
12700,-106.6867,-4.8475,0.1808,0.0,-89.3578,0.0,0.0,0.0,-2.7987,0.0,0.0,-9.8,0.0
12722,-106.6867,-4.8475,0.1001,0.0,-89.3578,0.0,0.0,0.0,-3.0643,0.0,0.0,-9.8,0.0
12734,-106.6867,-4.8475,0.1001,0.0,-89.3578,0.0,0.0,0.0,-3.0643,0.0,0.0,-9.8,0.0
12753,-106.6868,-4.8451,0.0004,-0.0031,-89.3578,0.0,-0.0008,0.0669,-2.184,-0.0205,1.8292,24.0601,0.0
12766,-106.6868,-4.8451,0.0004,-0.0031,-89.3578,0.0,-0.0008,0.0669,-2.184,-0.0205,1.8292,24.0601,0.0
12782,-106.6868,-4.843,-0.0411,-0.0044,-89.3578,0.0,-0.001,0.0904,-1.3296,-0.0101,0.9008,32.7326,-0.0
12798,-106.6868,-4.843,-0.0411,-0.0044,-89.3578,0.0,-0.001,0.0904,-1.3296,-0.0101,0.9008,32.7326,-0.0
12814,-106.6868,-4.8401,-0.0712,-0.0049,-89.3578,0.0,-0.0012,0.1063,-0.5712,-0.0049,0.4344,20.7632,-0.0001
12839,-106.687,-4.8366,-0.0793,-0.0077,-89.3442,0.0,-0.0028,0.2462,-0.2664,-0.0708,6.1316,13.3566,0.9675
12846,-106.687,-4.8366,-0.0793,-0.0077,-89.3442,0.0,-0.0028,0.2462,-0.2664,-0.0708,6.1316,13.3566,0.9675
12862,-106.687,-4.8366,-0.0793,-0.0077,-89.3442,0.0,-0.0028,0.2462,-0.2664,-0.0708,6.1316,13.3566,0.9675
12878,-106.6873,-4.8221,-0.0819,-0.021,-89.3265,0.0001,-0.0057,0.5286,0.0136,-0.0857,8.2255,8.1561,0.5684
12894,-106.6873,-4.8221,-0.0819,-0.021,-89.3265,0.0001,-0.0057,0.5286,0.0136,-0.0857,8.2255,8.1561,0.5684
12910,-106.6876,-4.7955,-0.0772,-0.0379,-89.3322,0.0002,-0.0108,0.769,0.1706,-0.1316,6.3118,4.1221,-1.1918
12926,-106.6876,-4.7955,-0.0772,-0.0379,-89.3322,0.0002,-0.0108,0.769,0.1706,-0.1316,6.3118,4.1221,-1.1918
12942,-106.6876,-4.7955,-0.0772,-0.0379,-89.3322,0.0002,-0.0108,0.769,0.1706,-0.1316,6.3118,4.1221,-1.1918
12958,-106.6882,-4.7578,-0.0681,-0.0504,-89.3208,0.0003,-0.0127,0.9862,0.2356,-0.0459,5.2309,1.5659,0.1301
12989,-106.6886,-4.7282,-0.0608,-0.0564,-89.3179,0.0002,-0.014,1.1195,0.2733,-0.0468,4.8111,1.359,0.0963
13001,-106.6886,-4.7282,-0.0608,-0.0564,-89.3179,0.0002,-0.014,1.1195,0.2733,-0.0468,4.8111,1.359,0.0963
13017,-106.6891,-4.683,-0.0504,-0.0545,-89.3232,0.0,-0.0126,1.053,0.2367,0.034,-1.6006,-0.8812,-0.0893
13033,-106.6891,-4.683,-0.0504,-0.0545,-89.3232,0.0,-0.0126,1.053,0.2367,0.034,-1.6006,-0.8812,-0.0893
13049,-106.6895,-4.6574,-0.0454,-0.0522,-89.3104,0.0,-0.0146,1.161,0.2129,-0.0921,4.7481,-1.0444,0.7763
13065,-106.6895,-4.6574,-0.0454,-0.0522,-89.3104,0.0,-0.0146,1.161,0.2129,-0.0921,4.7481,-1.0444,0.7763
13081,-106.6902,-4.6127,-0.0377,-0.0465,-89.2928,0.0002,-0.0161,1.2594,0.1812,-0.036,2.5106,-0.8098,1.5402
13097,-106.6902,-4.6127,-0.0377,-0.0465,-89.2928,0.0002,-0.0161,1.2594,0.1812,-0.036,2.5106,-0.8098,1.5402
13113,-106.6907,-4.5717,-0.0327,-0.0461,-89.2953,0.0001,-0.0164,1.3374,0.1465,-0.0106,2.4138,-1.074,-0.0403
13129,-106.6907,-4.5717,-0.0327,-0.0461,-89.2953,0.0001,-0.0164,1.3374,0.1465,-0.0106,2.4138,-1.074,-0.0403
13148,-106.6914,-4.5223,-0.0277,-0.0416,-89.289,0.0001,-0.0169,1.3423,0.1192,-0.0119,0.128,-0.7125,0.2357
13161,-106.6914,-4.5223,-0.0277,-0.0416,-89.289,0.0001,-0.0169,1.3423,0.1192,-0.0119,0.128,-0.7125,0.2357
13177,-106.6914,-4.5223,-0.0277,-0.0416,-89.289,0.0001,-0.0169,1.3423,0.1192,-0.0119,0.128,-0.7125,0.2357
13193,-106.692,-4.4724,-0.0241,-0.0419,-89.2784,0.0001,-0.0188,1.5316,0.0938,-0.0553,5.3384,-0.7171,1.8497
13209,-106.6928,-4.428,-0.0217,-0.0469,-89.2705,0.0007,-0.0249,1.6572,0.0788,-0.2201,4.5671,-0.5455,-2.6072
13225,-106.6928,-4.428,-0.0217,-0.0469,-89.2705,0.0007,-0.0249,1.6572,0.0788,-0.2201,4.5671,-0.5455,-2.6072
13255,-106.6933,-4.3648,-0.0193,-0.053,-89.3035,-0.0002,-0.0193,1.872,0.0617,0.1548,6.0061,-0.4775,-4.7112
13258,-106.6933,-4.3648,-0.0193,-0.053,-89.3035,-0.0002,-0.0193,1.872,0.0617,0.1548,6.0061,-0.4775,-4.7112
13277,-106.6933,-4.3648,-0.0193,-0.053,-89.3035,-0.0002,-0.0193,1.872,0.0617,0.1548,6.0061,-0.4775,-4.7112
13290,-106.6945,-4.2958,-0.0173,-0.0568,-89.2811,0.0009,-0.0334,2.0557,0.0483,-0.388,5.0618,-0.3704,1.0873
13306,-106.6945,-4.2958,-0.0173,-0.0568,-89.2811,0.0009,-0.0334,2.0557,0.0483,-0.388,5.0618,-0.3704,1.0873
13323,-106.6956,-4.2216,-0.0158,-0.0628,-89.2757,0.0008,-0.0311,2.2593,0.0377,0.0657,5.8157,-0.3022,1.0173
13338,-106.6956,-4.2216,-0.0158,-0.0628,-89.2757,0.0008,-0.0311,2.2593,0.0377,0.0657,5.8157,-0.3022,1.0173
13357,-106.6967,-4.1287,-0.0145,-0.067,-89.2848,-0.0001,-0.0294,2.366,0.0282,0.0412,2.6412,-0.2346,-0.4122
13370,-106.6967,-4.1287,-0.0145,-0.067,-89.2848,-0.0001,-0.0294,2.366,0.0282,0.0412,2.6412,-0.2346,-0.4122
13389,-106.6967,-4.1287,-0.0145,-0.067,-89.2848,-0.0001,-0.0294,2.366,0.0282,0.0412,2.6412,-0.2346,-0.4122
13402,-106.6978,-4.0386,-0.0136,-0.0692,-89.2968,-0.0002,-0.0318,2.5117,0.0222,-0.0652,4.0318,-0.1654,0.7068
13418,-106.6978,-4.0386,-0.0136,-0.0692,-89.2968,-0.0002,-0.0318,2.5117,0.0222,-0.0652,4.0318,-0.1654,0.7068
13438,-106.6992,-3.9269,-0.0128,-0.0688,-89.2892,-0.0003,-0.0337,2.7588,0.0163,-0.0459,5.812,-0.1403,-0.2226
13450,-106.6992,-3.9269,-0.0128,-0.0688,-89.2892,-0.0003,-0.0337,2.7588,0.0163,-0.0459,5.812,-0.1403,-0.2226
13469,-106.6998,-3.8644,-0.0125,-0.0694,-89.3104,-0.0005,-0.033,2.8043,0.0136,0.0339,2.0252,-0.117,-1.1574
13490,-106.7006,-3.7951,-0.0122,-0.0715,-89.3138,-0.0007,-0.0352,3.0194,0.0116,-0.0915,9.0895,-0.0844,-0.6806
13498,-106.7006,-3.7951,-0.0122,-0.0715,-89.3138,-0.0007,-0.0352,3.0194,0.0116,-0.0915,9.0895,-0.0844,-0.6806
13520,-106.7013,-3.7132,-0.0119,-0.0724,-89.3377,-0.0009,-0.0345,3.0189,0.0098,0.0235,-0.0215,-0.0687,-1.038
13530,-106.7013,-3.7132,-0.0119,-0.0724,-89.3377,-0.0009,-0.0345,3.0189,0.0098,0.0235,-0.0215,-0.0687,-1.038
13552,-106.7025,-3.5916,-0.0116,-0.0746,-89.3645,-0.001,-0.0347,3.2849,0.0074,-0.0036,7.0444,-0.062,-1.9442
13562,-106.7025,-3.5916,-0.0116,-0.0746,-89.3645,-0.001,-0.0347,3.2849,0.0074,-0.0036,7.0444,-0.062,-1.9442
13589,-106.7033,-3.502,-0.0114,-0.0771,-89.3835,-0.0013,-0.0374,3.4743,0.0061,-0.1061,7.2066,-0.0525,-2.317
13597,-106.7033,-3.502,-0.0114,-0.0771,-89.3835,-0.0013,-0.0374,3.4743,0.0061,-0.1061,7.2066,-0.0525,-2.317
13613,-106.7043,-3.3824,-0.0112,-0.0776,-89.4189,-0.0016,-0.0369,3.6329,0.0047,0.0151,4.6724,-0.0395,-2.4883
13629,-106.7043,-3.3824,-0.0112,-0.0776,-89.4189,-0.0016,-0.0369,3.6329,0.0047,0.0151,4.6724,-0.0395,-2.4883
13645,-106.7051,-3.2815,-0.0111,-0.0761,-89.4388,-0.0019,-0.0344,3.6214,0.0039,0.09,-0.4151,-0.0291,-1.4172
13661,-106.7051,-3.2815,-0.0111,-0.0761,-89.4388,-0.0019,-0.0344,3.6214,0.0039,0.09,-0.4151,-0.0291,-1.4172
13685,-106.7063,-3.1306,-0.011,-0.0787,-89.472,-0.002,-0.0358,3.8723,0.0029,-0.0345,6.443,-0.0255,-0.5645
13693,-106.7063,-3.1306,-0.011,-0.0787,-89.472,-0.002,-0.0358,3.8723,0.0029,-0.0345,6.443,-0.0255,-0.5645
13712,-106.7077,-2.9671,-0.0108,-0.0822,-89.4841,-0.0019,-0.0377,4.1207,0.0022,-0.0476,6.2653,-0.0186,0.062
13725,-106.7077,-2.9671,-0.0108,-0.0822,-89.4841,-0.0019,-0.0377,4.1207,0.0022,-0.0476,6.2653,-0.0186,0.062
13755,-106.7084,-2.8779,-0.0108,-0.0866,-89.4978,-0.0019,-0.0393,4.4617,0.0018,-0.0798,16.6576,-0.0198,-0.5741
13757,-106.7084,-2.8779,-0.0108,-0.0866,-89.4978,-0.0019,-0.0393,4.4617,0.0018,-0.0798,16.6576,-0.0198,-0.5741
13784,-106.7096,-2.7311,-0.0106,-0.1002,-89.5011,-0.0018,-0.0425,4.8852,0.0015,-0.1036,13.6485,-0.0101,-0.6146
13789,-106.7096,-2.7311,-0.0106,-0.1002,-89.5011,-0.0018,-0.0425,4.8852,0.0015,-0.1036,13.6485,-0.0101,-0.6146
13805,-106.7111,-2.5835,-0.0105,-0.11,-89.48,-0.0014,-0.0462,5.0601,0.0012,-0.1261,5.9568,-0.0083,3.0287
13821,-106.7111,-2.5835,-0.0105,-0.11,-89.48,-0.0014,-0.0462,5.0601,0.0012,-0.1261,5.9568,-0.0083,3.0287
13842,-106.7131,-2.3617,-0.0104,-0.1187,-89.4787,-0.0009,-0.0491,5.4422,0.0009,-0.0694,9.1595,-0.0084,-1.4244
13853,-106.7131,-2.3617,-0.0104,-0.1187,-89.4787,-0.0009,-0.0491,5.4422,0.0009,-0.0694,9.1595,-0.0084,-1.4244
13869,-106.7144,-2.2241,-0.0104,-0.1221,-89.4643,-0.0007,-0.0516,5.656,0.0007,-0.1003,8.6988,-0.0065,2.0577
13885,-106.7144,-2.2241,-0.0104,-0.1221,-89.4643,-0.0007,-0.0516,5.656,0.0007,-0.1003,8.6988,-0.0065,2.0577
13901,-106.7161,-2.0408,-0.0103,-0.1247,-89.4649,-0.0005,-0.0541,5.9101,0.0006,-0.0785,8.0615,-0.0043,1.7721
13917,-106.7161,-2.0408,-0.0103,-0.1247,-89.4649,-0.0005,-0.0541,5.9101,0.0006,-0.0785,8.0615,-0.0043,1.7721
13933,-106.7179,-1.8423,-0.0103,-0.1253,-89.465,-0.0004,-0.0563,6.1398,0.0004,-0.0696,7.0064,-0.0039,1.8842
13949,-106.7179,-1.8423,-0.0103,-0.1253,-89.465,-0.0004,-0.0563,6.1398,0.0004,-0.0696,7.0064,-0.0039,1.8842
13965,-106.7194,-1.6643,-0.0103,-0.1232,-89.4901,-0.0004,-0.0576,6.2747,0.0004,-0.0449,4.7286,-0.0027,-3.1747
13981,-106.7194,-1.6643,-0.0103,-0.1232,-89.4901,-0.0004,-0.0576,6.2747,0.0004,-0.0449,4.7286,-0.0027,-3.1747
14000,-106.7221,-1.3839,-0.0103,-0.1166,-89.4711,-0.0002,-0.0596,6.5113,0.0003,-0.0456,5.4062,-0.0021,2.0617
14013,-106.7221,-1.3839,-0.0103,-0.1166,-89.4711,-0.0002,-0.0596,6.5113,0.0003,-0.0456,5.4062,-0.0021,2.0617
14032,-106.7239,-1.1833,-0.0103,-0.1152,-89.4731,-0.0002,-0.0616,6.7573,0.0002,-0.0672,8.1697,-0.0022,1.2166
14045,-106.7252,-1.0493,-0.0103,-0.115,-89.4666,-0.0001,-0.063,6.8863,0.0002,-0.0708,6.6049,-0.0011,2.5724
14061,-106.7252,-1.0493,-0.0103,-0.115,-89.4666,-0.0001,-0.063,6.8863,0.0002,-0.0708,6.6049,-0.0011,2.5724
14080,-106.7274,-0.8032,-0.0103,-0.1134,-89.4718,-0.0002,-0.0646,7.1049,0.0002,-0.0449,6.2285,-0.0011,1.9188
14093,-106.7274,-0.8032,-0.0103,-0.1134,-89.4718,-0.0002,-0.0646,7.1049,0.0002,-0.0449,6.2285,-0.0011,1.9188
14109,-106.7274,-0.8032,-0.0103,-0.1134,-89.4718,-0.0002,-0.0646,7.1049,0.0002,-0.0449,6.2285,-0.0011,1.9188
14125,-106.7297,-0.5449,-0.0104,-0.1114,-89.474,-0.0002,-0.0663,7.3113,0.0001,-0.049,5.7822,-0.0014,2.094
14147,-106.7297,-0.5449,-0.0104,-0.1114,-89.474,-0.0002,-0.0663,7.3113,0.0001,-0.049,5.7822,-0.0014,2.094
14166,-106.7325,-0.2201,-0.0104,-0.1087,-89.4927,-0.0003,-0.0684,7.5739,0.0001,-0.0469,6.0362,-0.0005,-1.8667
14179,-106.7325,-0.2201,-0.0104,-0.1087,-89.4927,-0.0003,-0.0684,7.5739,0.0001,-0.0469,6.0362,-0.0005,-1.8667
14210,-106.7346,0.0156,-0.0104,-0.1083,-89.4906,-0.0003,-0.0703,7.7974,0.0001,-0.0617,7.3097,-0.0003,-0.9238
14220,-106.7346,0.0156,-0.0104,-0.1083,-89.4906,-0.0003,-0.0703,7.7974,0.0001,-0.0617,7.3097,-0.0003,-0.9238
14239,-106.7379,0.3684,-0.0104,-0.1083,-89.4792,-0.0002,-0.0726,8.074,0.0,-0.0526,6.251,-0.0006,1.5817
14252,-106.7379,0.3684,-0.0104,-0.1083,-89.4792,-0.0002,-0.0726,8.074,0.0,-0.0526,6.251,-0.0006,1.5817
14281,-106.7405,0.6593,-0.0104,-0.107,-89.4791,-0.0002,-0.0744,8.2807,0.0,-0.0502,5.8276,-0.0003,1.5801
14284,-106.7405,0.6593,-0.0104,-0.107,-89.4791,-0.0002,-0.0744,8.2807,0.0,-0.0502,5.8276,-0.0003,1.5801
14300,-106.7405,0.6593,-0.0104,-0.107,-89.4791,-0.0002,-0.0744,8.2807,0.0,-0.0502,5.8276,-0.0003,1.5801
14316,-106.743,0.9415,-0.0104,-0.1057,-89.4802,-0.0002,-0.0762,8.4852,0.0,-0.0537,6.094,-0.0006,1.2068
14341,-106.7447,1.13,-0.0104,-0.1053,-89.4855,-0.0002,-0.0776,8.6304,0.0,-0.065,6.6047,0.0007,-0.5254
14348,-106.7447,1.13,-0.0104,-0.1053,-89.4855,-0.0002,-0.0776,8.6304,0.0,-0.065,6.6047,0.0007,-0.5254
14367,-106.7477,1.4695,-0.0104,-0.1046,-89.4915,-0.0002,-0.0798,8.8566,0.0,-0.0559,5.8512,0.0001,-1.6516
14380,-106.7477,1.4695,-0.0104,-0.1046,-89.4915,-0.0002,-0.0798,8.8566,0.0,-0.0559,5.8512,0.0001,-1.6516
14404,-106.7501,1.7223,-0.0104,-0.1025,-89.4756,-0.0001,-0.0811,8.9901,0.0,-0.046,4.7215,-0.0003,1.6794
14412,-106.7501,1.7223,-0.0104,-0.1025,-89.4756,-0.0001,-0.0811,8.9901,0.0,-0.046,4.7215,-0.0003,1.6794
14431,-106.7501,1.7223,-0.0104,-0.1025,-89.4756,-0.0001,-0.0811,8.9901,0.0,-0.046,4.7215,-0.0003,1.6794
14447,-106.7534,2.1016,-0.0104,-0.0998,-89.485,-0.0001,-0.0833,9.223,0.0,-0.0538,5.6026,-0.0001,-0.8622
14467,-106.7558,2.3612,-0.0104,-0.0984,-89.4744,-0.0,-0.0847,9.3721,0.0,-0.0499,5.3573,-0.0002,1.2772
14479,-106.7558,2.3612,-0.0104,-0.0984,-89.4744,-0.0,-0.0847,9.3721,0.0,-0.0499,5.3573,-0.0002,1.2772
14495,-106.7558,2.3612,-0.0104,-0.0984,-89.4744,-0.0,-0.0847,9.3721,0.0,-0.0499,5.3573,-0.0002,1.2772
14515,-106.7597,2.8023,-0.0105,-0.0952,-89.4866,-0.0,-0.0869,9.595,0.0,-0.047,4.8023,-0.0003,-1.3849
14527,-106.7597,2.8023,-0.0105,-0.0952,-89.4866,-0.0,-0.0869,9.595,0.0,-0.047,4.8023,-0.0003,-1.3849
14552,-106.7628,3.1401,-0.0105,-0.0929,-89.4849,0.0,-0.0885,9.7702,-0.0,-0.0472,5.0341,-0.0002,-0.9539
14559,-106.7628,3.1401,-0.0105,-0.0929,-89.4849,0.0,-0.0885,9.7702,-0.0,-0.0472,5.0341,-0.0002,-0.9539
14578,-106.7628,3.1401,-0.0105,-0.0929,-89.4849,0.0,-0.0885,9.7702,-0.0,-0.0472,5.0341,-0.0002,-0.9539
14591,-106.7662,3.5183,-0.0105,-0.0906,-89.4864,-0.0,-0.0902,9.9523,0.0,-0.0445,4.7601,0.0007,-1.3508
14607,-106.7662,3.5183,-0.0105,-0.0906,-89.4864,-0.0,-0.0902,9.9523,0.0,-0.0445,4.7601,0.0007,-1.3508
14637,-106.7694,3.8687,-0.0105,-0.0886,-89.4844,0.0,-0.0917,10.1194,-0.0,-0.0437,4.7932,-0.0006,-0.8317
14640,-106.7694,3.8687,-0.0105,-0.0886,-89.4844,0.0,-0.0917,10.1194,-0.0,-0.0437,4.7932,-0.0006,-0.8317
14662,-106.7727,4.235,-0.0105,-0.087,-89.484,0.0,-0.0933,10.2931,0.0,-0.044,4.8526,0.0004,-0.7506
14672,-106.7727,4.235,-0.0105,-0.087,-89.484,0.0,-0.0933,10.2931,0.0,-0.044,4.8526,0.0004,-0.7506
14696,-106.7756,4.5416,-0.0105,-0.0856,-89.4741,0.0001,-0.0945,10.4264,0.0,-0.0397,4.5116,-0.0001,1.1242
14704,-106.7756,4.5416,-0.0105,-0.0856,-89.4741,0.0001,-0.0945,10.4264,0.0,-0.0397,4.5116,-0.0001,1.1242
14727,-106.7787,4.882,-0.0105,-0.0841,-89.476,0.0001,-0.096,10.5757,0.0,-0.047,4.6147,-0.0001,0.4136
14736,-106.7787,4.882,-0.0105,-0.0841,-89.476,0.0001,-0.096,10.5757,0.0,-0.047,4.6147,-0.0001,0.4136
14752,-106.7787,4.882,-0.0105,-0.0841,-89.476,0.0001,-0.096,10.5757,0.0,-0.047,4.6147,-0.0001,0.4136
14775,-106.7836,5.4266,-0.0106,-0.0822,-89.4758,0.0,-0.0984,10.8087,-0.0,-0.0464,4.584,-0.0003,0.2806
14784,-106.7836,5.4266,-0.0106,-0.0822,-89.4758,0.0,-0.0984,10.8087,-0.0,-0.0464,4.584,-0.0003,0.2806
14812,-106.7864,5.7321,-0.0106,-0.0811,-89.4788,0.0001,-0.0996,10.9306,0.0,-0.0444,4.3449,0.0005,-0.389
14816,-106.7864,5.7321,-0.0106,-0.0811,-89.4788,0.0001,-0.0996,10.9306,0.0,-0.0444,4.3449,0.0005,-0.389
14832,-106.7895,6.0718,-0.0106,-0.0798,-89.4778,0.0001,-0.1008,11.0615,-0.0,-0.0392,4.2434,-0.0003,-0.1186
14851,-106.7918,6.3203,-0.0106,-0.0788,-89.4772,0.0001,-0.1017,11.1545,0.0,-0.0384,4.1612,0.0003,0.0429
14864,-106.7918,6.3203,-0.0106,-0.0788,-89.4772,0.0001,-0.1017,11.1545,0.0,-0.0384,4.1612,0.0003,0.0429
14889,-106.795,6.6786,-0.0106,-0.0773,-89.4772,0.0001,-0.1029,11.2835,0.0,-0.0377,4.0443,0.0001,0.0182
14898,-106.795,6.6786,-0.0106,-0.0773,-89.4772,0.0001,-0.1029,11.2835,0.0,-0.0377,4.0443,0.0001,0.0182
14914,-106.795,6.6786,-0.0106,-0.0773,-89.4772,0.0001,-0.1029,11.2835,0.0,-0.0377,4.0443,0.0001,0.0182
14930,-106.7995,7.1649,-0.0106,-0.0751,-89.4773,0.0001,-0.1044,11.4499,-0.0,-0.0362,3.8964,-0.0004,-0.0095
14946,-106.7995,7.1649,-0.0106,-0.0751,-89.4773,0.0001,-0.1044,11.4499,-0.0,-0.0362,3.8964,-0.0004,-0.0095
14962,-106.8033,7.5803,-0.0106,-0.0732,-89.4772,0.0001,-0.1057,11.5853,-0.0,-0.0347,3.7583,-0.0005,-0.0099
14978,-106.8033,7.5803,-0.0106,-0.0732,-89.4772,0.0001,-0.1057,11.5853,-0.0,-0.0347,3.7583,-0.0005,-0.0099
15007,-106.8071,8.0041,-0.0106,-0.0712,-89.4773,0.0001,-0.1069,11.7177,0.0,-0.0336,3.6447,0.0008,-0.0104
15011,-106.8071,8.0041,-0.0106,-0.0712,-89.4773,0.0001,-0.1069,11.7177,0.0,-0.0336,3.6447,0.0008,-0.0104
15027,-106.8104,8.3658,-0.0106,-0.0696,-89.4772,0.0001,-0.1079,11.8265,0.0,-0.0325,3.5473,0.0,-0.0021
15046,-106.8104,8.3658,-0.0106,-0.0696,-89.4772,0.0001,-0.1079,11.8265,0.0,-0.0325,3.5473,0.0,-0.0021
15059,-106.8129,8.6423,-0.0107,-0.0683,-89.4772,0.0,-0.1086,11.9074,-0.0,-0.0318,3.4744,-0.0002,0.0009
15075,-106.8129,8.6423,-0.0107,-0.0683,-89.4772,0.0,-0.1086,11.9074,-0.0,-0.0318,3.4744,-0.0002,0.0009
15094,-106.8175,9.1467,-0.0107,-0.0662,-89.4772,0.0001,-0.1099,12.05,-0.0,-0.0311,3.3912,-0.0003,-0.0002
15107,-106.8175,9.1467,-0.0107,-0.0662,-89.4772,0.0001,-0.1099,12.05,-0.0,-0.0311,3.3912,-0.0003,-0.0002
15126,-106.8215,9.582,-0.0107,-0.0644,-89.4772,0.0,-0.111,12.1684,0.0,-0.0301,3.2968,0.0006,-0.0002
15139,-106.8215,9.582,-0.0107,-0.0644,-89.4772,0.0,-0.111,12.1684,0.0,-0.0301,3.2968,0.0006,-0.0002
15155,-106.8241,9.8676,-0.0107,-0.0633,-89.4772,0.0,-0.1117,12.2438,-0.0,-0.0295,3.2274,-0.0005,0.0001
15171,-106.8241,9.8676,-0.0107,-0.0633,-89.4772,0.0,-0.1117,12.2438,-0.0,-0.0295,3.2274,-0.0005,0.0001
15187,-106.8241,9.8676,-0.0107,-0.0633,-89.4772,0.0,-0.1117,12.2438,-0.0,-0.0295,3.2274,-0.0005,0.0001
15204,-106.8296,10.4662,-0.0107,-0.061,-89.4772,0.0,-0.1131,12.3966,0.0,-0.0288,3.1487,0.0001,-0.0001
15219,-106.8296,10.4662,-0.0107,-0.061,-89.4772,0.0,-0.1131,12.3966,0.0,-0.0288,3.1487,0.0001,-0.0001
15235,-106.8296,10.4662,-0.0107,-0.061,-89.4772,0.0,-0.1131,12.3966,0.0,-0.0288,3.1487,0.0001,-0.0001
15251,-106.8343,10.9799,-0.0107,-0.0592,-89.4772,0.0,-0.1143,12.5223,0.0,-0.0278,3.0523,0.0001,0.0
15267,-106.8343,10.9799,-0.0107,-0.0592,-89.4772,0.0,-0.1143,12.5223,0.0,-0.0278,3.0523,0.0001,0.0
15289,-106.8389,11.4864,-0.0107,-0.0576,-89.4772,0.0,-0.1153,12.6414,-0.0,-0.027,2.9591,-0.0004,-0.0
15299,-106.8389,11.4864,-0.0107,-0.0576,-89.4772,0.0,-0.1153,12.6414,-0.0,-0.027,2.9591,-0.0004,-0.0
15318,-106.8432,11.9585,-0.0107,-0.0558,-89.4772,-0.0,-0.1163,12.7399,-0.0,-0.0243,2.6524,0.0002,-0.0
15331,-106.8432,11.9585,-0.0107,-0.0558,-89.4772,-0.0,-0.1163,12.7399,-0.0,-0.0243,2.6524,0.0002,-0.0
15347,-106.8469,12.3686,-0.0108,-0.0538,-89.4772,0.0,-0.1169,12.8138,0.0,-0.0209,2.3031,0.0001,-0.0
15363,-106.8469,12.3686,-0.0108,-0.0538,-89.4772,0.0,-0.1169,12.8138,0.0,-0.0209,2.3031,0.0001,-0.0
15382,-106.8497,12.6678,-0.0108,-0.0521,-89.4772,0.0,-0.1174,12.8618,-0.0,-0.0188,2.0592,-0.0003,-0.0
15398,-106.8497,12.6678,-0.0108,-0.0521,-89.4772,0.0,-0.1174,12.8618,-0.0,-0.0188,2.0592,-0.0003,-0.0
15420,-106.8542,13.1654,-0.0108,-0.0489,-89.4772,0.0,-0.118,12.9329,0.0,-0.0168,1.8442,0.0002,-0.0
15434,-106.8573,13.5082,-0.0108,-0.0465,-89.4772,0.0,-0.1184,12.9756,-0.0,-0.0147,1.6148,-0.0003,-0.0
15446,-106.8573,13.5082,-0.0108,-0.0465,-89.4772,0.0,-0.1184,12.9756,-0.0,-0.0147,1.6148,-0.0003,-0.0
15462,-106.8573,13.5082,-0.0108,-0.0465,-89.4772,0.0,-0.1184,12.9756,-0.0,-0.0147,1.6148,-0.0003,-0.0
15478,-106.8607,13.8787,-0.0108,-0.0438,-89.4772,0.0,-0.1188,13.017,-0.0,-0.0132,1.4537,-0.0004,-0.0
15494,-106.8607,13.8787,-0.0108,-0.0438,-89.4772,0.0,-0.1188,13.017,-0.0,-0.0132,1.4537,-0.0004,-0.0
15538,-106.8673,14.6042,-0.0109,-0.0385,-89.4772,0.0,-0.1194,13.0854,0.0,-0.0112,1.2307,0.0004,-0.0
15542,-106.8673,14.6042,-0.0109,-0.0385,-89.4772,0.0,-0.1194,13.0854,0.0,-0.0112,1.2307,0.0004,-0.0
15558,-106.8673,14.6042,-0.0109,-0.0385,-89.4772,0.0,-0.1194,13.0854,0.0,-0.0112,1.2307,0.0004,-0.0
15574,-106.8777,15.205,-0.0109,-0.0332,-89.6927,0.0304,-0.3844,13.0987,0.0002,-5.7787,0.2906,0.0051,-9.1943
15590,-106.8878,15.5153,-0.0109,-0.0294,-90.028,0.0619,-0.5917,13.0791,0.0006,-8.7389,-0.825,0.0134,-16.7606
15609,-106.8878,15.5153,-0.0109,-0.0294,-90.028,0.0619,-0.5917,13.0791,0.0006,-8.7389,-0.825,0.0134,-16.7606
15625,-106.8878,15.5153,-0.0109,-0.0294,-90.028,0.0619,-0.5917,13.0791,0.0006,-8.7389,-0.825,0.0134,-16.7606
15641,-106.9187,16.1076,-0.011,-0.0184,-91.2914,0.1397,-1.0623,12.9878,0.0011,-10.3491,-2.0092,0.0118,-35.6647
15657,-106.9394,16.4017,-0.011,-0.0117,-92.2603,0.1754,-1.2896,12.9275,0.0012,-9.9988,-2.6498,0.0056,-46.1712
15673,-106.9394,16.4017,-0.011,-0.0117,-92.2603,0.1754,-1.2896,12.9275,0.0012,-9.9988,-2.6498,0.0056,-46.1712
15689,-106.9662,16.7255,-0.011,-0.0033,-93.6337,0.2114,-1.5325,12.8501,0.0012,-9.6427,-3.0746,0.001,-58.7697
15705,-106.9662,16.7255,-0.011,-0.0033,-93.6337,0.2114,-1.5325,12.8501,0.0012,-9.6427,-3.0746,0.001,-58.7697
15721,-107.0001,17.0835,-0.0111,0.0067,-95.5648,0.2436,-1.7805,12.7555,0.0012,-8.8307,-3.3695,-0.0034,-73.8144
15737,-107.0001,17.0835,-0.0111,0.0067,-95.5648,0.2436,-1.7805,12.7555,0.0012,-8.8307,-3.3695,-0.0034,-73.8144
15758,-107.0472,17.5322,-0.0111,0.0188,-98.6398,0.267,-2.0386,12.6338,0.0009,-7.2491,-3.4169,-0.0084,-93.9602
15769,-107.0472,17.5322,-0.0111,0.0188,-98.6398,0.267,-2.0386,12.6338,0.0009,-7.2491,-3.4169,-0.0084,-93.9602
15785,-107.0797,17.8258,-0.0111,0.0254,-101.0679,0.2709,-2.1614,12.5601,0.0006,-5.2089,-3.1263,-0.0112,-107.5785
15801,-107.1206,18.1894,-0.0112,0.0322,-104.595,0.2632,-2.2706,12.4717,0.0002,-3.6951,-2.9909,-0.0126,-125.2769
15817,-107.1206,18.1894,-0.0112,0.0322,-104.595,0.2632,-2.2706,12.4717,0.0002,-3.6951,-2.9909,-0.0126,-125.2769
15836,-107.168,18.6229,-0.0112,0.0358,-109.559,0.2364,-2.3085,12.3838,-0.0003,-1.0612,-2.4593,-0.0133,-146.8829
15849,-107.168,18.6229,-0.0112,0.0358,-109.559,0.2364,-2.3085,12.3838,-0.0003,-1.0612,-2.4593,-0.0133,-146.8829
15865,-107.168,18.6229,-0.0112,0.0358,-109.559,0.2364,-2.3085,12.3838,-0.0003,-1.0612,-2.4593,-0.0133,-146.8829
15885,-107.2136,19.085,-0.0112,0.0329,-115.8504,0.187,-2.2376,12.3091,-0.0007,1.823,-1.9201,-0.0126,-170.5574
15897,-107.2136,19.085,-0.0112,0.0329,-115.8504,0.187,-2.2376,12.3091,-0.0007,1.823,-1.9201,-0.0126,-170.5574
15916,-107.244,19.469,-0.0112,0.0223,-121.8271,0.1293,-1.9858,12.2964,-0.0011,7.6407,-0.3853,-0.01,-187.1093
15929,-107.2575,19.7263,-0.0111,0.0084,-126.1342,0.078,-1.6879,12.3078,-0.0014,13.3297,0.5126,-0.0133,-195.2512
15945,-107.2575,19.7263,-0.0111,0.0084,-126.1342,0.078,-1.6879,12.3078,-0.0014,13.3297,0.5126,-0.0133,-195.2512
15964,-107.2637,20.0914,-0.0109,-0.0212,-132.5895,-0.0105,-1.1366,12.3101,-0.0018,17.1708,0.0709,-0.0133,-204.1655
15977,-107.2637,20.0914,-0.0109,-0.0212,-132.5895,-0.0105,-1.1366,12.3101,-0.0018,17.1708,0.0709,-0.0133,-204.1655
16009,-107.254,20.414,-0.0107,-0.0553,-138.5971,-0.0984,-0.552,12.2737,-0.0002,20.2695,-1.263,0.0567,-210.1762
16020,-107.254,20.414,-0.0107,-0.0553,-138.5971,-0.0984,-0.552,12.2737,-0.0002,20.2695,-1.263,0.0567,-210.1762
16039,-107.2109,20.8906,-0.0102,-0.1108,-147.9497,-0.2233,0.4321,12.1101,0.0014,22.5364,-3.747,0.0368,-216.5504
16052,-107.2109,20.8906,-0.0102,-0.1108,-147.9497,-0.2233,0.4321,12.1101,0.0014,22.5364,-3.747,0.0368,-216.5504
16068,-107.171,21.152,-0.01,-0.1419,-153.3405,-0.2889,1.0158,11.9478,0.0019,23.6497,-6.5734,0.0169,-219.2988
16084,-107.171,21.152,-0.01,-0.1419,-153.3405,-0.2889,1.0158,11.9478,0.0019,23.6497,-6.5734,0.0169,-219.2988
16100,-107.1055,21.4688,-0.0096,-0.1788,-160.1627,-0.3647,1.7506,11.6677,0.0021,23.8227,-9.0818,0.0073,-222.3055
16135,-107.0057,21.8264,-0.0093,-0.2196,-168.3562,-0.4482,2.6018,11.2282,0.0021,23.3181,-12.0397,0.0003,-225.7527
16148,-107.0057,21.8264,-0.0093,-0.2196,-168.3562,-0.4482,2.6018,11.2282,0.0021,23.3181,-12.0397,0.0003,-225.7527
16164,-106.934,22.0368,-0.0091,-0.2404,-173.469,-0.4952,3.058,10.8391,0.0021,20.2116,-17.24,0.0013,-226.7611
16180,-106.934,22.0368,-0.0091,-0.2404,-173.469,-0.4952,3.058,10.8391,0.0021,20.2116,-17.24,0.0013,-226.7611
16196,-106.8075,22.3524,-0.0088,-0.264,178.2074,-0.5859,3.585,10.0198,0.0023,14.4346,-22.4413,0.0038,-228.6154
16219,-106.7327,22.5186,-0.0087,-0.2721,173.4321,-0.6368,3.7907,9.4939,0.0022,9.8636,-25.2184,-0.0026,-229.1581
16228,-106.7327,22.5186,-0.0087,-0.2721,173.4321,-0.6368,3.7907,9.4939,0.0022,9.8636,-25.2184,-0.0026,-229.1581
16254,-106.6024,22.7805,-0.0085,-0.2786,165.1129,-0.7329,3.968,8.5166,0.0022,4.8858,-26.9237,-0.0013,-228.9907
16260,-106.6024,22.7805,-0.0085,-0.2786,165.1129,-0.7329,3.968,8.5166,0.0022,4.8858,-26.9237,-0.0013,-228.9907
16291,-106.4979,23.0104,-0.0087,-0.2522,157.616,-0.7911,3.3064,7.9631,-0.0024,-19.1271,-16.0013,-0.1317,-209.6511
16301,-106.4979,23.0104,-0.0087,-0.2522,157.616,-0.7911,3.3064,7.9631,-0.0024,-19.1271,-16.0013,-0.1317,-209.6511
16320,-106.4127,23.2684,-0.0092,-0.1896,149.4341,-0.8477,2.395,7.3759,0.0032,-22.2387,-14.3272,0.1371,-194.4095
16333,-106.4127,23.2684,-0.0092,-0.1896,149.4341,-0.8477,2.395,7.3759,0.0032,-22.2387,-14.3272,0.1371,-194.4095
16352,-106.3796,23.4414,-0.0095,-0.1396,143.9468,-0.8905,1.7096,7.0561,0.0023,-23.7345,-11.0761,-0.0327,-187.8177
16365,-106.3796,23.4414,-0.0095,-0.1396,143.9468,-0.8905,1.7096,7.0561,0.0023,-23.7345,-11.0761,-0.0327,-187.8177
16396,-106.3689,23.6364,-0.0098,-0.0833,138.0806,-0.9156,0.8679,6.9624,0.0013,-25.7649,-2.8686,-0.0287,-173.7719
16406,-106.3689,23.6364,-0.0098,-0.0833,138.0806,-0.9156,0.8679,6.9624,0.0013,-25.7649,-2.8686,-0.0287,-173.7719
16432,-106.3934,23.8897,-0.0103,-0.0079,131.5708,-0.9043,-0.1493,7.1377,0.0003,-25.0638,4.3189,-0.0247,-151.0876
16438,-106.3934,23.8897,-0.0103,-0.0079,131.5708,-0.9043,-0.1493,7.1377,0.0003,-25.0638,4.3189,-0.0247,-151.0876
16457,-106.4359,24.094,-0.0108,0.0468,127.2982,-0.875,-0.8355,7.3737,-0.0003,-22.3525,7.689,-0.0196,-131.8722
16470,-106.4359,24.094,-0.0108,0.0468,127.2982,-0.875,-0.8355,7.3737,-0.0003,-22.3525,7.689,-0.0196,-131.8722
16486,-106.4909,24.2977,-0.0111,0.0939,123.8312,-0.8294,-1.3391,7.658,-0.0007,-17.4836,9.8697,-0.0159,-115.0658
16502,-106.4909,24.2977,-0.0111,0.0939,123.8312,-0.8294,-1.3391,7.658,-0.0007,-17.4836,9.8697,-0.0159,-115.0658
16518,-106.562,24.5409,-0.0114,0.133,120.3451,-0.7484,-1.6019,8.0096,-0.0013,-8.0913,10.8231,-0.0164,-103.5878
16534,-106.562,24.5409,-0.0114,0.133,120.3451,-0.7484,-1.6019,8.0096,-0.0013,-8.0913,10.8231,-0.0164,-103.5878
16559,-106.6351,24.7974,-0.0117,0.1581,117.1006,-0.6317,-1.6118,8.3393,-0.0019,-0.3017,10.1432,-0.0198,-98.1283
16566,-106.6828,24.9772,-0.0118,0.1679,114.9695,-0.5417,-1.5163,8.5421,-0.0024,4.3459,9.2315,-0.0208,-96.5807
16582,-106.6828,24.9772,-0.0118,0.1679,114.9695,-0.5417,-1.5163,8.5421,-0.0024,4.3459,9.2315,-0.0208,-96.5807
16598,-106.6828,24.9772,-0.0118,0.1679,114.9695,-0.5417,-1.5163,8.5421,-0.0024,4.3459,9.2315,-0.0208,-96.5807
16614,-106.758,25.3015,-0.012,0.1748,111.3083,-0.3678,-1.2331,8.8568,-0.003,7.4125,8.2365,-0.0176,-95.6545
16646,-106.7988,25.5102,-0.0121,0.1744,109.0295,-0.268,-0.9984,9.0315,-0.0032,9.8356,7.3225,-0.0091,-95.5207
16662,-106.7988,25.5102,-0.0121,0.1744,109.0295,-0.268,-0.9984,9.0315,-0.0032,9.8356,7.3225,-0.0091,-95.5207
16678,-106.8665,25.9196,-0.0122,0.1708,104.9974,-0.1275,-0.8877,9.3476,-0.0032,2.4451,6.9806,0.0008,-82.4537
16694,-106.8665,25.9196,-0.0122,0.1708,104.9974,-0.1275,-0.8877,9.3476,-0.0032,2.4451,6.9806,0.0008,-82.4537
16710,-106.8665,25.9196,-0.0122,0.1708,104.9974,-0.1275,-0.8877,9.3476,-0.0032,2.4451,6.9806,0.0008,-82.4537
16731,-106.9469,26.4186,-0.0122,0.1594,101.5876,-0.101,-1.2365,9.5401,-0.0019,-6.5532,3.6184,0.0252,-49.6598
16742,-106.9469,26.4186,-0.0122,0.1594,101.5876,-0.101,-1.2365,9.5401,-0.0019,-6.5532,3.6184,0.0252,-49.6598
16761,-106.9891,26.6629,-0.0122,0.1494,100.5814,-0.1181,-1.4119,9.5895,-0.0009,-6.8301,1.9227,0.0385,-34.4441
16774,-106.9891,26.6629,-0.0122,0.1494,100.5814,-0.1181,-1.4119,9.5895,-0.0009,-6.8301,1.9227,0.0385,-34.4441
16790,-106.9891,26.6629,-0.0122,0.1494,100.5814,-0.1181,-1.4119,9.5895,-0.0009,-6.8301,1.9227,0.0385,-34.4441
16806,-106.9891,26.6629,-0.0122,0.1494,100.5814,-0.1181,-1.4119,9.5895,-0.0009,-6.8301,1.9227,0.0385,-34.4441
16822,-107.0923,27.2539,-0.012,0.1214,99.2601,-0.1291,-1.5669,9.6949,0.0001,-2.5236,1.7156,0.0156,-14.6585
16838,-107.0923,27.2539,-0.012,0.1214,99.2601,-0.1291,-1.5669,9.6949,0.0001,-2.5236,1.7156,0.0156,-14.6585
16866,-107.1557,27.63,-0.0119,0.1037,98.8717,-0.1118,-1.5684,9.7511,0.0,-0.0388,1.4515,-0.0019,-9.228
16872,-107.1557,27.63,-0.0119,0.1037,98.8717,-0.1118,-1.5684,9.7511,0.0,-0.0388,1.4515,-0.0019,-9.228
16888,-107.1557,27.63,-0.0119,0.1037,98.8717,-0.1118,-1.5684,9.7511,0.0,-0.0388,1.4515,-0.0019,-9.228
16904,-107.2128,27.9839,-0.0111,0.1246,98.6585,0.0216,-1.5536,9.7798,0.045,0.4088,0.7933,1.2426,-6.2573
16923,-107.255,28.2518,-0.0101,0.1557,98.5645,0.1469,-1.5425,9.7923,0.0436,0.4064,0.4575,-0.0513,-2.0893
16936,-107.255,28.2518,-0.0101,0.1557,98.5645,0.1469,-1.5425,9.7923,0.0436,0.4064,0.4575,-0.0513,-2.0893
16952,-107.2909,28.4747,-0.0105,0.1214,98.5029,0.0566,-1.5262,9.8386,-0.0226,0.7135,2.0342,-2.9169,-2.6538
16971,-107.3285,28.716,-0.0107,0.0958,98.4637,0.013,-1.5078,9.8633,-0.0171,0.7512,1.0085,0.2253,-0.9524
16984,-107.3285,28.716,-0.0107,0.0958,98.4637,0.013,-1.5078,9.8633,-0.0171,0.7512,1.0085,0.2253,-0.9524
17000,-107.3714,28.9958,-0.011,0.0754,98.4203,-0.0056,-1.495,9.8855,-0.012,0.454,0.7839,0.1801,-2.4446
17019,-107.4073,29.2336,-0.0111,0.0635,98.4114,-0.0099,-1.4884,9.9046,-0.0082,0.2731,0.7958,0.16,0.4016
17032,-107.4073,29.2336,-0.0111,0.0635,98.4114,-0.0099,-1.4884,9.9046,-0.0082,0.2731,0.7958,0.16,0.4016
17051,-107.4456,29.4878,-0.0112,0.0539,98.3871,-0.01,-1.4836,9.9218,-0.0057,0.1891,0.6693,0.0969,-1.8007
17064,-107.4808,29.7239,-0.0113,0.0471,98.3869,-0.0087,-1.4805,9.9386,-0.004,0.1267,0.7056,0.0717,0.684
17080,-107.4808,29.7239,-0.0113,0.0471,98.3869,-0.0087,-1.4805,9.9386,-0.004,0.1267,0.7056,0.0717,0.684
17096,-107.4808,29.7239,-0.0113,0.0471,98.3869,-0.0087,-1.4805,9.9386,-0.004,0.1267,0.7056,0.0717,0.684
17115,-107.5465,30.1651,-0.0113,0.0373,98.3644,-0.0056,-1.4768,9.9621,-0.0021,0.0834,0.5302,0.0421,-1.7957
17128,-107.5465,30.1651,-0.0113,0.0373,98.3644,-0.0056,-1.4768,9.9621,-0.0021,0.0834,0.5302,0.0421,-1.7957
17154,-107.595,30.4934,-0.0113,0.0288,98.3613,0.0007,-1.4751,9.9809,0.0031,0.0532,0.571,0.1601,-1.2849
17160,-107.595,30.4934,-0.0113,0.0288,98.3613,0.0007,-1.4751,9.9809,0.0031,0.0532,0.571,0.1601,-1.2849
17176,-107.595,30.4934,-0.0113,0.0288,98.3613,0.0007,-1.4751,9.9809,0.0031,0.0532,0.571,0.1601,-1.2849
17195,-107.6602,30.9364,-0.0104,-0.0175,98.3657,0.0467,-1.4783,9.9901,-0.0124,-0.0726,0.2069,-0.3509,1.1547
17208,-107.6602,30.9364,-0.0104,-0.0175,98.3657,0.0467,-1.4783,9.9901,-0.0124,-0.0726,0.2069,-0.3509,1.1547
17224,-107.7072,31.2534,-0.0109,0.0066,98.3621,0.0112,-1.4757,10.019,-0.0079,0.0812,0.9136,0.1437,0.759
17240,-107.7072,31.2534,-0.0109,0.0066,98.3621,0.0112,-1.4757,10.019,-0.0079,0.0812,0.9136,0.1437,0.759
17263,-107.7515,31.5532,-0.0112,0.0171,98.3448,-0.001,-1.4755,10.0327,-0.0051,0.0094,0.4613,0.0936,-2.1049
17272,-107.7515,31.5532,-0.0112,0.0171,98.3448,-0.001,-1.4755,10.0327,-0.0051,0.0094,0.4613,0.0936,-2.1049
17288,-107.7515,31.5532,-0.0112,0.0171,98.3448,-0.001,-1.4755,10.0327,-0.0051,0.0094,0.4613,0.0936,-2.1049
17312,-107.8272,32.0682,-0.0113,0.0216,98.3457,-0.0053,-1.4776,10.058,-0.0018,-0.0414,0.4922,0.0647,-1.3867
17320,-107.8272,32.0682,-0.0113,0.0216,98.3457,-0.0053,-1.4776,10.058,-0.0018,-0.0414,0.4922,0.0647,-1.3867
17336,-107.8272,32.0682,-0.0113,0.0216,98.3457,-0.0053,-1.4776,10.058,-0.0018,-0.0414,0.4922,0.0647,-1.3867
17352,-107.8932,32.5181,-0.0114,0.0208,98.3592,-0.005,-1.48,10.0781,-0.0006,-0.0547,0.4509,0.0271,1.637
17376,-107.9352,32.8029,-0.0114,0.0194,98.3413,-0.0044,-1.4814,10.0877,-0.0002,-0.0487,0.3375,0.0142,-1.989
17384,-107.9352,32.8029,-0.0114,0.0194,98.3413,-0.0044,-1.4814,10.0877,-0.0002,-0.0487,0.3375,0.0142,-1.989
17400,-107.9352,32.8029,-0.0114,0.0194,98.3413,-0.0044,-1.4814,10.0877,-0.0002,-0.0487,0.3375,0.0142,-1.989
17416,-107.9352,32.8029,-0.0114,0.0194,98.3413,-0.0044,-1.4814,10.0877,-0.0002,-0.0487,0.3375,0.0142,-1.989
17432,-108.0072,33.2949,-0.0113,0.0165,98.3623,-0.0034,-1.4829,10.1001,0.0002,-0.0314,0.256,0.0066,2.2558
17453,-108.0442,33.546,-0.0113,0.0153,98.35,-0.003,-1.4856,10.1166,0.0002,-0.1054,0.6617,0.0023,-1.247
17464,-108.0442,33.546,-0.0113,0.0153,98.35,-0.003,-1.4856,10.1166,0.0002,-0.1054,0.6617,0.0023,-1.247
17487,-108.0898,33.8563,-0.0113,0.0146,98.3514,-0.0026,-1.4891,10.1401,0.0003,-0.1143,0.767,0.0009,-0.7316
17496,-108.0898,33.8563,-0.0113,0.0146,98.3514,-0.0026,-1.4891,10.1401,0.0003,-0.1143,0.767,0.0009,-0.7316
17512,-108.0898,33.8563,-0.0113,0.0146,98.3514,-0.0026,-1.4891,10.1401,0.0003,-0.1143,0.767,0.0009,-0.7316
17528,-108.1442,34.2271,-0.0113,0.0138,98.3478,-0.0021,-1.4921,10.1598,0.0002,-0.0837,0.5412,-0.0003,-1.5524
17544,-108.1442,34.2271,-0.0113,0.0138,98.3478,-0.0021,-1.4921,10.1598,0.0002,-0.0837,0.5412,-0.0003,-1.5524
17560,-108.2031,34.6277,-0.0113,0.0125,98.3451,-0.0017,-1.4935,10.1685,0.0002,-0.0361,0.219,-0.0,-2.2867
17576,-108.2031,34.6277,-0.0113,0.0125,98.3451,-0.0017,-1.4935,10.1685,0.0002,-0.0361,0.219,-0.0,-2.2867
17592,-108.2414,34.8894,-0.0113,0.0118,98.359,-0.0015,-1.4954,10.1824,0.0002,-0.072,0.5418,-0.0012,1.4101
17608,-108.2414,34.8894,-0.0113,0.0118,98.359,-0.0015,-1.4954,10.1824,0.0002,-0.072,0.5418,-0.0012,1.4101
17624,-108.2414,34.8894,-0.0113,0.0118,98.359,-0.0015,-1.4954,10.1824,0.0002,-0.072,0.5418,-0.0012,1.4101
17640,-108.3116,35.3666,-0.0113,0.0108,98.3429,-0.0011,-1.4981,10.2013,0.0002,-0.0574,0.4046,-0.0013,-1.907
17656,-108.3116,35.3666,-0.0113,0.0108,98.3429,-0.0011,-1.4981,10.2013,0.0002,-0.0574,0.4046,-0.0013,-1.907
17677,-108.3755,35.8026,-0.0113,0.0103,98.3555,-0.0009,-1.5013,10.2256,0.0001,-0.0747,0.5695,-0.0006,1.2875
17688,-108.3755,35.8026,-0.0113,0.0103,98.3555,-0.0009,-1.5013,10.2256,0.0001,-0.0747,0.5695,-0.0006,1.2875
17704,-108.3755,35.8026,-0.0113,0.0103,98.3555,-0.0009,-1.5013,10.2256,0.0001,-0.0747,0.5695,-0.0006,1.2875
17720,-108.4324,36.1897,-0.0112,0.01,98.3579,-0.0006,-1.5032,10.2402,0.0001,-0.0498,0.3851,-0.0007,1.922
17736,-108.4661,36.4192,-0.0112,0.0098,98.3504,-0.0005,-1.5056,10.2561,0.0001,-0.1106,0.7094,-0.0014,-0.7202
17752,-108.4661,36.4192,-0.0112,0.0098,98.3504,-0.0005,-1.5056,10.2561,0.0001,-0.1106,0.7094,-0.0014,-0.7202
17768,-108.4661,36.4192,-0.0112,0.0098,98.3504,-0.0005,-1.5056,10.2561,0.0001,-0.1106,0.7094,-0.0014,-0.7202
17784,-108.5335,36.8789,-0.0112,0.0099,98.3607,-0.0004,-1.5093,10.2799,0.0001,-0.0809,0.532,-0.0002,1.437
17800,-108.5335,36.8789,-0.0112,0.0099,98.3607,-0.0004,-1.5093,10.2799,0.0001,-0.0809,0.532,-0.0002,1.437
17816,-108.5865,37.2397,-0.0112,0.0097,98.3607,-0.0004,-1.5117,10.2954,0.0,-0.0686,0.4437,-0.0007,1.4125
17832,-108.5865,37.2397,-0.0112,0.0097,98.3607,-0.0004,-1.5117,10.2954,0.0,-0.0686,0.4437,-0.0007,1.4125
