timestamp,x,y,z,pitch,yaw,roll,vx,vy,vz,ax,ay,az,yaw_rate
83881,-106.6867,-4.8475,-0.081,0.0,-89.3578,0.0,-0.0,0.0,-0.0186,-0.0,0.0,8.697,-0.0
83897,-106.6867,-4.8475,-0.081,0.0,-89.3578,0.0,-0.0,0.0,-0.0186,-0.0,0.0,8.697,-0.0
83913,-106.6867,-4.8475,-0.081,0.0,-89.3578,0.0,-0.0,0.0,-0.0186,-0.0,0.0,8.697,-0.0
83929,-106.6867,-4.8475,-0.081,0.0,-89.3578,0.0,-0.0,0.0,-0.0186,-0.0,0.0,8.697,-0.0
83945,-106.6867,-4.8475,-0.081,0.0,-89.3578,0.0,-0.0,0.0,-0.0186,-0.0,0.0,8.697,-0.0
83961,-106.6867,-4.8475,-0.081,0.0,-89.3578,0.0,-0.0,0.0,-0.0186,-0.0,0.0,8.697,-0.0
83977,-106.6867,-4.8475,-0.081,0.0,-89.3578,0.0,-0.0,0.0,-0.0186,-0.0,0.0,8.697,-0.0
83993,-106.6867,-4.8475,-0.081,0.0,-89.3578,0.0,-0.0,0.0,-0.0186,-0.0,0.0,8.697,-0.0
84009,-106.6867,-4.8475,-0.081,0.0,-89.3578,0.0,-0.0,0.0,-0.0186,-0.0,0.0,8.697,-0.0
84025,-106.6867,-4.8475,-0.081,0.0,-89.3578,0.0,-0.0,0.0,-0.0186,-0.0,0.0,8.697,-0.0
84041,-106.6867,-4.8475,-0.081,0.0,-89.3578,0.0,-0.0,0.0,-0.0186,-0.0,0.0,8.697,-0.0
84057,-106.6867,-4.8475,-0.081,0.0,-89.3578,0.0,-0.0,0.0,-0.0186,-0.0,0.0,8.697,-0.0
84073,-106.6867,-4.8475,-0.081,0.0,-89.3578,0.0,-0.0,0.0,-0.0186,-0.0,0.0,8.697,-0.0
84089,-106.6867,-4.848,-0.0639,-0.0001,-89.3578,0.0,-0.0002,0.0176,0.2378,-0.001,0.0885,1.2878,0.0006
84105,-106.6867,-4.848,-0.0639,-0.0001,-89.3578,0.0,-0.0002,0.0176,0.2378,-0.001,0.0885,1.2878,0.0006
84121,-106.6867,-4.848,-0.0639,-0.0001,-89.3578,0.0,-0.0002,0.0176,0.2378,-0.001,0.0885,1.2878,0.0006
84137,-106.6867,-4.848,-0.0639,-0.0001,-89.3578,0.0,-0.0002,0.0176,0.2378,-0.001,0.0885,1.2878,0.0006
84153,-106.6867,-4.848,-0.0639,-0.0001,-89.3578,0.0,-0.0002,0.0176,0.2378,-0.001,0.0885,1.2878,0.0006
84169,-106.6867,-4.848,-0.0639,-0.0001,-89.3578,0.0,-0.0002,0.0176,0.2378,-0.001,0.0885,1.2878,0.0006
84185,-106.6867,-4.848,-0.0639,-0.0001,-89.3578,0.0,-0.0002,0.0176,0.2378,-0.001,0.0885,1.2878,0.0006
84201,-106.6867,-4.848,-0.0639,-0.0001,-89.3578,0.0,-0.0002,0.0176,0.2378,-0.001,0.0885,1.2878,0.0006
84217,-106.6867,-4.848,-0.0639,-0.0001,-89.3578,0.0,-0.0002,0.0176,0.2378,-0.001,0.0885,1.2878,0.0006
84233,-106.6867,-4.848,-0.0639,-0.0001,-89.3578,0.0,-0.0002,0.0176,0.2378,-0.001,0.0885,1.2878,0.0006
84249,-106.6867,-4.848,-0.0639,-0.0001,-89.3578,0.0,-0.0002,0.0176,0.2378,-0.001,0.0885,1.2878,0.0006
84265,-106.6868,-4.8403,-0.0419,-0.0083,-89.3579,0.0,-0.0023,0.2068,0.1905,-0.0121,1.077,-0.2692,-0.0222
84281,-106.6868,-4.8403,-0.0419,-0.0083,-89.3579,0.0,-0.0023,0.2068,0.1905,-0.0121,1.077,-0.2692,-0.0222
84297,-106.6868,-4.8403,-0.0419,-0.0083,-89.3579,0.0,-0.0023,0.2068,0.1905,-0.0121,1.077,-0.2692,-0.0222
84313,-106.6868,-4.8403,-0.0419,-0.0083,-89.3579,0.0,-0.0023,0.2068,0.1905,-0.0121,1.077,-0.2692,-0.0222
84329,-106.6868,-4.8403,-0.0419,-0.0083,-89.3579,0.0,-0.0023,0.2068,0.1905,-0.0121,1.077,-0.2692,-0.0222
84345,-106.6868,-4.8403,-0.0419,-0.0083,-89.3579,0.0,-0.0023,0.2068,0.1905,-0.0121,1.077,-0.2692,-0.0222
84363,-106.6874,-4.8006,-0.0272,-0.0293,-89.3451,0.0001,-0.007,0.5417,0.1142,-0.0472,3.4057,-0.7758,-0.3093
84377,-106.6874,-4.8006,-0.0272,-0.0293,-89.3451,0.0001,-0.007,0.5417,0.1142,-0.0472,3.4057,-0.7758,-0.3093
84393,-106.6874,-4.8006,-0.0272,-0.0293,-89.3451,0.0001,-0.007,0.5417,0.1142,-0.0472,3.4057,-0.7758,-0.3093
84409,-106.6874,-4.8006,-0.0272,-0.0293,-89.3451,0.0001,-0.007,0.5417,0.1142,-0.0472,3.4057,-0.7758,-0.3093
84425,-106.6874,-4.8006,-0.0272,-0.0293,-89.3451,0.0001,-0.007,0.5417,0.1142,-0.0472,3.4057,-0.7758,-0.3093
84441,-106.6881,-4.7322,-0.0194,-0.043,-89.3479,0.0,-0.0108,0.9005,0.0643,-0.0421,3.979,-0.554,-0.9922
84457,-106.6881,-4.7322,-0.0194,-0.043,-89.3479,0.0,-0.0108,0.9005,0.0643,-0.0421,3.979,-0.554,-0.9922
84473,-106.6881,-4.7322,-0.0194,-0.043,-89.3479,0.0,-0.0108,0.9005,0.0643,-0.0421,3.979,-0.554,-0.9922
84489,-106.6881,-4.7322,-0.0194,-0.043,-89.3479,0.0,-0.0108,0.9005,0.0643,-0.0421,3.979,-0.554,-0.9922
84505,-106.6881,-4.7322,-0.0194,-0.043,-89.3479,0.0,-0.0108,0.9005,0.0643,-0.0421,3.979,-0.554,-0.9922
84521,-106.6881,-4.7322,-0.0194,-0.043,-89.3479,0.0,-0.0108,0.9005,0.0643,-0.0421,3.979,-0.554,-0.9922
84537,-106.6885,-4.6352,-0.0148,-0.0462,-89.4145,-0.0008,-0.0116,1.1553,0.0381,-0.0085,2.7195,-0.2796,0.4968
84553,-106.6885,-4.6352,-0.0148,-0.0462,-89.4145,-0.0008,-0.0116,1.1553,0.0381,-0.0085,2.7195,-0.2796,0.4968
84569,-106.6885,-4.6352,-0.0148,-0.0462,-89.4145,-0.0008,-0.0116,1.1553,0.0381,-0.0085,2.7195,-0.2796,0.4968
84585,-106.6885,-4.6352,-0.0148,-0.0462,-89.4145,-0.0008,-0.0116,1.1553,0.0381,-0.0085,2.7195,-0.2796,0.4968
84601,-106.6885,-4.6352,-0.0148,-0.0462,-89.4145,-0.0008,-0.0116,1.1553,0.0381,-0.0085,2.7195,-0.2796,0.4968
84617,-106.6885,-4.6352,-0.0148,-0.0462,-89.4145,-0.0008,-0.0116,1.1553,0.0381,-0.0085,2.7195,-0.2796,0.4968
84634,-106.6905,-4.52,-0.0126,-0.0375,-89.326,0.0005,-0.0143,1.1692,0.0155,-0.0292,0.149,-0.241,0.3535
84649,-106.6905,-4.52,-0.0126,-0.0375,-89.326,0.0005,-0.0143,1.1692,0.0155,-0.0292,0.149,-0.241,0.3535
84665,-106.6905,-4.52,-0.0126,-0.0375,-89.326,0.0005,-0.0143,1.1692,0.0155,-0.0292,0.149,-0.241,0.3535
84681,-106.6905,-4.52,-0.0126,-0.0375,-89.326,0.0005,-0.0143,1.1692,0.0155,-0.0292,0.149,-0.241,0.3535
84697,-106.6905,-4.52,-0.0126,-0.0375,-89.326,0.0005,-0.0143,1.1692,0.0155,-0.0292,0.149,-0.241,0.3535
84713,-106.6905,-4.52,-0.0126,-0.0375,-89.326,0.0005,-0.0143,1.1692,0.0155,-0.0292,0.149,-0.241,0.3535
84731,-106.692,-4.4058,-0.0118,-0.0286,-89.2954,0.0001,-0.015,1.351,0.0069,-0.0074,2.0009,-0.0945,1.0966
84745,-106.692,-4.4058,-0.0118,-0.0286,-89.2954,0.0001,-0.015,1.351,0.0069,-0.0074,2.0009,-0.0945,1.0966
84761,-106.692,-4.4058,-0.0118,-0.0286,-89.2954,0.0001,-0.015,1.351,0.0069,-0.0074,2.0009,-0.0945,1.0966
84777,-106.692,-4.4058,-0.0118,-0.0286,-89.2954,0.0001,-0.015,1.351,0.0069,-0.0074,2.0009,-0.0945,1.0966
84793,-106.692,-4.4058,-0.0118,-0.0286,-89.2954,0.0001,-0.015,1.351,0.0069,-0.0074,2.0009,-0.0945,1.0966
84809,-106.692,-4.4058,-0.0118,-0.0286,-89.2954,0.0001,-0.015,1.351,0.0069,-0.0074,2.0009,-0.0945,1.0966
84825,-106.6939,-4.264,-0.0113,-0.0381,-89.296,0.0004,-0.0208,1.6652,0.0033,-0.0642,3.4356,-0.0399,0.159
84841,-106.6939,-4.264,-0.0113,-0.0381,-89.296,0.0004,-0.0208,1.6652,0.0033,-0.0642,3.4356,-0.0399,0.159
84857,-106.6939,-4.264,-0.0113,-0.0381,-89.296,0.0004,-0.0208,1.6652,0.0033,-0.0642,3.4356,-0.0399,0.159
84873,-106.6939,-4.264,-0.0113,-0.0381,-89.296,0.0004,-0.0208,1.6652,0.0033,-0.0642,3.4356,-0.0399,0.159
84889,-106.6939,-4.264,-0.0113,-0.0381,-89.296,0.0004,-0.0208,1.6652,0.0033,-0.0642,3.4356,-0.0399,0.159
84905,-106.6962,-4.091,-0.011,-0.0447,-89.2786,0.0002,-0.024,1.924,0.0016,-0.0341,2.7938,-0.0184,0.1722
84921,-106.6962,-4.091,-0.011,-0.0447,-89.2786,0.0002,-0.024,1.924,0.0016,-0.0341,2.7938,-0.0184,0.1722
84937,-106.6962,-4.091,-0.011,-0.0447,-89.2786,0.0002,-0.024,1.924,0.0016,-0.0341,2.7938,-0.0184,0.1722
84953,-106.6962,-4.091,-0.011,-0.0447,-89.2786,0.0002,-0.024,1.924,0.0016,-0.0341,2.7938,-0.0184,0.1722
84969,-106.6962,-4.091,-0.011,-0.0447,-89.2786,0.0002,-0.024,1.924,0.0016,-0.0341,2.7938,-0.0184,0.1722
84985,-106.6962,-4.091,-0.011,-0.0447,-89.2786,0.0002,-0.024,1.924,0.0016,-0.0341,2.7938,-0.0184,0.1722
85003,-106.6986,-3.8861,-0.0108,-0.0571,-89.3009,0.0001,-0.0315,2.5431,0.0008,-0.0841,6.9001,-0.0089,0.0405
85017,-106.6986,-3.8861,-0.0108,-0.0571,-89.3009,0.0001,-0.0315,2.5431,0.0008,-0.0841,6.9001,-0.0089,0.0405
85033,-106.6986,-3.8861,-0.0108,-0.0571,-89.3009,0.0001,-0.0315,2.5431,0.0008,-0.0841,6.9001,-0.0089,0.0405
85049,-106.6986,-3.8861,-0.0108,-0.0571,-89.3009,0.0001,-0.0315,2.5431,0.0008,-0.0841,6.9001,-0.0089,0.0405
85065,-106.6986,-3.8861,-0.0108,-0.0571,-89.3009,0.0001,-0.0315,2.5431,0.0008,-0.0841,6.9001,-0.0089,0.0405
85081,-106.6986,-3.8861,-0.0108,-0.0571,-89.3009,0.0001,-0.0315,2.5431,0.0008,-0.0841,6.9001,-0.0089,0.0405
85098,-106.7015,-3.6207,-0.0106,-0.0773,-89.3405,-0.0005,-0.0369,3.1933,0.0004,-0.0566,6.892,-0.004,-2.6545
85113,-106.7015,-3.6207,-0.0106,-0.0773,-89.3405,-0.0005,-0.0369,3.1933,0.0004,-0.0566,6.892,-0.004,-2.6545
85129,-106.7015,-3.6207,-0.0106,-0.0773,-89.3405,-0.0005,-0.0369,3.1933,0.0004,-0.0566,6.892,-0.004,-2.6545
85145,-106.7015,-3.6207,-0.0106,-0.0773,-89.3405,-0.0005,-0.0369,3.1933,0.0004,-0.0566,6.892,-0.004,-2.6545
85161,-106.7015,-3.6207,-0.0106,-0.0773,-89.3405,-0.0005,-0.0369,3.1933,0.0004,-0.0566,6.892,-0.004,-2.6545
85177,-106.7015,-3.6207,-0.0106,-0.0773,-89.3405,-0.0005,-0.0369,3.1933,0.0004,-0.0566,6.892,-0.004,-2.6545
85194,-106.7058,-3.2829,-0.0105,-0.0875,-89.2983,0.0,-0.0466,3.7535,0.0002,-0.0988,5.6613,-0.002,-2.0211
85209,-106.7058,-3.2829,-0.0105,-0.0875,-89.2983,0.0,-0.0466,3.7535,0.0002,-0.0988,5.6613,-0.002,-2.0211
85225,-106.7058,-3.2829,-0.0105,-0.0875,-89.2983,0.0,-0.0466,3.7535,0.0002,-0.0988,5.6613,-0.002,-2.0211
85241,-106.7058,-3.2829,-0.0105,-0.0875,-89.2983,0.0,-0.0466,3.7535,0.0002,-0.0988,5.6613,-0.002,-2.0211
85257,-106.7058,-3.2829,-0.0105,-0.0875,-89.2983,0.0,-0.0466,3.7535,0.0002,-0.0988,5.6613,-0.002,-2.0211
85273,-106.7058,-3.2829,-0.0105,-0.0875,-89.2983,0.0,-0.0466,3.7535,0.0002,-0.0988,5.6613,-0.002,-2.0211
85289,-106.7107,-2.9289,-0.0105,-0.0869,-89.2379,0.0008,-0.0543,4.0955,0.0001,-0.0851,3.8086,-0.0011,1.499
85305,-106.7107,-2.9289,-0.0105,-0.0869,-89.2379,0.0008,-0.0543,4.0955,0.0001,-0.0851,3.8086,-0.0011,1.499
85321,-106.7107,-2.9289,-0.0105,-0.0869,-89.2379,0.0008,-0.0543,4.0955,0.0001,-0.0851,3.8086,-0.0011,1.499
85337,-106.7107,-2.9289,-0.0105,-0.0869,-89.2379,0.0008,-0.0543,4.0955,0.0001,-0.0851,3.8086,-0.0011,1.499
85353,-106.7107,-2.9289,-0.0105,-0.0869,-89.2379,0.0008,-0.0543,4.0955,0.0001,-0.0851,3.8086,-0.0011,1.499
85369,-106.7107,-2.9289,-0.0105,-0.0869,-89.2379,0.0008,-0.0543,4.0955,0.0001,-0.0851,3.8086,-0.0011,1.499
85385,-106.717,-2.5103,-0.0105,-0.0919,-89.1756,0.0019,-0.0683,4.7233,0.0001,-0.1494,6.714,-0.0004,0.7265
85401,-106.717,-2.5103,-0.0105,-0.0919,-89.1756,0.0019,-0.0683,4.7233,0.0001,-0.1494,6.714,-0.0004,0.7265
85417,-106.717,-2.5103,-0.0105,-0.0919,-89.1756,0.0019,-0.0683,4.7233,0.0001,-0.1494,6.714,-0.0004,0.7265
85433,-106.717,-2.5103,-0.0105,-0.0919,-89.1756,0.0019,-0.0683,4.7233,0.0001,-0.1494,6.714,-0.0004,0.7265
85449,-106.717,-2.5103,-0.0105,-0.0919,-89.1756,0.0019,-0.0683,4.7233,0.0001,-0.1494,6.714,-0.0004,0.7265
85467,-106.7243,-2.0413,-0.0104,-0.1022,-89.1317,0.0019,-0.0819,5.402,0.0,-0.1488,7.4294,-0.0004,0.1613
85481,-106.7243,-2.0413,-0.0104,-0.1022,-89.1317,0.0019,-0.0819,5.402,0.0,-0.1488,7.4294,-0.0004,0.1613
85497,-106.7243,-2.0413,-0.0104,-0.1022,-89.1317,0.0019,-0.0819,5.402,0.0,-0.1488,7.4294,-0.0004,0.1613
85513,-106.7243,-2.0413,-0.0104,-0.1022,-89.1317,0.0019,-0.0819,5.402,0.0,-0.1488,7.4294,-0.0004,0.1613
85529,-106.7243,-2.0413,-0.0104,-0.1022,-89.1317,0.0019,-0.0819,5.402,0.0,-0.1488,7.4294,-0.0004,0.1613
85545,-106.7243,-2.0413,-0.0104,-0.1022,-89.1317,0.0019,-0.0819,5.402,0.0,-0.1488,7.4294,-0.0004,0.1613
85562,-106.7325,-1.4947,-0.0104,-0.109,-89.1415,0.0012,-0.0912,6.0787,0.0,-0.0995,7.1885,-0.0001,-0.059
85577,-106.7325,-1.4947,-0.0104,-0.109,-89.1415,0.0012,-0.0912,6.0787,0.0,-0.0995,7.1885,-0.0001,-0.059
85593,-106.7325,-1.4947,-0.0104,-0.109,-89.1415,0.0012,-0.0912,6.0787,0.0,-0.0995,7.1885,-0.0001,-0.059
85609,-106.7325,-1.4947,-0.0104,-0.109,-89.1415,0.0012,-0.0912,6.0787,0.0,-0.0995,7.1885,-0.0001,-0.059
85625,-106.7325,-1.4947,-0.0104,-0.109,-89.1415,0.0012,-0.0912,6.0787,0.0,-0.0995,7.1885,-0.0001,-0.059
85641,-106.7325,-1.4947,-0.0104,-0.109,-89.1415,0.0012,-0.0912,6.0787,0.0,-0.0995,7.1885,-0.0001,-0.059
85659,-106.7416,-0.899,-0.0103,-0.12,-89.1291,0.0008,-0.1043,6.8834,0.0,-0.1443,8.8444,-0.0001,0.2927
85673,-106.7416,-0.899,-0.0103,-0.12,-89.1291,0.0008,-0.1043,6.8834,0.0,-0.1443,8.8444,-0.0001,0.2927
85689,-106.7416,-0.899,-0.0103,-0.12,-89.1291,0.0008,-0.1043,6.8834,0.0,-0.1443,8.8444,-0.0001,0.2927
85705,-106.7416,-0.899,-0.0103,-0.12,-89.1291,0.0008,-0.1043,6.8834,0.0,-0.1443,8.8444,-0.0001,0.2927
85721,-106.7416,-0.899,-0.0103,-0.12,-89.1291,0.0008,-0.1043,6.8834,0.0,-0.1443,8.8444,-0.0001,0.2927
85737,-106.7416,-0.899,-0.0103,-0.12,-89.1291,0.0008,-0.1043,6.8834,0.0,-0.1443,8.8444,-0.0001,0.2927
85753,-106.7515,-0.2357,-0.0102,-0.1238,-89.138,0.0005,-0.1142,7.5631,-0.0,-0.1079,7.4685,-0.0,-0.2557
85769,-106.7515,-0.2357,-0.0102,-0.1238,-89.138,0.0005,-0.1142,7.5631,-0.0,-0.1079,7.4685,-0.0,-0.2557
85785,-106.7515,-0.2357,-0.0102,-0.1238,-89.138,0.0005,-0.1142,7.5631,-0.0,-0.1079,7.4685,-0.0,-0.2557
85801,-106.7515,-0.2357,-0.0102,-0.1238,-89.138,0.0005,-0.1142,7.5631,-0.0,-0.1079,7.4685,-0.0,-0.2557
85817,-106.7515,-0.2357,-0.0102,-0.1238,-89.138,0.0005,-0.1142,7.5631,-0.0,-0.1079,7.4685,-0.0,-0.2557
85833,-106.7515,-0.2357,-0.0102,-0.1238,-89.138,0.0005,-0.1142,7.5631,-0.0,-0.1079,7.4685,-0.0,-0.2557
85849,-106.7632,0.5326,-0.0103,-0.1153,-89.1289,0.0003,-0.1231,8.1268,-0.0,-0.0914,5.7995,-0.0,0.324
85865,-106.7632,0.5326,-0.0103,-0.1153,-89.1289,0.0003,-0.1231,8.1268,-0.0,-0.0914,5.7995,-0.0,0.324
85881,-106.7632,0.5326,-0.0103,-0.1153,-89.1289,0.0003,-0.1231,8.1268,-0.0,-0.0914,5.7995,-0.0,0.324
85897,-106.7632,0.5326,-0.0103,-0.1153,-89.1289,0.0003,-0.1231,8.1268,-0.0,-0.0914,5.7995,-0.0,0.324
85913,-106.7632,0.5326,-0.0103,-0.1153,-89.1289,0.0003,-0.1231,8.1268,-0.0,-0.0914,5.7995,-0.0,0.324
85929,-106.7632,0.5326,-0.0103,-0.1153,-89.1289,0.0003,-0.1231,8.1268,-0.0,-0.0914,5.7995,-0.0,0.324
85945,-106.7754,1.3392,-0.0104,-0.1083,-89.1357,0.0002,-0.1317,8.7174,-0.0,-0.0909,6.2034,-0.0001,-0.0862
85961,-106.7754,1.3392,-0.0104,-0.1083,-89.1357,0.0002,-0.1317,8.7174,-0.0,-0.0909,6.2034,-0.0001,-0.0862
85977,-106.7754,1.3392,-0.0104,-0.1083,-89.1357,0.0002,-0.1317,8.7174,-0.0,-0.0909,6.2034,-0.0001,-0.0862
85993,-106.7754,1.3392,-0.0104,-0.1083,-89.1357,0.0002,-0.1317,8.7174,-0.0,-0.0909,6.2034,-0.0001,-0.0862
86009,-106.7754,1.3392,-0.0104,-0.1083,-89.1357,0.0002,-0.1317,8.7174,-0.0,-0.0909,6.2034,-0.0001,-0.0862
86027,-106.7877,2.1575,-0.0104,-0.1067,-89.1343,0.0001,-0.1407,9.3133,0.0,-0.1,6.5954,0.0002,0.0007
86041,-106.7877,2.1575,-0.0104,-0.1067,-89.1343,0.0001,-0.1407,9.3133,0.0,-0.1,6.5954,0.0002,0.0007
86057,-106.7877,2.1575,-0.0104,-0.1067,-89.1343,0.0001,-0.1407,9.3133,0.0,-0.1,6.5954,0.0002,0.0007
86073,-106.7877,2.1575,-0.0104,-0.1067,-89.1343,0.0001,-0.1407,9.3133,0.0,-0.1,6.5954,0.0002,0.0007
86089,-106.7877,2.1575,-0.0104,-0.1067,-89.1343,0.0001,-0.1407,9.3133,0.0,-0.1,6.5954,0.0002,0.0007
86105,-106.7877,2.1575,-0.0104,-0.1067,-89.1343,0.0001,-0.1407,9.3133,0.0,-0.1,6.5954,0.0002,0.0007
86123,-106.8009,3.0307,-0.0104,-0.1035,-89.1343,0.0001,-0.1486,9.8336,-0.0,-0.0865,5.7289,-0.0001,0.0005
86137,-106.8009,3.0307,-0.0104,-0.1035,-89.1343,0.0001,-0.1486,9.8336,-0.0,-0.0865,5.7289,-0.0001,0.0005
86153,-106.8009,3.0307,-0.0104,-0.1035,-89.1343,0.0001,-0.1486,9.8336,-0.0,-0.0865,5.7289,-0.0001,0.0005
86169,-106.8009,3.0307,-0.0104,-0.1035,-89.1343,0.0001,-0.1486,9.8336,-0.0,-0.0865,5.7289,-0.0001,0.0005
86185,-106.8009,3.0307,-0.0104,-0.1035,-89.1343,0.0001,-0.1486,9.8336,-0.0,-0.0865,5.7289,-0.0001,0.0005
86201,-106.8009,3.0307,-0.0104,-0.1035,-89.1343,0.0001,-0.1486,9.8336,-0.0,-0.0865,5.7289,-0.0001,0.0005
86217,-106.8151,3.9691,-0.0105,-0.0957,-89.1343,0.0,-0.1554,10.2838,0.0,-0.0732,4.8422,0.0001,0.0002
86233,-106.8151,3.9691,-0.0105,-0.0957,-89.1343,0.0,-0.1554,10.2838,0.0,-0.0732,4.8422,0.0001,0.0002
86249,-106.8151,3.9691,-0.0105,-0.0957,-89.1343,0.0,-0.1554,10.2838,0.0,-0.0732,4.8422,0.0001,0.0002
86265,-106.8151,3.9691,-0.0105,-0.0957,-89.1343,0.0,-0.1554,10.2838,0.0,-0.0732,4.8422,0.0001,0.0002
86281,-106.8151,3.9691,-0.0105,-0.0957,-89.1343,0.0,-0.1554,10.2838,0.0,-0.0732,4.8422,0.0001,0.0002
86299,-106.8295,4.9198,-0.0105,-0.088,-89.1343,0.0,-0.1617,10.6977,-0.0,-0.0692,4.5783,-0.0002,0.0001
86313,-106.8295,4.9198,-0.0105,-0.088,-89.1343,0.0,-0.1617,10.6977,-0.0,-0.0692,4.5783,-0.0002,0.0001
86329,-106.8295,4.9198,-0.0105,-0.088,-89.1343,0.0,-0.1617,10.6977,-0.0,-0.0692,4.5783,-0.0002,0.0001
86345,-106.8295,4.9198,-0.0105,-0.088,-89.1343,0.0,-0.1617,10.6977,-0.0,-0.0692,4.5783,-0.0002,0.0001
86361,-106.8295,4.9198,-0.0105,-0.088,-89.1343,0.0,-0.1617,10.6977,-0.0,-0.0692,4.5783,-0.0002,0.0001
86377,-106.8295,4.9198,-0.0105,-0.088,-89.1343,0.0,-0.1617,10.6977,-0.0,-0.0692,4.5783,-0.0002,0.0001
86395,-106.8443,5.9038,-0.0106,-0.0819,-89.1343,0.0,-0.1675,11.0878,0.0,-0.0654,4.3278,0.0002,0.0002
86409,-106.8443,5.9038,-0.0106,-0.0819,-89.1343,0.0,-0.1675,11.0878,0.0,-0.0654,4.3278,0.0002,0.0002
86425,-106.8443,5.9038,-0.0106,-0.0819,-89.1343,0.0,-0.1675,11.0878,0.0,-0.0654,4.3278,0.0002,0.0002
86441,-106.8443,5.9038,-0.0106,-0.0819,-89.1343,0.0,-0.1675,11.0878,0.0,-0.0654,4.3278,0.0002,0.0002
86457,-106.8443,5.9038,-0.0106,-0.0819,-89.1343,0.0,-0.1675,11.0878,0.0,-0.0654,4.3278,0.0002,0.0002
86473,-106.8443,5.9038,-0.0106,-0.0819,-89.1343,0.0,-0.1675,11.0878,0.0,-0.0654,4.3278,0.0002,0.0002
86489,-106.86,6.9403,-0.0106,-0.0761,-89.1343,0.0,-0.1731,11.4529,-0.0,-0.0601,3.9773,-0.0001,0.0004
86505,-106.86,6.9403,-0.0106,-0.0761,-89.1343,0.0,-0.1731,11.4529,-0.0,-0.0601,3.9773,-0.0001,0.0004
86521,-106.86,6.9403,-0.0106,-0.0761,-89.1343,0.0,-0.1731,11.4529,-0.0,-0.0601,3.9773,-0.0001,0.0004
86537,-106.86,6.9403,-0.0106,-0.0761,-89.1343,0.0,-0.1731,11.4529,-0.0,-0.0601,3.9773,-0.0001,0.0004
86553,-106.86,6.9403,-0.0106,-0.0761,-89.1343,0.0,-0.1731,11.4529,-0.0,-0.0601,3.9773,-0.0001,0.0004
86569,-106.86,6.9403,-0.0106,-0.0761,-89.1343,0.0,-0.1731,11.4529,-0.0,-0.0601,3.9773,-0.0001,0.0004
86585,-106.8764,8.0246,-0.0106,-0.0706,-89.1343,0.0,-0.1782,11.7946,-0.0,-0.0555,3.6698,-0.0,0.0008
86601,-106.8764,8.0246,-0.0106,-0.0706,-89.1343,0.0,-0.1782,11.7946,-0.0,-0.0555,3.6698,-0.0,0.0008
86617,-106.8764,8.0246,-0.0106,-0.0706,-89.1343,0.0,-0.1782,11.7946,-0.0,-0.0555,3.6698,-0.0,0.0008
86633,-106.8764,8.0246,-0.0106,-0.0706,-89.1343,0.0,-0.1782,11.7946,-0.0,-0.0555,3.6698,-0.0,0.0008
86649,-106.8764,8.0246,-0.0106,-0.0706,-89.1343,0.0,-0.1782,11.7946,-0.0,-0.0555,3.6698,-0.0,0.0008
86665,-106.8932,9.1375,-0.0107,-0.0655,-89.1343,0.0,-0.183,12.112,-0.0,-0.0516,3.4142,0.0001,0.0009
86681,-106.8932,9.1375,-0.0107,-0.0655,-89.1343,0.0,-0.183,12.112,-0.0,-0.0516,3.4142,0.0001,0.0009
86697,-106.8932,9.1375,-0.0107,-0.0655,-89.1343,0.0,-0.183,12.112,-0.0,-0.0516,3.4142,0.0001,0.0009
86713,-106.8932,9.1375,-0.0107,-0.0655,-89.1343,0.0,-0.183,12.112,-0.0,-0.0516,3.4142,0.0001,0.0009
86729,-106.8932,9.1375,-0.0107,-0.0655,-89.1343,0.0,-0.183,12.112,-0.0,-0.0516,3.4142,0.0001,0.0009
86745,-106.8932,9.1375,-0.0107,-0.0655,-89.1343,0.0,-0.183,12.112,-0.0,-0.0516,3.4142,0.0001,0.0009
86762,-106.91,10.2449,-0.0107,-0.0612,-89.1343,-0.0,-0.1874,12.4003,0.0,-0.0483,3.1949,0.0,0.0004
86777,-106.91,10.2449,-0.0107,-0.0612,-89.1343,-0.0,-0.1874,12.4003,0.0,-0.0483,3.1949,0.0,0.0004
86793,-106.91,10.2449,-0.0107,-0.0612,-89.1343,-0.0,-0.1874,12.4003,0.0,-0.0483,3.1949,0.0,0.0004
86809,-106.91,10.2449,-0.0107,-0.0612,-89.1343,-0.0,-0.1874,12.4003,0.0,-0.0483,3.1949,0.0,0.0004
86825,-106.91,10.2449,-0.0107,-0.0612,-89.1343,-0.0,-0.1874,12.4003,0.0,-0.0483,3.1949,0.0,0.0004
86841,-106.91,10.2449,-0.0107,-0.0612,-89.1343,-0.0,-0.1874,12.4003,0.0,-0.0483,3.1949,0.0,0.0004
86859,-106.9281,11.4447,-0.0107,-0.0569,-89.1343,0.0,-0.1917,12.684,0.0,-0.0448,2.9692,0.0,0.0005
86873,-106.9281,11.4447,-0.0107,-0.0569,-89.1343,0.0,-0.1917,12.684,0.0,-0.0448,2.9692,0.0,0.0005
86905,-106.9281,11.4447,-0.0107,-0.0569,-89.1343,0.0,-0.1917,12.684,0.0,-0.0448,2.9692,0.0,0.0005
86921,-106.9281,11.4447,-0.0107,-0.0569,-89.1343,0.0,-0.1917,12.684,0.0,-0.0448,2.9692,0.0,0.0005
86937,-106.9281,11.4447,-0.0107,-0.0569,-89.1343,0.0,-0.1917,12.684,0.0,-0.0448,2.9692,0.0,0.0005
86953,-106.9689,12.5932,-0.0108,-0.0446,-90.2234,0.1046,-0.9203,12.7335,0.0009,-8.0833,0.5494,0.0097,-26.468
86969,-106.9689,12.5932,-0.0108,-0.0446,-90.2234,0.1046,-0.9203,12.7335,0.0009,-8.0833,0.5494,0.0097,-26.468
86985,-106.9689,12.5932,-0.0108,-0.0446,-90.2234,0.1046,-0.9203,12.7335,0.0009,-8.0833,0.5494,0.0097,-26.468
87001,-106.9689,12.5932,-0.0108,-0.0446,-90.2234,0.1046,-0.9203,12.7335,0.0009,-8.0833,0.5494,0.0097,-26.468
87017,-106.9689,12.5932,-0.0108,-0.0446,-90.2234,0.1046,-0.9203,12.7335,0.0009,-8.0833,0.5494,0.0097,-26.468
87035,-107.0652,13.7297,-0.0109,-0.013,-94.6868,0.2415,-1.8121,12.5218,0.0012,-9.8992,-2.3501,0.0037,-70.3055
87049,-107.0652,13.7297,-0.0109,-0.013,-94.6868,0.2415,-1.8121,12.5218,0.0012,-9.8992,-2.3501,0.0037,-70.3055
87065,-107.0652,13.7297,-0.0109,-0.013,-94.6868,0.2415,-1.8121,12.5218,0.0012,-9.8992,-2.3501,0.0037,-70.3055
87081,-107.0652,13.7297,-0.0109,-0.013,-94.6868,0.2415,-1.8121,12.5218,0.0012,-9.8992,-2.3501,0.0037,-70.3055
87097,-107.0652,13.7297,-0.0109,-0.013,-94.6868,0.2415,-1.8121,12.5218,0.0012,-9.8992,-2.3501,0.0037,-70.3055
87113,-107.0652,13.7297,-0.0109,-0.013,-94.6868,0.2415,-1.8121,12.5218,0.0012,-9.8992,-2.3501,0.0037,-70.3055
87131,-107.1971,14.8566,-0.0111,0.0186,-103.7653,0.2694,-2.3457,12.2555,0.0003,-5.8036,-2.8963,-0.01,-122.9623
87145,-107.1971,14.8566,-0.0111,0.0186,-103.7653,0.2694,-2.3457,12.2555,0.0003,-5.8036,-2.8963,-0.01,-122.9623
87161,-107.1971,14.8566,-0.0111,0.0186,-103.7653,0.2694,-2.3457,12.2555,0.0003,-5.8036,-2.8963,-0.01,-122.9623
87177,-107.1971,14.8566,-0.0111,0.0186,-103.7653,0.2694,-2.3457,12.2555,0.0003,-5.8036,-2.8963,-0.01,-122.9623
87193,-107.1971,14.8566,-0.0111,0.0186,-103.7653,0.2694,-2.3457,12.2555,0.0003,-5.8036,-2.8963,-0.01,-122.9623
87209,-107.1971,14.8566,-0.0111,0.0186,-103.7653,0.2694,-2.3457,12.2555,0.0003,-5.8036,-2.8963,-0.01,-122.9623
87225,-107.3142,15.922,-0.0111,0.02,-117.5534,0.1702,-2.2477,12.0989,-0.0009,1.0815,-1.7299,-0.013,-176.3883
87241,-107.3142,15.922,-0.0111,0.02,-117.5534,0.1702,-2.2477,12.0989,-0.0009,1.0815,-1.7299,-0.013,-176.3883
87257,-107.3142,15.922,-0.0111,0.02,-117.5534,0.1702,-2.2477,12.0989,-0.0009,1.0815,-1.7299,-0.013,-176.3883
87273,-107.3142,15.922,-0.0111,0.02,-117.5534,0.1702,-2.2477,12.0989,-0.0009,1.0815,-1.7299,-0.013,-176.3883
87289,-107.3142,15.922,-0.0111,0.02,-117.5534,0.1702,-2.2477,12.0989,-0.0009,1.0815,-1.7299,-0.013,-176.3883
87305,-107.3142,15.922,-0.0111,0.02,-117.5534,0.1702,-2.2477,12.0989,-0.0009,1.0815,-1.7299,-0.013,-176.3883
87323,-107.3515,17.0417,-0.0107,-0.0567,-137.1082,-0.0826,-0.7352,12.1163,-0.0004,15.192,0.175,0.0052,-207.9383
87337,-107.3515,17.0417,-0.0107,-0.0567,-137.1082,-0.0826,-0.7352,12.1163,-0.0004,15.192,0.175,0.0052,-207.9383
87353,-107.3515,17.0417,-0.0107,-0.0567,-137.1082,-0.0826,-0.7352,12.1163,-0.0004,15.192,0.175,0.0052,-207.9383
87369,-107.3515,17.0417,-0.0107,-0.0567,-137.1082,-0.0826,-0.7352,12.1163,-0.0004,15.192,0.175,0.0052,-207.9383
87385,-107.3515,17.0417,-0.0107,-0.0567,-137.1082,-0.0826,-0.7352,12.1163,-0.0004,15.192,0.175,0.0052,-207.9383
87401,-107.3515,17.0417,-0.0107,-0.0567,-137.1082,-0.0826,-0.7352,12.1163,-0.0004,15.192,0.175,0.0052,-207.9383
87417,-107.2351,18.0103,-0.0097,-0.1683,-156.7766,-0.3322,1.3708,11.6572,0.002,23.02,-5.019,0.0262,-219.5849
87433,-107.2351,18.0103,-0.0097,-0.1683,-156.7766,-0.3322,1.3708,11.6572,0.002,23.02,-5.019,0.0262,-219.5849
87449,-107.2351,18.0103,-0.0097,-0.1683,-156.7766,-0.3322,1.3708,11.6572,0.002,23.02,-5.019,0.0262,-219.5849
87465,-107.2351,18.0103,-0.0097,-0.1683,-156.7766,-0.3322,1.3708,11.6572,0.002,23.02,-5.019,0.0262,-219.5849
87481,-107.2351,18.0103,-0.0097,-0.1683,-156.7766,-0.3322,1.3708,11.6572,0.002,23.02,-5.019,0.0262,-219.5849
87513,-106.9595,18.8967,-0.0088,-0.2633,-177.873,-0.5286,3.512,10.4304,0.0018,22.7749,-13.0484,-0.0022,-228.6105
87529,-106.9595,18.8967,-0.0088,-0.2633,-177.873,-0.5286,3.512,10.4304,0.0018,22.7749,-13.0484,-0.0022,-228.6105
87545,-106.9595,18.8967,-0.0088,-0.2633,-177.873,-0.5286,3.512,10.4304,0.0018,22.7749,-13.0484,-0.0022,-228.6105
87561,-106.9595,18.8967,-0.0088,-0.2633,-177.873,-0.5286,3.512,10.4304,0.0018,22.7749,-13.0484,-0.0022,-228.6105
87577,-106.9595,18.8967,-0.0088,-0.2633,-177.873,-0.5286,3.512,10.4304,0.0018,22.7749,-13.0484,-0.0022,-228.6105
87595,-106.6111,19.5768,-0.0084,-0.2994,161.5706,-0.7162,4.4414,8.2814,0.0019,10.4143,-24.0786,0.001,-230.7777
87609,-106.6111,19.5768,-0.0084,-0.2994,161.5706,-0.7162,4.4414,8.2814,0.0019,10.4143,-24.0786,0.001,-230.7777
87625,-106.6111,19.5768,-0.0084,-0.2994,161.5706,-0.7162,4.4414,8.2814,0.0019,10.4143,-24.0786,0.001,-230.7777
87641,-106.6111,19.5768,-0.0084,-0.2994,161.5706,-0.7162,4.4414,8.2814,0.0019,10.4143,-24.0786,0.001,-230.7777
87657,-106.6111,19.5768,-0.0084,-0.2994,161.5706,-0.7162,4.4414,8.2814,0.0019,10.4143,-24.0786,0.001,-230.7777
87675,-106.3386,20.0906,-0.0089,-0.2281,143.0563,-0.8495,3.1069,6.8826,0.0047,-15.4922,-16.2398,0.0319,-196.5764
87689,-106.3386,20.0906,-0.0089,-0.2281,143.0563,-0.8495,3.1069,6.8826,0.0047,-15.4922,-16.2398,0.0319,-196.5764
87705,-106.3386,20.0906,-0.0089,-0.2281,143.0563,-0.8495,3.1069,6.8826,0.0047,-15.4922,-16.2398,0.0319,-196.5764
87721,-106.3386,20.0906,-0.0089,-0.2281,143.0563,-0.8495,3.1069,6.8826,0.0047,-15.4922,-16.2398,0.0319,-196.5764
87737,-106.3386,20.0906,-0.0089,-0.2281,143.0563,-0.8495,3.1069,6.8826,0.0047,-15.4922,-16.2398,0.0319,-196.5764
87753,-106.3386,20.0906,-0.0089,-0.2281,143.0563,-0.8495,3.1069,6.8826,0.0047,-15.4922,-16.2398,0.0319,-196.5764
87769,-106.2534,20.5777,-0.0099,-0.0715,127.9512,-0.9107,1.0133,6.7476,0.001,-24.7356,-1.5948,-0.0427,-158.813
87785,-106.2534,20.5777,-0.0099,-0.0715,127.9512,-0.9107,1.0133,6.7476,0.001,-24.7356,-1.5948,-0.0427,-158.813
87801,-106.2534,20.5777,-0.0099,-0.0715,127.9512,-0.9107,1.0133,6.7476,0.001,-24.7356,-1.5948,-0.0427,-158.813
87817,-106.2534,20.5777,-0.0099,-0.0715,127.9512,-0.9107,1.0133,6.7476,0.001,-24.7356,-1.5948,-0.0427,-158.813
87833,-106.2534,20.5777,-0.0099,-0.0715,127.9512,-0.9107,1.0133,6.7476,0.001,-24.7356,-1.5948,-0.0427,-158.813
87849,-106.3207,21.1463,-0.011,0.0819,116.9859,-0.8129,-0.6201,7.6328,-0.0008,-19.3097,10.4638,-0.0222,-107.8843
87865,-106.3207,21.1463,-0.011,0.0819,116.9859,-0.8129,-0.6201,7.6328,-0.0008,-19.3097,10.4638,-0.0222,-107.8843
87881,-106.3207,21.1463,-0.011,0.0819,116.9859,-0.8129,-0.6201,7.6328,-0.0008,-19.3097,10.4638,-0.0222,-107.8843
87897,-106.3207,21.1463,-0.011,0.0819,116.9859,-0.8129,-0.6201,7.6328,-0.0008,-19.3097,10.4638,-0.0222,-107.8843
87913,-106.3207,21.1463,-0.011,0.0819,116.9859,-0.8129,-0.6201,7.6328,-0.0008,-19.3097,10.4638,-0.0222,-107.8843
87931,-106.4363,21.8195,-0.0118,0.1559,108.677,-0.5089,-0.5874,8.5054,-0.0025,0.3841,10.2297,-0.0194,-93.4322
87945,-106.4363,21.8195,-0.0118,0.1559,108.677,-0.5089,-0.5874,8.5054,-0.0025,0.3841,10.2297,-0.0194,-93.4322
87961,-106.4363,21.8195,-0.0118,0.1559,108.677,-0.5089,-0.5874,8.5054,-0.0025,0.3841,10.2297,-0.0194,-93.4322
87977,-106.4363,21.8195,-0.0118,0.1559,108.677,-0.5089,-0.5874,8.5054,-0.0025,0.3841,10.2297,-0.0194,-93.4322
87993,-106.4363,21.8195,-0.0118,0.1559,108.677,-0.5089,-0.5874,8.5054,-0.0025,0.3841,10.2297,-0.0194,-93.4322
88027,-106.5055,22.6048,-0.0121,0.16,100.2699,-0.1336,0.3087,9.0659,-0.0033,9.9014,6.1928,-0.009,-92.4533
88041,-106.5055,22.6048,-0.0121,0.16,100.2699,-0.1336,0.3087,9.0659,-0.0033,9.9014,6.1928,-0.009,-92.4533
88057,-106.5055,22.6048,-0.0121,0.16,100.2699,-0.1336,0.3087,9.0659,-0.0033,9.9014,6.1928,-0.009,-92.4533
88073,-106.5055,22.6048,-0.0121,0.16,100.2699,-0.1336,0.3087,9.0659,-0.0033,9.9014,6.1928,-0.009,-92.4533
88089,-106.5055,22.6048,-0.0121,0.16,100.2699,-0.1336,0.3087,9.0659,-0.0033,9.9014,6.1928,-0.009,-92.4533
88105,-106.5178,23.4206,-0.0122,0.145,93.6146,-0.0125,0.235,9.5241,-0.0018,-0.8374,5.206,0.0173,-54.5121
88121,-106.5178,23.4206,-0.0122,0.145,93.6146,-0.0125,0.235,9.5241,-0.0018,-0.8374,5.206,0.0173,-54.5121
88137,-106.5178,23.4206,-0.0122,0.145,93.6146,-0.0125,0.235,9.5241,-0.0018,-0.8374,5.206,0.0173,-54.5121
88153,-106.5178,23.4206,-0.0122,0.145,93.6146,-0.0125,0.235,9.5241,-0.0018,-0.8374,5.206,0.0173,-54.5121
88169,-106.5178,23.4206,-0.0122,0.145,93.6146,-0.0125,0.235,9.5241,-0.0018,-0.8374,5.206,0.0173,-54.5121
88185,-106.5178,23.4206,-0.0122,0.145,93.6146,-0.0125,0.235,9.5241,-0.0018,-0.8374,5.206,0.0173,-54.5121
88202,-106.5397,24.2946,-0.012,0.1116,91.0052,-0.0758,-0.1291,9.7449,0.0004,-4.0184,2.4368,0.0245,-15.7445
88217,-106.5397,24.2946,-0.012,0.1116,91.0052,-0.0758,-0.1291,9.7449,0.0004,-4.0184,2.4368,0.0245,-15.7445
88233,-106.5397,24.2946,-0.012,0.1116,91.0052,-0.0758,-0.1291,9.7449,0.0004,-4.0184,2.4368,0.0245,-15.7445
88249,-106.5397,24.2946,-0.012,0.1116,91.0052,-0.0758,-0.1291,9.7449,0.0004,-4.0184,2.4368,0.0245,-15.7445
88265,-106.5397,24.2946,-0.012,0.1116,91.0052,-0.0758,-0.1291,9.7449,0.0004,-4.0184,2.4368,0.0245,-15.7445
88281,-106.5397,24.2946,-0.012,0.1116,91.0052,-0.0758,-0.1291,9.7449,0.0004,-4.0184,2.4368,0.0245,-15.7445
88299,-106.556,25.1939,-0.0117,0.0773,90.3043,-0.0522,-0.1045,9.8558,0.0001,0.2681,1.2096,-0.0039,-4.6512
88313,-106.556,25.1939,-0.0117,0.0773,90.3043,-0.0522,-0.1045,9.8558,0.0001,0.2681,1.2096,-0.0039,-4.6512
88329,-106.556,25.1939,-0.0117,0.0773,90.3043,-0.0522,-0.1045,9.8558,0.0001,0.2681,1.2096,-0.0039,-4.6512
88345,-106.556,25.1939,-0.0117,0.0773,90.3043,-0.0522,-0.1045,9.8558,0.0001,0.2681,1.2096,-0.0039,-4.6512
88361,-106.556,25.1939,-0.0117,0.0773,90.3043,-0.0522,-0.1045,9.8558,0.0001,0.2681,1.2096,-0.0039,-4.6512
88377,-106.5641,26.0729,-0.0115,0.0515,90.1177,-0.023,-0.0588,9.911,-0.0001,0.5143,0.6203,-0.0021,-0.4364
88393,-106.5641,26.0729,-0.0115,0.0515,90.1177,-0.023,-0.0588,9.911,-0.0001,0.5143,0.6203,-0.0021,-0.4364
88409,-106.5641,26.0729,-0.0115,0.0515,90.1177,-0.023,-0.0588,9.911,-0.0001,0.5143,0.6203,-0.0021,-0.4364
88425,-106.5641,26.0729,-0.0115,0.0515,90.1177,-0.023,-0.0588,9.911,-0.0001,0.5143,0.6203,-0.0021,-0.4364
88441,-106.5641,26.0729,-0.0115,0.0515,90.1177,-0.023,-0.0588,9.911,-0.0001,0.5143,0.6203,-0.0021,-0.4364
88457,-106.5641,26.0729,-0.0115,0.0515,90.1177,-0.023,-0.0588,9.911,-0.0001,0.5143,0.6203,-0.0021,-0.4364
88475,-106.5682,26.9978,-0.0114,0.0348,90.0545,-0.0068,-0.0283,9.9777,-0.0001,0.3276,0.7181,0.0005,0.3064
88489,-106.5682,26.9978,-0.0114,0.0348,90.0545,-0.0068,-0.0283,9.9777,-0.0001,0.3276,0.7181,0.0005,0.3064
88505,-106.5682,26.9978,-0.0114,0.0348,90.0545,-0.0068,-0.0283,9.9777,-0.0001,0.3276,0.7181,0.0005,0.3064
88521,-106.5682,26.9978,-0.0114,0.0348,90.0545,-0.0068,-0.0283,9.9777,-0.0001,0.3276,0.7181,0.0005,0.3064
88537,-106.5682,26.9978,-0.0114,0.0348,90.0545,-0.0068,-0.0283,9.9777,-0.0001,0.3276,0.7181,0.0005,0.3064
88553,-106.5682,26.9978,-0.0114,0.0348,90.0545,-0.0068,-0.0283,9.9777,-0.0001,0.3276,0.7181,0.0005,0.3064
88571,-106.5701,27.937,-0.0113,0.0245,90.0363,-0.0004,-0.014,10.0333,-0.0,0.1526,0.5923,0.0007,0.5733
88585,-106.5701,27.937,-0.0113,0.0245,90.0363,-0.0004,-0.014,10.0333,-0.0,0.1526,0.5923,0.0007,0.5733
88601,-106.5701,27.937,-0.0113,0.0245,90.0363,-0.0004,-0.014,10.0333,-0.0,0.1526,0.5923,0.0007,0.5733
88617,-106.5701,27.937,-0.0113,0.0245,90.0363,-0.0004,-0.014,10.0333,-0.0,0.1526,0.5923,0.0007,0.5733
88633,-106.5701,27.937,-0.0113,0.0245,90.0363,-0.0004,-0.014,10.0333,-0.0,0.1526,0.5923,0.0007,0.5733
88649,-106.5701,27.937,-0.0113,0.0245,90.0363,-0.0004,-0.014,10.0333,-0.0,0.1526,0.5923,0.0007,0.5733
88665,-106.5711,28.8675,-0.0113,0.0185,90.0309,0.0014,-0.0081,10.087,0.0,0.0636,0.5807,0.0005,0.6041
88681,-106.5711,28.8675,-0.0113,0.0185,90.0309,0.0014,-0.0081,10.087,0.0,0.0636,0.5807,0.0005,0.6041
88697,-106.5711,28.8675,-0.0113,0.0185,90.0309,0.0014,-0.0081,10.087,0.0,0.0636,0.5807,0.0005,0.6041
88713,-106.5711,28.8675,-0.0113,0.0185,90.0309,0.0014,-0.0081,10.087,0.0,0.0636,0.5807,0.0005,0.6041
88729,-106.5711,28.8675,-0.0113,0.0185,90.0309,0.0014,-0.0081,10.087,0.0,0.0636,0.5807,0.0005,0.6041
88745,-106.5717,29.7745,-0.0113,0.014,90.022,0.0015,-0.0059,10.1191,0.0,0.0245,0.3571,-0.0,-0.8045
88761,-106.5717,29.7745,-0.0113,0.014,90.022,0.0015,-0.0059,10.1191,0.0,0.0245,0.3571,-0.0,-0.8045
88777,-106.5717,29.7745,-0.0113,0.014,90.022,0.0015,-0.0059,10.1191,0.0,0.0245,0.3571,-0.0,-0.8045
88793,-106.5717,29.7745,-0.0113,0.014,90.022,0.0015,-0.0059,10.1191,0.0,0.0245,0.3571,-0.0,-0.8045
88809,-106.5717,29.7745,-0.0113,0.014,90.022,0.0015,-0.0059,10.1191,0.0,0.0245,0.3571,-0.0,-0.8045
88825,-106.5717,29.7745,-0.0113,0.014,90.022,0.0015,-0.0059,10.1191,0.0,0.0245,0.3571,-0.0,-0.8045
88841,-106.5725,30.7425,-0.0111,0.0032,90.0122,-0.011,-0.0159,10.1753,0.0102,-0.1046,0.5891,0.1061,-1.7146
88857,-106.5725,30.7425,-0.0111,0.0032,90.0122,-0.011,-0.0159,10.1753,0.0102,-0.1046,0.5891,0.1061,-1.7146
88873,-106.5725,30.7425,-0.0111,0.0032,90.0122,-0.011,-0.0159,10.1753,0.0102,-0.1046,0.5891,0.1061,-1.7146
88889,-106.5725,30.7425,-0.0111,0.0032,90.0122,-0.011,-0.0159,10.1753,0.0102,-0.1046,0.5891,0.1061,-1.7146
88905,-106.5725,30.7425,-0.0111,0.0032,90.0122,-0.011,-0.0159,10.1753,0.0102,-0.1046,0.5891,0.1061,-1.7146
88921,-106.5725,30.7425,-0.0111,0.0032,90.0122,-0.011,-0.0159,10.1753,0.0102,-0.1046,0.5891,0.1061,-1.7146
88939,-106.5736,31.7132,-0.0112,0.0075,89.9622,-0.0021,-0.0033,10.2217,-0.0004,0.1331,0.4882,-0.1109,-0.9528
88953,-106.5736,31.7132,-0.0112,0.0075,89.9622,-0.0021,-0.0033,10.2217,-0.0004,0.1331,0.4882,-0.1109,-0.9528
88969,-106.5736,31.7132,-0.0112,0.0075,89.9622,-0.0021,-0.0033,10.2217,-0.0004,0.1331,0.4882,-0.1109,-0.9528
88985,-106.5736,31.7132,-0.0112,0.0075,89.9622,-0.0021,-0.0033,10.2217,-0.0004,0.1331,0.4882,-0.1109,-0.9528
89001,-106.5736,31.7132,-0.0112,0.0075,89.9622,-0.0021,-0.0033,10.2217,-0.0004,0.1331,0.4882,-0.1109,-0.9528
89017,-106.5736,31.7132,-0.0112,0.0075,89.9622,-0.0021,-0.0033,10.2217,-0.0004,0.1331,0.4882,-0.1109,-0.9528
89035,-106.5736,32.661,-0.0112,0.0086,89.9486,0.0006,0.0041,10.2718,-0.0002,0.0796,0.5413,0.002,-0.6835
89049,-106.5736,32.661,-0.0112,0.0086,89.9486,0.0006,0.0041,10.2718,-0.0002,0.0796,0.5413,0.002,-0.6835
89065,-106.5736,32.661,-0.0112,0.0086,89.9486,0.0006,0.0041,10.2718,-0.0002,0.0796,0.5413,0.002,-0.6835
89081,-106.5736,32.661,-0.0112,0.0086,89.9486,0.0006,0.0041,10.2718,-0.0002,0.0796,0.5413,0.002,-0.6835
89097,-106.5736,32.661,-0.0112,0.0086,89.9486,0.0006,0.0041,10.2718,-0.0002,0.0796,0.5413,0.002,-0.6835
89113,-106.5736,32.661,-0.0112,0.0086,89.9486,0.0006,0.0041,10.2718,-0.0002,0.0796,0.5413,0.002,-0.6835
89129,-106.573,33.6178,-0.0112,0.0088,89.9445,0.0012,0.0075,10.3173,-0.0001,0.0369,0.4901,0.0012,-0.6289
89145,-106.573,33.6178,-0.0112,0.0088,89.9445,0.0012,0.0075,10.3173,-0.0001,0.0369,0.4901,0.0012,-0.6289
89161,-106.573,33.6178,-0.0112,0.0088,89.9445,0.0012,0.0075,10.3173,-0.0001,0.0369,0.4901,0.0012,-0.6289
89177,-106.573,33.6178,-0.0112,0.0088,89.9445,0.0012,0.0075,10.3173,-0.0001,0.0369,0.4901,0.0012,-0.6289
89193,-106.573,33.6178,-0.0112,0.0088,89.9445,0.0012,0.0075,10.3173,-0.0001,0.0369,0.4901,0.0012,-0.6289
