timestamp,x,y,z,pitch,yaw,roll,vx,vy,vz,ax,ay,az,yaw_rate
91388,-106.6867,-4.8475,-0.079,0.0,-89.3578,0.0,-0.0,-0.0,0.0837,-0.0,-0.0,6.1113,-0.0
91404,-106.6867,-4.8475,-0.079,0.0,-89.3578,0.0,-0.0,-0.0,0.0837,-0.0,-0.0,6.1113,-0.0
91420,-106.6867,-4.8475,-0.079,0.0,-89.3578,0.0,-0.0,-0.0,0.0837,-0.0,-0.0,6.1113,-0.0
91436,-106.6867,-4.8475,-0.079,0.0,-89.3578,0.0,-0.0,-0.0,0.0837,-0.0,-0.0,6.1113,-0.0
91452,-106.6867,-4.8475,-0.079,0.0,-89.3578,0.0,-0.0,-0.0,0.0837,-0.0,-0.0,6.1113,-0.0
91468,-106.6867,-4.8475,-0.079,0.0,-89.3578,0.0,-0.0,-0.0,0.0837,-0.0,-0.0,6.1113,-0.0
91484,-106.6867,-4.8475,-0.079,0.0,-89.3578,0.0,-0.0,-0.0,0.0837,-0.0,-0.0,6.1113,-0.0
91500,-106.6867,-4.8475,-0.079,0.0,-89.3578,0.0,-0.0,-0.0,0.0837,-0.0,-0.0,6.1113,-0.0
91516,-106.6867,-4.8475,-0.079,0.0,-89.3578,0.0,-0.0,-0.0,0.0837,-0.0,-0.0,6.1113,-0.0
91532,-106.6867,-4.8475,-0.079,0.0,-89.3578,0.0,-0.0,-0.0,0.0837,-0.0,-0.0,6.1113,-0.0
91548,-106.6867,-4.8475,-0.079,0.0,-89.3578,0.0,-0.0,-0.0,0.0837,-0.0,-0.0,6.1113,-0.0
91564,-106.6867,-4.8475,-0.079,0.0,-89.3578,0.0,-0.0,-0.0,0.0837,-0.0,-0.0,6.1113,-0.0
91580,-106.6868,-4.8455,-0.0587,-0.0017,-89.3578,0.0,-0.0005,0.0432,0.2355,-0.0025,0.2231,0.7835,0.0
91596,-106.6868,-4.8455,-0.0587,-0.0017,-89.3578,0.0,-0.0005,0.0432,0.2355,-0.0025,0.2231,0.7835,0.0
91612,-106.6868,-4.8455,-0.0587,-0.0017,-89.3578,0.0,-0.0005,0.0432,0.2355,-0.0025,0.2231,0.7835,0.0
91628,-106.6868,-4.8455,-0.0587,-0.0017,-89.3578,0.0,-0.0005,0.0432,0.2355,-0.0025,0.2231,0.7835,0.0
91644,-106.6868,-4.8455,-0.0587,-0.0017,-89.3578,0.0,-0.0005,0.0432,0.2355,-0.0025,0.2231,0.7835,0.0
91660,-106.6868,-4.8455,-0.0587,-0.0017,-89.3578,0.0,-0.0005,0.0432,0.2355,-0.0025,0.2231,0.7835,0.0
91676,-106.6868,-4.8455,-0.0587,-0.0017,-89.3578,0.0,-0.0005,0.0432,0.2355,-0.0025,0.2231,0.7835,0.0
91692,-106.6868,-4.8455,-0.0587,-0.0017,-89.3578,0.0,-0.0005,0.0432,0.2355,-0.0025,0.2231,0.7835,0.0
91710,-106.6868,-4.8403,-0.0381,-0.0052,-89.3578,0.0,-0.0013,0.1164,0.1727,-0.006,0.538,-0.462,0.0002
91724,-106.6868,-4.8403,-0.0381,-0.0052,-89.3578,0.0,-0.0013,0.1164,0.1727,-0.006,0.538,-0.462,0.0002
91740,-106.6868,-4.8403,-0.0381,-0.0052,-89.3578,0.0,-0.0013,0.1164,0.1727,-0.006,0.538,-0.462,0.0002
91756,-106.6868,-4.8403,-0.0381,-0.0052,-89.3578,0.0,-0.0013,0.1164,0.1727,-0.006,0.538,-0.462,0.0002
91772,-106.6868,-4.8403,-0.0381,-0.0052,-89.3578,0.0,-0.0013,0.1164,0.1727,-0.006,0.538,-0.462,0.0002
91788,-106.6868,-4.8403,-0.0381,-0.0052,-89.3578,0.0,-0.0013,0.1164,0.1727,-0.006,0.538,-0.462,0.0002
91805,-106.6872,-4.8059,-0.0256,-0.0281,-89.3573,0.0,-0.0065,0.5821,0.1042,-0.0564,5.0546,-0.7425,0.0414
91820,-106.6872,-4.8059,-0.0256,-0.0281,-89.3573,0.0,-0.0065,0.5821,0.1042,-0.0564,5.0546,-0.7425,0.0414
91836,-106.6872,-4.8059,-0.0256,-0.0281,-89.3573,0.0,-0.0065,0.5821,0.1042,-0.0564,5.0546,-0.7425,0.0414
91852,-106.6872,-4.8059,-0.0256,-0.0281,-89.3573,0.0,-0.0065,0.5821,0.1042,-0.0564,5.0546,-0.7425,0.0414
91868,-106.6872,-4.8059,-0.0256,-0.0281,-89.3573,0.0,-0.0065,0.5821,0.1042,-0.0564,5.0546,-0.7425,0.0414
91884,-106.6872,-4.8059,-0.0256,-0.0281,-89.3573,0.0,-0.0065,0.5821,0.1042,-0.0564,5.0546,-0.7425,0.0414
91902,-106.6881,-4.7244,-0.0181,-0.0476,-89.3596,0.0,-0.0105,0.9397,0.0546,-0.0408,3.621,-0.5023,-0.2192
91916,-106.6881,-4.7244,-0.0181,-0.0476,-89.3596,0.0,-0.0105,0.9397,0.0546,-0.0408,3.621,-0.5023,-0.2192
91932,-106.6881,-4.7244,-0.0181,-0.0476,-89.3596,0.0,-0.0105,0.9397,0.0546,-0.0408,3.621,-0.5023,-0.2192
91948,-106.6881,-4.7244,-0.0181,-0.0476,-89.3596,0.0,-0.0105,0.9397,0.0546,-0.0408,3.621,-0.5023,-0.2192
91964,-106.6881,-4.7244,-0.0181,-0.0476,-89.3596,0.0,-0.0105,0.9397,0.0546,-0.0408,3.621,-0.5023,-0.2192
91980,-106.6881,-4.7244,-0.0181,-0.0476,-89.3596,0.0,-0.0105,0.9397,0.0546,-0.0408,3.621,-0.5023,-0.2192
91996,-106.6894,-4.6271,-0.0141,-0.0472,-89.3399,0.0001,-0.012,1.1543,0.0311,-0.0164,2.3415,-0.2563,2.3256
92012,-106.6894,-4.6271,-0.0141,-0.0472,-89.3399,0.0001,-0.012,1.1543,0.0311,-0.0164,2.3415,-0.2563,2.3256
92028,-106.6894,-4.6271,-0.0141,-0.0472,-89.3399,0.0001,-0.012,1.1543,0.0311,-0.0164,2.3415,-0.2563,2.3256
92044,-106.6894,-4.6271,-0.0141,-0.0472,-89.3399,0.0001,-0.012,1.1543,0.0311,-0.0164,2.3415,-0.2563,2.3256
92060,-106.6894,-4.6271,-0.0141,-0.0472,-89.3399,0.0001,-0.012,1.1543,0.0311,-0.0164,2.3415,-0.2563,2.3256
92076,-106.6894,-4.6271,-0.0141,-0.0472,-89.3399,0.0001,-0.012,1.1543,0.0311,-0.0164,2.3415,-0.2563,2.3256
92092,-106.6894,-4.514,-0.0123,-0.0354,-89.4246,-0.0022,0.0048,1.2527,0.0127,0.1777,1.0406,-0.1945,-0.899
92108,-106.6894,-4.514,-0.0123,-0.0354,-89.4246,-0.0022,0.0048,1.2527,0.0127,0.1777,1.0406,-0.1945,-0.899
92124,-106.6894,-4.514,-0.0123,-0.0354,-89.4246,-0.0022,0.0048,1.2527,0.0127,0.1777,1.0406,-0.1945,-0.899
92140,-106.6894,-4.514,-0.0123,-0.0354,-89.4246,-0.0022,0.0048,1.2527,0.0127,0.1777,1.0406,-0.1945,-0.899
92156,-106.6894,-4.514,-0.0123,-0.0354,-89.4246,-0.0022,0.0048,1.2527,0.0127,0.1777,1.0406,-0.1945,-0.899
92172,-106.6891,-4.386,-0.0116,-0.0328,-89.4716,-0.0016,-0.0052,1.3718,0.0056,-0.1068,1.278,-0.0766,1.8602
92188,-106.6891,-4.386,-0.0116,-0.0328,-89.4716,-0.0016,-0.0052,1.3718,0.0056,-0.1068,1.278,-0.0766,1.8602
92204,-106.6891,-4.386,-0.0116,-0.0328,-89.4716,-0.0016,-0.0052,1.3718,0.0056,-0.1068,1.278,-0.0766,1.8602
92220,-106.6891,-4.386,-0.0116,-0.0328,-89.4716,-0.0016,-0.0052,1.3718,0.0056,-0.1068,1.278,-0.0766,1.8602
92236,-106.6891,-4.386,-0.0116,-0.0328,-89.4716,-0.0016,-0.0052,1.3718,0.0056,-0.1068,1.278,-0.0766,1.8602
92252,-106.6891,-4.386,-0.0116,-0.0328,-89.4716,-0.0016,-0.0052,1.3718,0.0056,-0.1068,1.278,-0.0766,1.8602
92268,-106.6891,-4.386,-0.0116,-0.0328,-89.4716,-0.0016,-0.0052,1.3718,0.0056,-0.1068,1.278,-0.0766,1.8602
92284,-106.6918,-4.232,-0.0112,-0.0356,-89.2861,0.0012,-0.0178,1.7437,0.0025,-0.1288,3.7785,-0.0315,3.7326
92300,-106.6918,-4.232,-0.0112,-0.0356,-89.2861,0.0012,-0.0178,1.7437,0.0025,-0.1288,3.7785,-0.0315,3.7326
92316,-106.6918,-4.232,-0.0112,-0.0356,-89.2861,0.0012,-0.0178,1.7437,0.0025,-0.1288,3.7785,-0.0315,3.7326
92332,-106.6918,-4.232,-0.0112,-0.0356,-89.2861,0.0012,-0.0178,1.7437,0.0025,-0.1288,3.7785,-0.0315,3.7326
92348,-106.6918,-4.232,-0.0112,-0.0356,-89.2861,0.0012,-0.0178,1.7437,0.0025,-0.1288,3.7785,-0.0315,3.7326
92364,-106.6918,-4.232,-0.0112,-0.0356,-89.2861,0.0012,-0.0178,1.7437,0.0025,-0.1288,3.7785,-0.0315,3.7326
92380,-106.6949,-4.0358,-0.0108,-0.0653,-89.1963,0.0025,-0.0366,2.5321,0.0012,-0.1963,8.2498,-0.0137,2.7445
92396,-106.6949,-4.0358,-0.0108,-0.0653,-89.1963,0.0025,-0.0366,2.5321,0.0012,-0.1963,8.2498,-0.0137,2.7445
92412,-106.6949,-4.0358,-0.0108,-0.0653,-89.1963,0.0025,-0.0366,2.5321,0.0012,-0.1963,8.2498,-0.0137,2.7445
92428,-106.6949,-4.0358,-0.0108,-0.0653,-89.1963,0.0025,-0.0366,2.5321,0.0012,-0.1963,8.2498,-0.0137,2.7445
92444,-106.6949,-4.0358,-0.0108,-0.0653,-89.1963,0.0025,-0.0366,2.5321,0.0012,-0.1963,8.2498,-0.0137,2.7445
92460,-106.6949,-4.0358,-0.0108,-0.0653,-89.1963,0.0025,-0.0366,2.5321,0.0012,-0.1963,8.2498,-0.0137,2.7445
92476,-106.6986,-3.7653,-0.0106,-0.0849,-89.1957,0.0014,-0.0412,3.0423,0.0006,-0.0476,5.2554,-0.0066,3.8393
92492,-106.6986,-3.7653,-0.0106,-0.0849,-89.1957,0.0014,-0.0412,3.0423,0.0006,-0.0476,5.2554,-0.0066,3.8393
92508,-106.6986,-3.7653,-0.0106,-0.0849,-89.1957,0.0014,-0.0412,3.0423,0.0006,-0.0476,5.2554,-0.0066,3.8393
92524,-106.6986,-3.7653,-0.0106,-0.0849,-89.1957,0.0014,-0.0412,3.0423,0.0006,-0.0476,5.2554,-0.0066,3.8393
92540,-106.6986,-3.7653,-0.0106,-0.0849,-89.1957,0.0014,-0.0412,3.0423,0.0006,-0.0476,5.2554,-0.0066,3.8393
92556,-106.6986,-3.7653,-0.0106,-0.0849,-89.1957,0.0014,-0.0412,3.0423,0.0006,-0.0476,5.2554,-0.0066,3.8393
92572,-106.7022,-3.4547,-0.0106,-0.0851,-89.2622,0.0003,-0.0448,3.5152,0.0003,-0.0384,5.0186,-0.0032,1.6724
92588,-106.7022,-3.4547,-0.0106,-0.0851,-89.2622,0.0003,-0.0448,3.5152,0.0003,-0.0384,5.0186,-0.0032,1.6724
92604,-106.7022,-3.4547,-0.0106,-0.0851,-89.2622,0.0003,-0.0448,3.5152,0.0003,-0.0384,5.0186,-0.0032,1.6724
92620,-106.7022,-3.4547,-0.0106,-0.0851,-89.2622,0.0003,-0.0448,3.5152,0.0003,-0.0384,5.0186,-0.0032,1.6724
92636,-106.7022,-3.4547,-0.0106,-0.0851,-89.2622,0.0003,-0.0448,3.5152,0.0003,-0.0384,5.0186,-0.0032,1.6724
92652,-106.7022,-3.4547,-0.0106,-0.0851,-89.2622,0.0003,-0.0448,3.5152,0.0003,-0.0384,5.0186,-0.0032,1.6724
92668,-106.7061,-3.0965,-0.0106,-0.0777,-89.324,-0.0005,-0.0476,3.9707,0.0001,-0.0285,4.647,-0.0012,-0.9114
92684,-106.7061,-3.0965,-0.0106,-0.0777,-89.324,-0.0005,-0.0476,3.9707,0.0001,-0.0285,4.647,-0.0012,-0.9114
92700,-106.7061,-3.0965,-0.0106,-0.0777,-89.324,-0.0005,-0.0476,3.9707,0.0001,-0.0285,4.647,-0.0012,-0.9114
92716,-106.7061,-3.0965,-0.0106,-0.0777,-89.324,-0.0005,-0.0476,3.9707,0.0001,-0.0285,4.647,-0.0012,-0.9114
92732,-106.7061,-3.0965,-0.0106,-0.0777,-89.324,-0.0005,-0.0476,3.9707,0.0001,-0.0285,4.647,-0.0012,-0.9114
92748,-106.7061,-3.0965,-0.0106,-0.0777,-89.324,-0.0005,-0.0476,3.9707,0.0001,-0.0285,4.647,-0.0012,-0.9114
92764,-106.7107,-2.6905,-0.0105,-0.0892,-89.3416,-0.0007,-0.0535,4.6149,0.0001,-0.0619,6.7606,-0.0007,-0.3409
92780,-106.7107,-2.6905,-0.0105,-0.0892,-89.3416,-0.0007,-0.0535,4.6149,0.0001,-0.0619,6.7606,-0.0007,-0.3409
92796,-106.7107,-2.6905,-0.0105,-0.0892,-89.3416,-0.0007,-0.0535,4.6149,0.0001,-0.0619,6.7606,-0.0007,-0.3409
92812,-106.7107,-2.6905,-0.0105,-0.0892,-89.3416,-0.0007,-0.0535,4.6149,0.0001,-0.0619,6.7606,-0.0007,-0.3409
92828,-106.7107,-2.6905,-0.0105,-0.0892,-89.3416,-0.0007,-0.0535,4.6149,0.0001,-0.0619,6.7606,-0.0007,-0.3409
92844,-106.7158,-2.2318,-0.0105,-0.0962,-89.3607,-0.0008,-0.0573,5.1847,0.0,-0.0405,6.0826,-0.0004,1.0548
92860,-106.7158,-2.2318,-0.0105,-0.0962,-89.3607,-0.0008,-0.0573,5.1847,0.0,-0.0405,6.0826,-0.0004,1.0548
92876,-106.7158,-2.2318,-0.0105,-0.0962,-89.3607,-0.0008,-0.0573,5.1847,0.0,-0.0405,6.0826,-0.0004,1.0548
92892,-106.7158,-2.2318,-0.0105,-0.0962,-89.3607,-0.0008,-0.0573,5.1847,0.0,-0.0405,6.0826,-0.0004,1.0548
92908,-106.7158,-2.2318,-0.0105,-0.0962,-89.3607,-0.0008,-0.0573,5.1847,0.0,-0.0405,6.0826,-0.0004,1.0548
92924,-106.7158,-2.2318,-0.0105,-0.0962,-89.3607,-0.0008,-0.0573,5.1847,0.0,-0.0405,6.0826,-0.0004,1.0548
92940,-106.7158,-2.2318,-0.0105,-0.0962,-89.3607,-0.0008,-0.0573,5.1847,0.0,-0.0405,6.0826,-0.0004,1.0548
92956,-106.7216,-1.6897,-0.0105,-0.0931,-89.3812,-0.0009,-0.063,5.7097,0.0,-0.0568,5.244,-0.0001,-1.5687
92972,-106.7216,-1.6897,-0.0105,-0.0931,-89.3812,-0.0009,-0.063,5.7097,0.0,-0.0568,5.244,-0.0001,-1.5687
92988,-106.7216,-1.6897,-0.0105,-0.0931,-89.3812,-0.0009,-0.063,5.7097,0.0,-0.0568,5.244,-0.0001,-1.5687
93004,-106.7216,-1.6897,-0.0105,-0.0931,-89.3812,-0.0009,-0.063,5.7097,0.0,-0.0568,5.244,-0.0001,-1.5687
93020,-106.7216,-1.6897,-0.0105,-0.0931,-89.3812,-0.0009,-0.063,5.7097,0.0,-0.0568,5.244,-0.0001,-1.5687
93036,-106.7216,-1.6897,-0.0105,-0.0931,-89.3812,-0.0009,-0.063,5.7097,0.0,-0.0568,5.244,-0.0001,-1.5687
93052,-106.7279,-1.1111,-0.0104,-0.0969,-89.3778,-0.0006,-0.0681,6.3408,0.0,-0.0525,6.5479,-0.0002,1.3542
93068,-106.7279,-1.1111,-0.0104,-0.0969,-89.3778,-0.0006,-0.0681,6.3408,0.0,-0.0525,6.5479,-0.0002,1.3542
93084,-106.7279,-1.1111,-0.0104,-0.0969,-89.3778,-0.0006,-0.0681,6.3408,0.0,-0.0525,6.5479,-0.0002,1.3542
93100,-106.7279,-1.1111,-0.0104,-0.0969,-89.3778,-0.0006,-0.0681,6.3408,0.0,-0.0525,6.5479,-0.0002,1.3542
93116,-106.7279,-1.1111,-0.0104,-0.0969,-89.3778,-0.0006,-0.0681,6.3408,0.0,-0.0525,6.5479,-0.0002,1.3542
93132,-106.7279,-1.1111,-0.0104,-0.0969,-89.3778,-0.0006,-0.0681,6.3408,0.0,-0.0525,6.5479,-0.0002,1.3542
93150,-106.7351,-0.443,-0.0104,-0.1038,-89.3832,-0.0003,-0.0766,7.028,-0.0,-0.0852,6.8502,-0.0003,-1.3014
93164,-106.7351,-0.443,-0.0104,-0.1038,-89.3832,-0.0003,-0.0766,7.028,-0.0,-0.0852,6.8502,-0.0003,-1.3014
93180,-106.7351,-0.443,-0.0104,-0.1038,-89.3832,-0.0003,-0.0766,7.028,-0.0,-0.0852,6.8502,-0.0003,-1.3014
93196,-106.7351,-0.443,-0.0104,-0.1038,-89.3832,-0.0003,-0.0766,7.028,-0.0,-0.0852,6.8502,-0.0003,-1.3014
93212,-106.7351,-0.443,-0.0104,-0.1038,-89.3832,-0.0003,-0.0766,7.028,-0.0,-0.0852,6.8502,-0.0003,-1.3014
93228,-106.7351,-0.443,-0.0104,-0.1038,-89.3832,-0.0003,-0.0766,7.028,-0.0,-0.0852,6.8502,-0.0003,-1.3014
93246,-106.7431,0.2943,-0.0104,-0.1097,-89.3768,-0.0002,-0.0834,7.7346,0.0,-0.0681,7.0792,0.0002,0.9866
93260,-106.7431,0.2943,-0.0104,-0.1097,-89.3768,-0.0002,-0.0834,7.7346,0.0,-0.0681,7.0792,0.0002,0.9866
93276,-106.7431,0.2943,-0.0104,-0.1097,-89.3768,-0.0002,-0.0834,7.7346,0.0,-0.0681,7.0792,0.0002,0.9866
93292,-106.7431,0.2943,-0.0104,-0.1097,-89.3768,-0.0002,-0.0834,7.7346,0.0,-0.0681,7.0792,0.0002,0.9866
93308,-106.7431,0.2943,-0.0104,-0.1097,-89.3768,-0.0002,-0.0834,7.7346,0.0,-0.0681,7.0792,0.0002,0.9866
93324,-106.7431,0.2943,-0.0104,-0.1097,-89.3768,-0.0002,-0.0834,7.7346,0.0,-0.0681,7.0792,0.0002,0.9866
93340,-106.7518,1.0972,-0.0103,-0.1105,-89.3818,-0.0001,-0.091,8.3845,-0.0,-0.0764,6.5308,-0.0001,-0.7422
93356,-106.7518,1.0972,-0.0103,-0.1105,-89.3818,-0.0001,-0.091,8.3845,-0.0,-0.0764,6.5308,-0.0001,-0.7422
93372,-106.7518,1.0972,-0.0103,-0.1105,-89.3818,-0.0001,-0.091,8.3845,-0.0,-0.0764,6.5308,-0.0001,-0.7422
93388,-106.7518,1.0972,-0.0103,-0.1105,-89.3818,-0.0001,-0.091,8.3845,-0.0,-0.0764,6.5308,-0.0001,-0.7422
93404,-106.7518,1.0972,-0.0103,-0.1105,-89.3818,-0.0001,-0.091,8.3845,-0.0,-0.0764,6.5308,-0.0001,-0.7422
93420,-106.7518,1.0972,-0.0103,-0.1105,-89.3818,-0.0001,-0.091,8.3845,-0.0,-0.0764,6.5308,-0.0001,-0.7422
93436,-106.7518,1.0972,-0.0103,-0.1105,-89.3818,-0.0001,-0.091,8.3845,-0.0,-0.0764,6.5308,-0.0001,-0.7422
93452,-106.761,1.9476,-0.0104,-0.1084,-89.3795,-0.0001,-0.0973,8.995,0.0,-0.0641,6.2474,0.0001,0.2267
93468,-106.761,1.9476,-0.0104,-0.1084,-89.3795,-0.0001,-0.0973,8.995,0.0,-0.0641,6.2474,0.0001,0.2267
93484,-106.761,1.9476,-0.0104,-0.1084,-89.3795,-0.0001,-0.0973,8.995,0.0,-0.0641,6.2474,0.0001,0.2267
93500,-106.761,1.9476,-0.0104,-0.1084,-89.3795,-0.0001,-0.0973,8.995,0.0,-0.0641,6.2474,0.0001,0.2267
93516,-106.761,1.9476,-0.0104,-0.1084,-89.3795,-0.0001,-0.0973,8.995,0.0,-0.0641,6.2474,0.0001,0.2267
93532,-106.761,1.9476,-0.0104,-0.1084,-89.3795,-0.0001,-0.0973,8.995,0.0,-0.0641,6.2474,0.0001,0.2267
93548,-106.7709,2.8606,-0.0104,-0.1022,-89.3802,-0.0001,-0.1031,9.5249,0.0,-0.0588,5.3835,-0.0,-0.0324
93564,-106.7709,2.8606,-0.0104,-0.1022,-89.3802,-0.0001,-0.1031,9.5249,0.0,-0.0588,5.3835,-0.0,-0.0324
93580,-106.7709,2.8606,-0.0104,-0.1022,-89.3802,-0.0001,-0.1031,9.5249,0.0,-0.0588,5.3835,-0.0,-0.0324
93596,-106.7709,2.8606,-0.0104,-0.1022,-89.3802,-0.0001,-0.1031,9.5249,0.0,-0.0588,5.3835,-0.0,-0.0324
93612,-106.7709,2.8606,-0.0104,-0.1022,-89.3802,-0.0001,-0.1031,9.5249,0.0,-0.0588,5.3835,-0.0,-0.0324
93628,-106.7709,2.8606,-0.0104,-0.1022,-89.3802,-0.0001,-0.1031,9.5249,0.0,-0.0588,5.3835,-0.0,-0.0324
93646,-106.7815,3.8385,-0.0105,-0.0937,-89.3802,-0.0,-0.1083,10.0088,0.0,-0.0516,4.7853,0.0001,0.0011
93660,-106.7815,3.8385,-0.0105,-0.0937,-89.3802,-0.0,-0.1083,10.0088,0.0,-0.0516,4.7853,0.0001,0.0011
93676,-106.7815,3.8385,-0.0105,-0.0937,-89.3802,-0.0,-0.1083,10.0088,0.0,-0.0516,4.7853,0.0001,0.0011
93692,-106.7815,3.8385,-0.0105,-0.0937,-89.3802,-0.0,-0.1083,10.0088,0.0,-0.0516,4.7853,0.0001,0.0011
93708,-106.7815,3.8385,-0.0105,-0.0937,-89.3802,-0.0,-0.1083,10.0088,0.0,-0.0516,4.7853,0.0001,0.0011
93724,-106.7815,3.8385,-0.0105,-0.0937,-89.3802,-0.0,-0.1083,10.0088,0.0,-0.0516,4.7853,0.0001,0.0011
93741,-106.7923,4.8385,-0.0105,-0.0889,-89.3802,-0.0,-0.1136,10.497,0.0,-0.0541,5.0113,-0.0001,0.0001
93756,-106.7923,4.8385,-0.0105,-0.0889,-89.3802,-0.0,-0.1136,10.497,0.0,-0.0541,5.0113,-0.0001,0.0001
93772,-106.7923,4.8385,-0.0105,-0.0889,-89.3802,-0.0,-0.1136,10.497,0.0,-0.0541,5.0113,-0.0001,0.0001
93788,-106.7923,4.8385,-0.0105,-0.0889,-89.3802,-0.0,-0.1136,10.497,0.0,-0.0541,5.0113,-0.0001,0.0001
93804,-106.7923,4.8385,-0.0105,-0.0889,-89.3802,-0.0,-0.1136,10.497,0.0,-0.0541,5.0113,-0.0001,0.0001
93820,-106.7923,4.8385,-0.0105,-0.0889,-89.3802,-0.0,-0.1136,10.497,0.0,-0.0541,5.0113,-0.0001,0.0001
93836,-106.8037,5.895,-0.0105,-0.0844,-89.3802,0.0,-0.1184,10.9433,0.0,-0.0491,4.5365,-0.0,0.0001
93852,-106.8037,5.895,-0.0105,-0.0844,-89.3802,0.0,-0.1184,10.9433,0.0,-0.0491,4.5365,-0.0,0.0001
93868,-106.8037,5.895,-0.0105,-0.0844,-89.3802,0.0,-0.1184,10.9433,0.0,-0.0491,4.5365,-0.0,0.0001
93884,-106.8037,5.895,-0.0105,-0.0844,-89.3802,0.0,-0.1184,10.9433,0.0,-0.0491,4.5365,-0.0,0.0001
93900,-106.8037,5.895,-0.0105,-0.0844,-89.3802,0.0,-0.1184,10.9433,0.0,-0.0491,4.5365,-0.0,0.0001
93916,-106.8037,5.895,-0.0105,-0.0844,-89.3802,0.0,-0.1184,10.9433,0.0,-0.0491,4.5365,-0.0,0.0001
93932,-106.8037,5.895,-0.0105,-0.0844,-89.3802,0.0,-0.1184,10.9433,0.0,-0.0491,4.5365,-0.0,0.0001
93948,-106.8158,7.0107,-0.0106,-0.0776,-89.3802,0.0,-0.1227,11.3408,-0.0,-0.0424,3.9222,-0.0001,-0.0001
93964,-106.8158,7.0107,-0.0106,-0.0776,-89.3802,0.0,-0.1227,11.3408,-0.0,-0.0424,3.9222,-0.0001,-0.0001
93980,-106.8158,7.0107,-0.0106,-0.0776,-89.3802,0.0,-0.1227,11.3408,-0.0,-0.0424,3.9222,-0.0001,-0.0001
93996,-106.8158,7.0107,-0.0106,-0.0776,-89.3802,0.0,-0.1227,11.3408,-0.0,-0.0424,3.9222,-0.0001,-0.0001
94012,-106.8158,7.0107,-0.0106,-0.0776,-89.3802,0.0,-0.1227,11.3408,-0.0,-0.0424,3.9222,-0.0001,-0.0001
94028,-106.8158,7.0107,-0.0106,-0.0776,-89.3802,0.0,-0.1227,11.3408,-0.0,-0.0424,3.9222,-0.0001,-0.0001
94044,-106.8283,8.1612,-0.0106,-0.0714,-89.3802,0.0,-0.1267,11.7112,0.0,-0.0402,3.7147,0.0,0.0001
94060,-106.8283,8.1612,-0.0106,-0.0714,-89.3802,0.0,-0.1267,11.7112,0.0,-0.0402,3.7147,0.0,0.0001
94076,-106.8283,8.1612,-0.0106,-0.0714,-89.3802,0.0,-0.1267,11.7112,0.0,-0.0402,3.7147,0.0,0.0001
94092,-106.8283,8.1612,-0.0106,-0.0714,-89.3802,0.0,-0.1267,11.7112,0.0,-0.0402,3.7147,0.0,0.0001
94108,-106.8283,8.1612,-0.0106,-0.0714,-89.3802,0.0,-0.1267,11.7112,0.0,-0.0402,3.7147,0.0,0.0001
94124,-106.8283,8.1612,-0.0106,-0.0714,-89.3802,0.0,-0.1267,11.7112,0.0,-0.0402,3.7147,0.0,0.0001
94140,-106.8404,9.2788,-0.0107,-0.0675,-89.3802,0.0,-0.1304,12.056,-0.0,-0.0397,3.671,-0.0002,-0.0
94156,-106.8404,9.2788,-0.0107,-0.0675,-89.3802,0.0,-0.1304,12.056,-0.0,-0.0397,3.671,-0.0002,-0.0
94172,-106.8404,9.2788,-0.0107,-0.0675,-89.3802,0.0,-0.1304,12.056,-0.0,-0.0397,3.671,-0.0002,-0.0
94188,-106.8404,9.2788,-0.0107,-0.0675,-89.3802,0.0,-0.1304,12.056,-0.0,-0.0397,3.671,-0.0002,-0.0
94204,-106.8404,9.2788,-0.0107,-0.0675,-89.3802,0.0,-0.1304,12.056,-0.0,-0.0397,3.671,-0.0002,-0.0
94220,-106.8404,9.2788,-0.0107,-0.0675,-89.3802,0.0,-0.1304,12.056,-0.0,-0.0397,3.671,-0.0002,-0.0
94236,-106.8527,10.4184,-0.0107,-0.064,-89.3802,0.0,-0.1339,12.3741,0.0,-0.037,3.4149,0.0003,0.0
94252,-106.8527,10.4184,-0.0107,-0.064,-89.3802,0.0,-0.1339,12.3741,0.0,-0.037,3.4149,0.0003,0.0
94268,-106.8527,10.4184,-0.0107,-0.064,-89.3802,0.0,-0.1339,12.3741,0.0,-0.037,3.4149,0.0003,0.0
94284,-106.8527,10.4184,-0.0107,-0.064,-89.3802,0.0,-0.1339,12.3741,0.0,-0.037,3.4149,0.0003,0.0
94300,-106.8527,10.4184,-0.0107,-0.064,-89.3802,0.0,-0.1339,12.3741,0.0,-0.037,3.4149,0.0003,0.0
94317,-106.8652,11.5796,-0.0107,-0.0598,-89.3802,0.0,-0.137,12.66,0.0,-0.0334,3.0855,0.0001,-0.0
94332,-106.8652,11.5796,-0.0107,-0.0598,-89.3802,0.0,-0.137,12.66,0.0,-0.0334,3.0855,0.0001,-0.0
94348,-106.8652,11.5796,-0.0107,-0.0598,-89.3802,0.0,-0.137,12.66,0.0,-0.0334,3.0855,0.0001,-0.0
94364,-106.8652,11.5796,-0.0107,-0.0598,-89.3802,0.0,-0.137,12.66,0.0,-0.0334,3.0855,0.0001,-0.0
94396,-106.8652,11.5796,-0.0107,-0.0598,-89.3802,0.0,-0.137,12.66,0.0,-0.0334,3.0855,0.0001,-0.0
94413,-106.9057,12.7982,-0.0108,-0.045,-90.662,0.1171,-0.9333,12.7089,0.001,-8.3127,0.5101,0.0101,-29.195
94428,-106.9057,12.7982,-0.0108,-0.045,-90.662,0.1171,-0.9333,12.7089,0.001,-8.3127,0.5101,0.0101,-29.195
94444,-106.9057,12.7982,-0.0108,-0.045,-90.662,0.1171,-0.9333,12.7089,0.001,-8.3127,0.5101,0.0101,-29.195
94460,-106.9057,12.7982,-0.0108,-0.045,-90.662,0.1171,-0.9333,12.7089,0.001,-8.3127,0.5101,0.0101,-29.195
94476,-106.9057,12.7982,-0.0108,-0.045,-90.662,0.1171,-0.9333,12.7089,0.001,-8.3127,0.5101,0.0101,-29.195
94492,-106.9057,12.7982,-0.0108,-0.045,-90.662,0.1171,-0.9333,12.7089,0.001,-8.3127,0.5101,0.0101,-29.195
94509,-107.0109,14.0246,-0.0109,-0.0087,-96.0241,0.2559,-1.8755,12.4701,0.0011,-9.655,-2.4465,0.0017,-78.0552
94524,-107.0109,14.0246,-0.0109,-0.0087,-96.0241,0.2559,-1.8755,12.4701,0.0011,-9.655,-2.4465,0.0017,-78.0552
94540,-107.0109,14.0246,-0.0109,-0.0087,-96.0241,0.2559,-1.8755,12.4701,0.0011,-9.655,-2.4465,0.0017,-78.0552
94556,-107.0109,14.0246,-0.0109,-0.0087,-96.0241,0.2559,-1.8755,12.4701,0.0011,-9.655,-2.4465,0.0017,-78.0552
94572,-107.0109,14.0246,-0.0109,-0.0087,-96.0241,0.2559,-1.8755,12.4701,0.0011,-9.655,-2.4465,0.0017,-78.0552
94588,-107.0109,14.0246,-0.0109,-0.0087,-96.0241,0.2559,-1.8755,12.4701,0.0011,-9.655,-2.4465,0.0017,-78.0552
94604,-107.1395,15.1493,-0.0111,0.0199,-105.8919,0.2603,-2.3161,12.2212,0.0001,-4.7719,-2.6958,-0.0118,-131.289
94620,-107.1395,15.1493,-0.0111,0.0199,-105.8919,0.2603,-2.3161,12.2212,0.0001,-4.7719,-2.6958,-0.0118,-131.289
94636,-107.1395,15.1493,-0.0111,0.0199,-105.8919,0.2603,-2.3161,12.2212,0.0001,-4.7719,-2.6958,-0.0118,-131.289
94652,-107.1395,15.1493,-0.0111,0.0199,-105.8919,0.2603,-2.3161,12.2212,0.0001,-4.7719,-2.6958,-0.0118,-131.289
94668,-107.1395,15.1493,-0.0111,0.0199,-105.8919,0.2603,-2.3161,12.2212,0.0001,-4.7719,-2.6958,-0.0118,-131.289
94684,-107.1395,15.1493,-0.0111,0.0199,-105.8919,0.2603,-2.3161,12.2212,0.0001,-4.7719,-2.6958,-0.0118,-131.289
94700,-107.2505,16.2926,-0.0111,0.0106,-121.8344,0.1257,-1.9882,12.1058,-0.0011,3.3431,-1.1771,-0.0118,-186.1109
94716,-107.2505,16.2926,-0.0111,0.0106,-121.8344,0.1257,-1.9882,12.1058,-0.0011,3.3431,-1.1771,-0.0118,-186.1109
94732,-107.2505,16.2926,-0.0111,0.0106,-121.8344,0.1257,-1.9882,12.1058,-0.0011,3.3431,-1.1771,-0.0118,-186.1109
94748,-107.2505,16.2926,-0.0111,0.0106,-121.8344,0.1257,-1.9882,12.1058,-0.0011,3.3431,-1.1771,-0.0118,-186.1109
94764,-107.2505,16.2926,-0.0111,0.0106,-121.8344,0.1257,-1.9882,12.1058,-0.0011,3.3431,-1.1771,-0.0118,-186.1109
94780,-107.2505,16.2926,-0.0111,0.0106,-121.8344,0.1257,-1.9882,12.1058,-0.0011,3.3431,-1.1771,-0.0118,-186.1109
94797,-107.2543,17.3264,-0.0106,-0.0748,-140.5021,-0.1258,-0.3491,12.0782,0.0004,17.6654,-0.2973,0.0162,-210.2444
94812,-107.2543,17.3264,-0.0106,-0.0748,-140.5021,-0.1258,-0.3491,12.0782,0.0004,17.6654,-0.2973,0.0162,-210.2444
94828,-107.2543,17.3264,-0.0106,-0.0748,-140.5021,-0.1258,-0.3491,12.0782,0.0004,17.6654,-0.2973,0.0162,-210.2444
94844,-107.2543,17.3264,-0.0106,-0.0748,-140.5021,-0.1258,-0.3491,12.0782,0.0004,17.6654,-0.2973,0.0162,-210.2444
94860,-107.2543,17.3264,-0.0106,-0.0748,-140.5021,-0.1258,-0.3491,12.0782,0.0004,17.6654,-0.2973,0.0162,-210.2444
94876,-107.2543,17.3264,-0.0106,-0.0748,-140.5021,-0.1258,-0.3491,12.0782,0.0004,17.6654,-0.2973,0.0162,-210.2444
94893,-107.0905,18.3439,-0.0095,-0.1939,-161.7515,-0.3854,1.9394,11.43,0.0021,23.3599,-6.6162,0.0174,-221.346
94908,-107.0905,18.3439,-0.0095,-0.1939,-161.7515,-0.3854,1.9394,11.43,0.0021,23.3599,-6.6162,0.0174,-221.346
94924,-107.0905,18.3439,-0.0095,-0.1939,-161.7515,-0.3854,1.9394,11.43,0.0021,23.3599,-6.6162,0.0174,-221.346
94940,-107.0905,18.3439,-0.0095,-0.1939,-161.7515,-0.3854,1.9394,11.43,0.0021,23.3599,-6.6162,0.0174,-221.346
94956,-107.0905,18.3439,-0.0095,-0.1939,-161.7515,-0.3854,1.9394,11.43,0.0021,23.3599,-6.6162,0.0174,-221.346
94972,-107.0905,18.3439,-0.0095,-0.1939,-161.7515,-0.3854,1.9394,11.43,0.0021,23.3599,-6.6162,0.0174,-221.346
95004,-106.7561,19.2399,-0.0086,-0.2842,175.7054,-0.5722,4.1002,9.9226,0.0016,21.7264,-15.1565,-0.0051,-231.6392
95020,-106.7561,19.2399,-0.0086,-0.2842,175.7054,-0.5722,4.1002,9.9226,0.0016,21.7264,-15.1565,-0.0051,-231.6392
95036,-106.7561,19.2399,-0.0086,-0.2842,175.7054,-0.5722,4.1002,9.9226,0.0016,21.7264,-15.1565,-0.0051,-231.6392
95052,-106.7561,19.2399,-0.0086,-0.2842,175.7054,-0.5722,4.1002,9.9226,0.0016,21.7264,-15.1565,-0.0051,-231.6392
95068,-106.7561,19.2399,-0.0086,-0.2842,175.7054,-0.5722,4.1002,9.9226,0.0016,21.7264,-15.1565,-0.0051,-231.6392
95085,-106.3636,19.9019,-0.0083,-0.3103,153.7435,-0.7497,4.7695,7.5818,0.0017,7.1011,-24.8369,0.0011,-231.439
95100,-106.3636,19.9019,-0.0083,-0.3103,153.7435,-0.7497,4.7695,7.5818,0.0017,7.1011,-24.8369,0.0011,-231.439
95116,-106.3636,19.9019,-0.0083,-0.3103,153.7435,-0.7497,4.7695,7.5818,0.0017,7.1011,-24.8369,0.0011,-231.439
95132,-106.3636,19.9019,-0.0083,-0.3103,153.7435,-0.7497,4.7695,7.5818,0.0017,7.1011,-24.8369,0.0011,-231.439
95148,-106.3636,19.9019,-0.0083,-0.3103,153.7435,-0.7497,4.7695,7.5818,0.0017,7.1011,-24.8369,0.0011,-231.439
95164,-106.3636,19.9019,-0.0083,-0.3103,153.7435,-0.7497,4.7695,7.5818,0.0017,7.1011,-24.8369,0.0011,-231.439
95180,-106.0817,20.4464,-0.0091,-0.1934,133.5183,-0.8828,2.8045,6.4691,0.0034,-20.2485,-11.4665,0.0172,-189.2114
95196,-106.0817,20.4464,-0.0091,-0.1934,133.5183,-0.8828,2.8045,6.4691,0.0034,-20.2485,-11.4665,0.0172,-189.2114
95212,-106.0817,20.4464,-0.0091,-0.1934,133.5183,-0.8828,2.8045,6.4691,0.0034,-20.2485,-11.4665,0.0172,-189.2114
95228,-106.0817,20.4464,-0.0091,-0.1934,133.5183,-0.8828,2.8045,6.4691,0.0034,-20.2485,-11.4665,0.0172,-189.2114
95244,-106.0817,20.4464,-0.0091,-0.1934,133.5183,-0.8828,2.8045,6.4691,0.0034,-20.2485,-11.4665,0.0172,-189.2114
95260,-106.0817,20.4464,-0.0091,-0.1934,133.5183,-0.8828,2.8045,6.4691,0.0034,-20.2485,-11.4665,0.0172,-189.2114
95278,-106.0256,20.9756,-0.0102,-0.0228,119.1317,-0.8867,0.7011,6.9557,0.0002,-23.6684,5.4762,-0.0357,-136.8383
95292,-106.0256,20.9756,-0.0102,-0.0228,119.1317,-0.8867,0.7011,6.9557,0.0002,-23.6684,5.4762,-0.0357,-136.8383
95308,-106.0256,20.9756,-0.0102,-0.0228,119.1317,-0.8867,0.7011,6.9557,0.0002,-23.6684,5.4762,-0.0357,-136.8383
95324,-106.0256,20.9756,-0.0102,-0.0228,119.1317,-0.8867,0.7011,6.9557,0.0002,-23.6684,5.4762,-0.0357,-136.8383
95340,-106.0256,20.9756,-0.0102,-0.0228,119.1317,-0.8867,0.7011,6.9557,0.0002,-23.6684,5.4762,-0.0357,-136.8383
95356,-106.0256,20.9756,-0.0102,-0.0228,119.1317,-0.8867,0.7011,6.9557,0.0002,-23.6684,5.4762,-0.0357,-136.8383
95372,-106.0972,21.6512,-0.0113,0.1145,109.0866,-0.7015,-0.2946,8.0305,-0.0016,-10.6877,11.5362,-0.0195,-93.9026
95388,-106.0972,21.6512,-0.0113,0.1145,109.0866,-0.7015,-0.2946,8.0305,-0.0016,-10.6877,11.5362,-0.0195,-93.9026
95404,-106.0972,21.6512,-0.0113,0.1145,109.0866,-0.7015,-0.2946,8.0305,-0.0016,-10.6877,11.5362,-0.0195,-93.9026
95420,-106.0972,21.6512,-0.0113,0.1145,109.0866,-0.7015,-0.2946,8.0305,-0.0016,-10.6877,11.5362,-0.0195,-93.9026
95436,-106.0972,21.6512,-0.0113,0.1145,109.0866,-0.7015,-0.2946,8.0305,-0.0016,-10.6877,11.5362,-0.0195,-93.9026
95452,-106.1517,22.3803,-0.0119,0.1518,101.0003,-0.3203,0.3396,8.6953,-0.0032,7.1997,7.5465,-0.018,-91.7751
95468,-106.1517,22.3803,-0.0119,0.1518,101.0003,-0.3203,0.3396,8.6953,-0.0032,7.1997,7.5465,-0.018,-91.7751
95484,-106.1517,22.3803,-0.0119,0.1518,101.0003,-0.3203,0.3396,8.6953,-0.0032,7.1997,7.5465,-0.018,-91.7751
95516,-106.1517,22.3803,-0.0119,0.1518,101.0003,-0.3203,0.3396,8.6953,-0.0032,7.1997,7.5465,-0.018,-91.7751
95532,-106.1517,22.3803,-0.0119,0.1518,101.0003,-0.3203,0.3396,8.6953,-0.0032,7.1997,7.5465,-0.018,-91.7751
95548,-106.1672,23.2275,-0.0121,0.1479,94.2178,-0.1594,0.0854,9.2131,-0.0019,-2.6848,5.4684,0.014,-47.6135
95564,-106.1672,23.2275,-0.0121,0.1479,94.2178,-0.1594,0.0854,9.2131,-0.0019,-2.6848,5.4684,0.014,-47.6135
95580,-106.1672,23.2275,-0.0121,0.1479,94.2178,-0.1594,0.0854,9.2131,-0.0019,-2.6848,5.4684,0.014,-47.6135
95596,-106.1672,23.2275,-0.0121,0.1479,94.2178,-0.1594,0.0854,9.2131,-0.0019,-2.6848,5.4684,0.014,-47.6135
95612,-106.1672,23.2275,-0.0121,0.1479,94.2178,-0.1594,0.0854,9.2131,-0.0019,-2.6848,5.4684,0.014,-47.6135
95628,-106.1672,23.2275,-0.0121,0.1479,94.2178,-0.1594,0.0854,9.2131,-0.0019,-2.6848,5.4684,0.014,-47.6135
95646,-106.2008,24.1065,-0.0119,0.112,91.9289,-0.1726,-0.2759,9.4124,-0.0001,-3.8319,2.1137,0.0192,-13.0748
95660,-106.2008,24.1065,-0.0119,0.112,91.9289,-0.1726,-0.2759,9.4124,-0.0001,-3.8319,2.1137,0.0192,-13.0748
95676,-106.2008,24.1065,-0.0119,0.112,91.9289,-0.1726,-0.2759,9.4124,-0.0001,-3.8319,2.1137,0.0192,-13.0748
95692,-106.2008,24.1065,-0.0119,0.112,91.9289,-0.1726,-0.2759,9.4124,-0.0001,-3.8319,2.1137,0.0192,-13.0748
95708,-106.2008,24.1065,-0.0119,0.112,91.9289,-0.1726,-0.2759,9.4124,-0.0001,-3.8319,2.1137,0.0192,-13.0748
95724,-106.2008,24.1065,-0.0119,0.112,91.9289,-0.1726,-0.2759,9.4124,-0.0001,-3.8319,2.1137,0.0192,-13.0748
95742,-106.2304,24.9793,-0.0117,0.0771,91.3371,-0.112,-0.2669,9.5271,-0.0003,0.0978,1.2452,-0.0031,-4.1078
95756,-106.2304,24.9793,-0.0117,0.0771,91.3371,-0.112,-0.2669,9.5271,-0.0003,0.0978,1.2452,-0.0031,-4.1078
95772,-106.2304,24.9793,-0.0117,0.0771,91.3371,-0.112,-0.2669,9.5271,-0.0003,0.0978,1.2452,-0.0031,-4.1078
95788,-106.2304,24.9793,-0.0117,0.0771,91.3371,-0.112,-0.2669,9.5271,-0.0003,0.0978,1.2452,-0.0031,-4.1078
95804,-106.2304,24.9793,-0.0117,0.0771,91.3371,-0.112,-0.2669,9.5271,-0.0003,0.0978,1.2452,-0.0031,-4.1078
95820,-106.2304,24.9793,-0.0117,0.0771,91.3371,-0.112,-0.2669,9.5271,-0.0003,0.0978,1.2452,-0.0031,-4.1078
95838,-106.2552,25.9141,-0.0115,0.05,91.1642,-0.0575,-0.2277,9.5987,-0.0004,0.4005,0.7322,-0.0001,-1.7635
95852,-106.2552,25.9141,-0.0115,0.05,91.1642,-0.0575,-0.2277,9.5987,-0.0004,0.4005,0.7322,-0.0001,-1.7635
95868,-106.2552,25.9141,-0.0115,0.05,91.1642,-0.0575,-0.2277,9.5987,-0.0004,0.4005,0.7322,-0.0001,-1.7635
95884,-106.2552,25.9141,-0.0115,0.05,91.1642,-0.0575,-0.2277,9.5987,-0.0004,0.4005,0.7322,-0.0001,-1.7635
95900,-106.2552,25.9141,-0.0115,0.05,91.1642,-0.0575,-0.2277,9.5987,-0.0004,0.4005,0.7322,-0.0001,-1.7635
95916,-106.2552,25.9141,-0.0115,0.05,91.1642,-0.0575,-0.2277,9.5987,-0.0004,0.4005,0.7322,-0.0001,-1.7635
95934,-106.2766,26.8745,-0.0114,0.0325,91.1147,-0.0273,-0.2044,9.6575,-0.0002,0.2335,0.59,0.0018,-1.1293
95948,-106.2766,26.8745,-0.0114,0.0325,91.1147,-0.0273,-0.2044,9.6575,-0.0002,0.2335,0.59,0.0018,-1.1293
95964,-106.2766,26.8745,-0.0114,0.0325,91.1147,-0.0273,-0.2044,9.6575,-0.0002,0.2335,0.59,0.0018,-1.1293
95980,-106.2766,26.8745,-0.0114,0.0325,91.1147,-0.0273,-0.2044,9.6575,-0.0002,0.2335,0.59,0.0018,-1.1293
95996,-106.2766,26.8745,-0.0114,0.0325,91.1147,-0.0273,-0.2044,9.6575,-0.0002,0.2335,0.59,0.0018,-1.1293
96012,-106.2766,26.8745,-0.0114,0.0325,91.1147,-0.0273,-0.2044,9.6575,-0.0002,0.2335,0.59,0.0018,-1.1293
96030,-106.2962,27.8298,-0.0113,0.0227,91.1008,-0.0131,-0.1943,9.7179,-0.0001,0.1027,0.6125,0.0012,-0.9069
96044,-106.2962,27.8298,-0.0113,0.0227,91.1008,-0.0131,-0.1943,9.7179,-0.0001,0.1027,0.6125,0.0012,-0.9069
96060,-106.2962,27.8298,-0.0113,0.0227,91.1008,-0.0131,-0.1943,9.7179,-0.0001,0.1027,0.6125,0.0012,-0.9069
96076,-106.2962,27.8298,-0.0113,0.0227,91.1008,-0.0131,-0.1943,9.7179,-0.0001,0.1027,0.6125,0.0012,-0.9069
96092,-106.2962,27.8298,-0.0113,0.0227,91.1008,-0.0131,-0.1943,9.7179,-0.0001,0.1027,0.6125,0.0012,-0.9069
96108,-106.2962,27.8298,-0.0113,0.0227,91.1008,-0.0131,-0.1943,9.7179,-0.0001,0.1027,0.6125,0.0012,-0.9069
96124,-106.3149,28.7857,-0.011,0.0264,91.0951,-0.0212,-0.1922,9.7856,-0.0069,0.0216,0.6903,-0.0696,-0.7718
96140,-106.3149,28.7857,-0.011,0.0264,91.0951,-0.0212,-0.1922,9.7856,-0.0069,0.0216,0.6903,-0.0696,-0.7718
96156,-106.3149,28.7857,-0.011,0.0264,91.0951,-0.0212,-0.1922,9.7856,-0.0069,0.0216,0.6903,-0.0696,-0.7718
96172,-106.3149,28.7857,-0.011,0.0264,91.0951,-0.0212,-0.1922,9.7856,-0.0069,0.0216,0.6903,-0.0696,-0.7718
96188,-106.3149,28.7857,-0.011,0.0264,91.0951,-0.0212,-0.1922,9.7856,-0.0069,0.0216,0.6903,-0.0696,-0.7718
96204,-106.3149,28.7857,-0.011,0.0264,91.0951,-0.0212,-0.1922,9.7856,-0.0069,0.0216,0.6903,-0.0696,-0.7718
96220,-106.3149,28.7857,-0.011,0.0264,91.0951,-0.0212,-0.1922,9.7856,-0.0069,0.0216,0.6903,-0.0696,-0.7718
96236,-106.3332,29.7284,-0.0112,0.0147,91.0978,-0.0024,-0.1913,9.8414,-0.0015,0.0092,0.5811,0.0561,-0.7448
96252,-106.3332,29.7284,-0.0112,0.0147,91.0978,-0.0024,-0.1913,9.8414,-0.0015,0.0092,0.5811,0.0561,-0.7448
96268,-106.3332,29.7284,-0.0112,0.0147,91.0978,-0.0024,-0.1913,9.8414,-0.0015,0.0092,0.5811,0.0561,-0.7448
96284,-106.3332,29.7284,-0.0112,0.0147,91.0978,-0.0024,-0.1913,9.8414,-0.0015,0.0092,0.5811,0.0561,-0.7448
96300,-106.3332,29.7284,-0.0112,0.0147,91.0978,-0.0024,-0.1913,9.8414,-0.0015,0.0092,0.5811,0.0561,-0.7448
96316,-106.3332,29.7284,-0.0112,0.0147,91.0978,-0.0024,-0.1913,9.8414,-0.0015,0.0092,0.5811,0.0561,-0.7448
96332,-106.3522,30.7014,-0.011,-0.0051,91.0991,-0.023,-0.1911,9.8865,0.019,0.0018,0.4576,0.2082,-0.7121
96348,-106.3522,30.7014,-0.011,-0.0051,91.0991,-0.023,-0.1911,9.8865,0.019,0.0018,0.4576,0.2082,-0.7121
96364,-106.3522,30.7014,-0.011,-0.0051,91.0991,-0.023,-0.1911,9.8865,0.019,0.0018,0.4576,0.2082,-0.7121
96380,-106.3522,30.7014,-0.011,-0.0051,91.0991,-0.023,-0.1911,9.8865,0.019,0.0018,0.4576,0.2082,-0.7121
96396,-106.3522,30.7014,-0.011,-0.0051,91.0991,-0.023,-0.1911,9.8865,0.019,0.0018,0.4576,0.2082,-0.7121
96412,-106.3522,30.7014,-0.011,-0.0051,91.0991,-0.023,-0.1911,9.8865,0.019,0.0018,0.4576,0.2082,-0.7121
96430,-106.371,31.6881,-0.0111,0.0048,91.0985,-0.003,-0.1933,9.957,-0.0032,-0.0217,0.7091,-0.2236,-1.477
96444,-106.371,31.6881,-0.0111,0.0048,91.0985,-0.003,-0.1933,9.957,-0.0032,-0.0217,0.7091,-0.2236,-1.477
96460,-106.371,31.6881,-0.0111,0.0048,91.0985,-0.003,-0.1933,9.957,-0.0032,-0.0217,0.7091,-0.2236,-1.477
96476,-106.371,31.6881,-0.0111,0.0048,91.0985,-0.003,-0.1933,9.957,-0.0032,-0.0217,0.7091,-0.2236,-1.477
96492,-106.371,31.6881,-0.0111,0.0048,91.0985,-0.003,-0.1933,9.957,-0.0032,-0.0217,0.7091,-0.2236,-1.477
96508,-106.371,31.6881,-0.0111,0.0048,91.0985,-0.003,-0.1933,9.957,-0.0032,-0.0217,0.7091,-0.2236,-1.477
96524,-106.3891,32.6291,-0.0113,0.0123,91.1166,0.0009,-0.1952,10.0188,-0.0005,-0.0201,0.6552,0.0286,-1.3858
96540,-106.3891,32.6291,-0.0113,0.0123,91.1166,0.0009,-0.1952,10.0188,-0.0005,-0.0201,0.6552,0.0286,-1.3858
96556,-106.3891,32.6291,-0.0113,0.0123,91.1166,0.0009,-0.1952,10.0188,-0.0005,-0.0201,0.6552,0.0286,-1.3858
96572,-106.3891,32.6291,-0.0113,0.0123,91.1166,0.0009,-0.1952,10.0188,-0.0005,-0.0201,0.6552,0.0286,-1.3858
96588,-106.3891,32.6291,-0.0113,0.0123,91.1166,0.0009,-0.1952,10.0188,-0.0005,-0.0201,0.6552,0.0286,-1.3858
96604,-106.3891,32.6291,-0.0113,0.0123,91.1166,0.0009,-0.1952,10.0188,-0.0005,-0.0201,0.6552,0.0286,-1.3858
96620,-106.4071,33.5533,-0.0113,0.0123,91.1278,0.0004,-0.198,10.0646,0.0,-0.03,0.498,0.0059,-1.8293
96636,-106.4071,33.5533,-0.0113,0.0123,91.1278,0.0004,-0.198,10.0646,0.0,-0.03,0.498,0.0059,-1.8293
96652,-106.4071,33.5533,-0.0113,0.0123,91.1278,0.0004,-0.198,10.0646,0.0,-0.03,0.498,0.0059,-1.8293
96668,-106.4071,33.5533,-0.0113,0.0123,91.1278,0.0004,-0.198,10.0646,0.0,-0.03,0.498,0.0059,-1.8293
96684,-106.4071,33.5533,-0.0113,0.0123,91.1278,0.0004,-0.198,10.0646,0.0,-0.03,0.498,0.0059,-1.8293
