timestamp,x,y,z,pitch,yaw,roll,vx,vy,vz,ax,ay,az,yaw_rate
78704,-106.6867,-4.8475,-0.0798,0.0,-89.3578,0.0,0.0,0.0,0.0558,0.0,0.0,6.9449,-0.0
78720,-106.6867,-4.8475,-0.0798,0.0,-89.3578,0.0,0.0,0.0,0.0558,0.0,0.0,6.9449,-0.0
78736,-106.6867,-4.8475,-0.0798,0.0,-89.3578,0.0,0.0,0.0,0.0558,0.0,0.0,6.9449,-0.0
78752,-106.6867,-4.8475,-0.0798,0.0,-89.3578,0.0,0.0,0.0,0.0558,0.0,0.0,6.9449,-0.0
78768,-106.6867,-4.8475,-0.0798,0.0,-89.3578,0.0,0.0,0.0,0.0558,0.0,0.0,6.9449,-0.0
78784,-106.6867,-4.8475,-0.0798,0.0,-89.3578,0.0,0.0,0.0,0.0558,0.0,0.0,6.9449,-0.0
78800,-106.6867,-4.8475,-0.0798,0.0,-89.3578,0.0,0.0,0.0,0.0558,0.0,0.0,6.9449,-0.0
78816,-106.6867,-4.8475,-0.0798,0.0,-89.3578,0.0,0.0,0.0,0.0558,0.0,0.0,6.9449,-0.0
78832,-106.6867,-4.8475,-0.0798,0.0,-89.3578,0.0,0.0,0.0,0.0558,0.0,0.0,6.9449,-0.0
78848,-106.6867,-4.8475,-0.0798,0.0,-89.3578,0.0,0.0,0.0,0.0558,0.0,0.0,6.9449,-0.0
78864,-106.6867,-4.8475,-0.0798,0.0,-89.3578,0.0,0.0,0.0,0.0558,0.0,0.0,6.9449,-0.0
78880,-106.6867,-4.8475,-0.0798,0.0,-89.3578,0.0,0.0,0.0,0.0558,0.0,0.0,6.9449,-0.0
78896,-106.6867,-4.8475,-0.0798,0.0,-89.3578,0.0,0.0,0.0,0.0558,0.0,0.0,6.9449,-0.0
78912,-106.6867,-4.8457,-0.0603,-0.0016,-89.3578,0.0,-0.0005,0.0408,0.2369,-0.0022,0.1975,0.8768,0.0002
78928,-106.6867,-4.8457,-0.0603,-0.0016,-89.3578,0.0,-0.0005,0.0408,0.2369,-0.0022,0.1975,0.8768,0.0002
78944,-106.6867,-4.8457,-0.0603,-0.0016,-89.3578,0.0,-0.0005,0.0408,0.2369,-0.0022,0.1975,0.8768,0.0002
78960,-106.6867,-4.8457,-0.0603,-0.0016,-89.3578,0.0,-0.0005,0.0408,0.2369,-0.0022,0.1975,0.8768,0.0002
78976,-106.6867,-4.8457,-0.0603,-0.0016,-89.3578,0.0,-0.0005,0.0408,0.2369,-0.0022,0.1975,0.8768,0.0002
78992,-106.6867,-4.8457,-0.0603,-0.0016,-89.3578,0.0,-0.0005,0.0408,0.2369,-0.0022,0.1975,0.8768,0.0002
79008,-106.6867,-4.8457,-0.0603,-0.0016,-89.3578,0.0,-0.0005,0.0408,0.2369,-0.0022,0.1975,0.8768,0.0002
79024,-106.6867,-4.8457,-0.0603,-0.0016,-89.3578,0.0,-0.0005,0.0408,0.2369,-0.0022,0.1975,0.8768,0.0002
79040,-106.6868,-4.8409,-0.0392,-0.0049,-89.3577,0.0,-0.0011,0.1024,0.1781,-0.0053,0.4744,-0.4526,0.0009
79056,-106.6868,-4.8409,-0.0392,-0.0049,-89.3577,0.0,-0.0011,0.1024,0.1781,-0.0053,0.4744,-0.4526,0.0009
79072,-106.6868,-4.8409,-0.0392,-0.0049,-89.3577,0.0,-0.0011,0.1024,0.1781,-0.0053,0.4744,-0.4526,0.0009
79088,-106.6868,-4.8409,-0.0392,-0.0049,-89.3577,0.0,-0.0011,0.1024,0.1781,-0.0053,0.4744,-0.4526,0.0009
79104,-106.6868,-4.8409,-0.0392,-0.0049,-89.3577,0.0,-0.0011,0.1024,0.1781,-0.0053,0.4744,-0.4526,0.0009
79120,-106.6868,-4.8409,-0.0392,-0.0049,-89.3577,0.0,-0.0011,0.1024,0.1781,-0.0053,0.4744,-0.4526,0.0009
79136,-106.6868,-4.8409,-0.0392,-0.0049,-89.3577,0.0,-0.0011,0.1024,0.1781,-0.0053,0.4744,-0.4526,0.0009
79152,-106.6872,-4.8031,-0.0258,-0.0308,-89.3581,0.0,-0.007,0.6229,0.1054,-0.0601,5.3655,-0.7499,-0.0076
79168,-106.6872,-4.8031,-0.0258,-0.0308,-89.3581,0.0,-0.007,0.6229,0.1054,-0.0601,5.3655,-0.7499,-0.0076
79184,-106.6872,-4.8031,-0.0258,-0.0308,-89.3581,0.0,-0.007,0.6229,0.1054,-0.0601,5.3655,-0.7499,-0.0076
79200,-106.6872,-4.8031,-0.0258,-0.0308,-89.3581,0.0,-0.007,0.6229,0.1054,-0.0601,5.3655,-0.7499,-0.0076
79216,-106.6872,-4.8031,-0.0258,-0.0308,-89.3581,0.0,-0.007,0.6229,0.1054,-0.0601,5.3655,-0.7499,-0.0076
79233,-106.6872,-4.8031,-0.0258,-0.0308,-89.3581,0.0,-0.007,0.6229,0.1054,-0.0601,5.3655,-0.7499,-0.0076
79248,-106.6881,-4.7192,-0.0182,-0.0487,-89.3625,-0.0,-0.0113,1.0129,0.0553,-0.0433,3.9457,-0.5062,-0.4549
79264,-106.6881,-4.7192,-0.0182,-0.0487,-89.3625,-0.0,-0.0113,1.0129,0.0553,-0.0433,3.9457,-0.5062,-0.4549
79280,-106.6881,-4.7192,-0.0182,-0.0487,-89.3625,-0.0,-0.0113,1.0129,0.0553,-0.0433,3.9457,-0.5062,-0.4549
79296,-106.6881,-4.7192,-0.0182,-0.0487,-89.3625,-0.0,-0.0113,1.0129,0.0553,-0.0433,3.9457,-0.5062,-0.4549
79312,-106.6881,-4.7192,-0.0182,-0.0487,-89.3625,-0.0,-0.0113,1.0129,0.0553,-0.0433,3.9457,-0.5062,-0.4549
79328,-106.6881,-4.7192,-0.0182,-0.0487,-89.3625,-0.0,-0.0113,1.0129,0.0553,-0.0433,3.9457,-0.5062,-0.4549
79344,-106.6898,-4.6202,-0.0141,-0.0414,-89.3013,0.0004,-0.0186,1.0599,0.0319,-0.0755,0.4864,-0.2425,-0.8802
79360,-106.6898,-4.6202,-0.0141,-0.0414,-89.3013,0.0004,-0.0186,1.0599,0.0319,-0.0755,0.4864,-0.2425,-0.8802
79376,-106.6898,-4.6202,-0.0141,-0.0414,-89.3013,0.0004,-0.0186,1.0599,0.0319,-0.0755,0.4864,-0.2425,-0.8802
79392,-106.6898,-4.6202,-0.0141,-0.0414,-89.3013,0.0004,-0.0186,1.0599,0.0319,-0.0755,0.4864,-0.2425,-0.8802
79408,-106.6898,-4.6202,-0.0141,-0.0414,-89.3013,0.0004,-0.0186,1.0599,0.0319,-0.0755,0.4864,-0.2425,-0.8802
79424,-106.6898,-4.6202,-0.0141,-0.0414,-89.3013,0.0004,-0.0186,1.0599,0.0319,-0.0755,0.4864,-0.2425,-0.8802
79440,-106.691,-4.5058,-0.0123,-0.0358,-89.3269,-0.0001,-0.0131,1.1852,0.0128,0.0589,1.3542,-0.2059,-0.3362
79456,-106.691,-4.5058,-0.0123,-0.0358,-89.3269,-0.0001,-0.0131,1.1852,0.0128,0.0589,1.3542,-0.2059,-0.3362
79472,-106.691,-4.5058,-0.0123,-0.0358,-89.3269,-0.0001,-0.0131,1.1852,0.0128,0.0589,1.3542,-0.2059,-0.3362
79488,-106.691,-4.5058,-0.0123,-0.0358,-89.3269,-0.0001,-0.0131,1.1852,0.0128,0.0589,1.3542,-0.2059,-0.3362
79504,-106.691,-4.5058,-0.0123,-0.0358,-89.3269,-0.0001,-0.0131,1.1852,0.0128,0.0589,1.3542,-0.2059,-0.3362
79522,-106.6921,-4.3854,-0.0116,-0.0283,-89.3554,-0.0003,-0.0142,1.3458,0.0055,-0.0113,1.7126,-0.0777,-1.0435
79536,-106.6921,-4.3854,-0.0116,-0.0283,-89.3554,-0.0003,-0.0142,1.3458,0.0055,-0.0113,1.7126,-0.0777,-1.0435
79552,-106.6921,-4.3854,-0.0116,-0.0283,-89.3554,-0.0003,-0.0142,1.3458,0.0055,-0.0113,1.7126,-0.0777,-1.0435
79568,-106.6921,-4.3854,-0.0116,-0.0283,-89.3554,-0.0003,-0.0142,1.3458,0.0055,-0.0113,1.7126,-0.0777,-1.0435
79584,-106.6921,-4.3854,-0.0116,-0.0283,-89.3554,-0.0003,-0.0142,1.3458,0.0055,-0.0113,1.7126,-0.0777,-1.0435
79600,-106.6921,-4.3854,-0.0116,-0.0283,-89.3554,-0.0003,-0.0142,1.3458,0.0055,-0.0113,1.7126,-0.0777,-1.0435
79616,-106.6944,-4.2245,-0.0112,-0.0393,-89.3016,0.0002,-0.0183,1.6304,0.0025,-0.0422,2.9024,-0.0316,-0.1753
79632,-106.6944,-4.2245,-0.0112,-0.0393,-89.3016,0.0002,-0.0183,1.6304,0.0025,-0.0422,2.9024,-0.0316,-0.1753
79648,-106.6944,-4.2245,-0.0112,-0.0393,-89.3016,0.0002,-0.0183,1.6304,0.0025,-0.0422,2.9024,-0.0316,-0.1753
79664,-106.6944,-4.2245,-0.0112,-0.0393,-89.3016,0.0002,-0.0183,1.6304,0.0025,-0.0422,2.9024,-0.0316,-0.1753
79680,-106.6944,-4.2245,-0.0112,-0.0393,-89.3016,0.0002,-0.0183,1.6304,0.0025,-0.0422,2.9024,-0.0316,-0.1753
79696,-106.6944,-4.2245,-0.0112,-0.0393,-89.3016,0.0002,-0.0183,1.6304,0.0025,-0.0422,2.9024,-0.0316,-0.1753
79713,-106.697,-4.0188,-0.0108,-0.063,-89.2988,0.0002,-0.0269,2.2634,0.0011,-0.0898,6.5853,-0.0136,-3.0921
79728,-106.697,-4.0188,-0.0108,-0.063,-89.2988,0.0002,-0.0269,2.2634,0.0011,-0.0898,6.5853,-0.0136,-3.0921
79744,-106.697,-4.0188,-0.0108,-0.063,-89.2988,0.0002,-0.0269,2.2634,0.0011,-0.0898,6.5853,-0.0136,-3.0921
79760,-106.697,-4.0188,-0.0108,-0.063,-89.2988,0.0002,-0.0269,2.2634,0.0011,-0.0898,6.5853,-0.0136,-3.0921
79776,-106.697,-4.0188,-0.0108,-0.063,-89.2988,0.0002,-0.0269,2.2634,0.0011,-0.0898,6.5853,-0.0136,-3.0921
79792,-106.697,-4.0188,-0.0108,-0.063,-89.2988,0.0002,-0.0269,2.2634,0.0011,-0.0898,6.5853,-0.0136,-3.0921
79808,-106.6991,-3.7749,-0.0107,-0.0696,-89.3901,-0.0008,-0.0288,2.8508,0.0005,-0.0203,6.2964,-0.0064,-0.895
79824,-106.6991,-3.7749,-0.0107,-0.0696,-89.3901,-0.0008,-0.0288,2.8508,0.0005,-0.0203,6.2964,-0.0064,-0.895
79840,-106.6991,-3.7749,-0.0107,-0.0696,-89.3901,-0.0008,-0.0288,2.8508,0.0005,-0.0203,6.2964,-0.0064,-0.895
79856,-106.6991,-3.7749,-0.0107,-0.0696,-89.3901,-0.0008,-0.0288,2.8508,0.0005,-0.0203,6.2964,-0.0064,-0.895
79872,-106.6991,-3.7749,-0.0107,-0.0696,-89.3901,-0.0008,-0.0288,2.8508,0.0005,-0.0203,6.2964,-0.0064,-0.895
79888,-106.6991,-3.7749,-0.0107,-0.0696,-89.3901,-0.0008,-0.0288,2.8508,0.0005,-0.0203,6.2964,-0.0064,-0.895
79906,-106.7014,-3.481,-0.0106,-0.0773,-89.4662,-0.0015,-0.0305,3.2716,0.0003,-0.0174,4.5017,-0.0028,-1.617
79920,-106.7014,-3.481,-0.0106,-0.0773,-89.4662,-0.0015,-0.0305,3.2716,0.0003,-0.0174,4.5017,-0.0028,-1.617
79936,-106.7014,-3.481,-0.0106,-0.0773,-89.4662,-0.0015,-0.0305,3.2716,0.0003,-0.0174,4.5017,-0.0028,-1.617
79952,-106.7014,-3.481,-0.0106,-0.0773,-89.4662,-0.0015,-0.0305,3.2716,0.0003,-0.0174,4.5017,-0.0028,-1.617
79968,-106.7014,-3.481,-0.0106,-0.0773,-89.4662,-0.0015,-0.0305,3.2716,0.0003,-0.0174,4.5017,-0.0028,-1.617
79984,-106.7014,-3.481,-0.0106,-0.0773,-89.4662,-0.0015,-0.0305,3.2716,0.0003,-0.0174,4.5017,-0.0028,-1.617
80000,-106.7039,-3.1294,-0.0106,-0.0779,-89.5366,-0.002,-0.0298,3.8021,0.0001,0.0067,5.4092,-0.0014,-0.9326
80016,-106.7039,-3.1294,-0.0106,-0.0779,-89.5366,-0.002,-0.0298,3.8021,0.0001,0.0067,5.4092,-0.0014,-0.9326
80032,-106.7039,-3.1294,-0.0106,-0.0779,-89.5366,-0.002,-0.0298,3.8021,0.0001,0.0067,5.4092,-0.0014,-0.9326
80048,-106.7039,-3.1294,-0.0106,-0.0779,-89.5366,-0.002,-0.0298,3.8021,0.0001,0.0067,5.4092,-0.0014,-0.9326
80064,-106.7039,-3.1294,-0.0106,-0.0779,-89.5366,-0.002,-0.0298,3.8021,0.0001,0.0067,5.4092,-0.0014,-0.9326
80080,-106.7039,-3.1294,-0.0106,-0.0779,-89.5366,-0.002,-0.0298,3.8021,0.0001,0.0067,5.4092,-0.0014,-0.9326
80096,-106.7072,-2.7223,-0.0105,-0.0855,-89.5392,-0.0014,-0.0348,4.3423,0.0001,-0.0511,5.5211,-0.0009,-0.4716
80112,-106.7072,-2.7223,-0.0105,-0.0855,-89.5392,-0.0014,-0.0348,4.3423,0.0001,-0.0511,5.5211,-0.0009,-0.4716
80128,-106.7072,-2.7223,-0.0105,-0.0855,-89.5392,-0.0014,-0.0348,4.3423,0.0001,-0.0511,5.5211,-0.0009,-0.4716
80144,-106.7072,-2.7223,-0.0105,-0.0855,-89.5392,-0.0014,-0.0348,4.3423,0.0001,-0.0511,5.5211,-0.0009,-0.4716
80160,-106.7072,-2.7223,-0.0105,-0.0855,-89.5392,-0.0014,-0.0348,4.3423,0.0001,-0.0511,5.5211,-0.0009,-0.4716
80176,-106.7072,-2.7223,-0.0105,-0.0855,-89.5392,-0.0014,-0.0348,4.3423,0.0001,-0.0511,5.5211,-0.0009,-0.4716
80193,-106.7107,-2.2703,-0.0104,-0.098,-89.5473,-0.0009,-0.0405,5.0729,0.0,-0.0604,7.8016,-0.0004,-0.3152
80208,-106.7107,-2.2703,-0.0104,-0.098,-89.5473,-0.0009,-0.0405,5.0729,0.0,-0.0604,7.8016,-0.0004,-0.3152
80224,-106.7107,-2.2703,-0.0104,-0.098,-89.5473,-0.0009,-0.0405,5.0729,0.0,-0.0604,7.8016,-0.0004,-0.3152
80240,-106.7107,-2.2703,-0.0104,-0.098,-89.5473,-0.0009,-0.0405,5.0729,0.0,-0.0604,7.8016,-0.0004,-0.3152
80256,-106.7107,-2.2703,-0.0104,-0.098,-89.5473,-0.0009,-0.0405,5.0729,0.0,-0.0604,7.8016,-0.0004,-0.3152
80272,-106.7107,-2.2703,-0.0104,-0.098,-89.5473,-0.0009,-0.0405,5.0729,0.0,-0.0604,7.8016,-0.0004,-0.3152
80288,-106.7107,-2.2703,-0.0104,-0.098,-89.5473,-0.0009,-0.0405,5.0729,0.0,-0.0604,7.8016,-0.0004,-0.3152
80304,-106.7154,-1.7297,-0.0104,-0.0963,-89.5117,-0.0001,-0.0468,5.6044,0.0,-0.0627,5.295,-0.0001,0.5608
80320,-106.7154,-1.7297,-0.0104,-0.0963,-89.5117,-0.0001,-0.0468,5.6044,0.0,-0.0627,5.295,-0.0001,0.5608
80336,-106.7154,-1.7297,-0.0104,-0.0963,-89.5117,-0.0001,-0.0468,5.6044,0.0,-0.0627,5.295,-0.0001,0.5608
80352,-106.7154,-1.7297,-0.0104,-0.0963,-89.5117,-0.0001,-0.0468,5.6044,0.0,-0.0627,5.295,-0.0001,0.5608
80368,-106.7154,-1.7297,-0.0104,-0.0963,-89.5117,-0.0001,-0.0468,5.6044,0.0,-0.0627,5.295,-0.0001,0.5608
80384,-106.7154,-1.7297,-0.0104,-0.0963,-89.5117,-0.0001,-0.0468,5.6044,0.0,-0.0627,5.295,-0.0001,0.5608
80400,-106.72,-1.1532,-0.0104,-0.101,-89.5332,-0.0001,-0.0516,6.2959,0.0,-0.0505,7.2136,-0.0001,-0.2465
80416,-106.72,-1.1532,-0.0104,-0.101,-89.5332,-0.0001,-0.0516,6.2959,0.0,-0.0505,7.2136,-0.0001,-0.2465
80432,-106.72,-1.1532,-0.0104,-0.101,-89.5332,-0.0001,-0.0516,6.2959,0.0,-0.0505,7.2136,-0.0001,-0.2465
80448,-106.72,-1.1532,-0.0104,-0.101,-89.5332,-0.0001,-0.0516,6.2959,0.0,-0.0505,7.2136,-0.0001,-0.2465
80464,-106.72,-1.1532,-0.0104,-0.101,-89.5332,-0.0001,-0.0516,6.2959,0.0,-0.0505,7.2136,-0.0001,-0.2465
80482,-106.7253,-0.5253,-0.0103,-0.1171,-89.5238,-0.0,-0.0594,7.1631,-0.0,-0.0845,9.3802,-0.0003,0.1464
80496,-106.7253,-0.5253,-0.0103,-0.1171,-89.5238,-0.0,-0.0594,7.1631,-0.0,-0.0845,9.3802,-0.0003,0.1464
80512,-106.7253,-0.5253,-0.0103,-0.1171,-89.5238,-0.0,-0.0594,7.1631,-0.0,-0.0845,9.3802,-0.0003,0.1464
80528,-106.7253,-0.5253,-0.0103,-0.1171,-89.5238,-0.0,-0.0594,7.1631,-0.0,-0.0845,9.3802,-0.0003,0.1464
80544,-106.7253,-0.5253,-0.0103,-0.1171,-89.5238,-0.0,-0.0594,7.1631,-0.0,-0.0845,9.3802,-0.0003,0.1464
80560,-106.7253,-0.5253,-0.0103,-0.1171,-89.5238,-0.0,-0.0594,7.1631,-0.0,-0.0845,9.3802,-0.0003,0.1464
80577,-106.731,0.1775,-0.0102,-0.1246,-89.5295,-0.0001,-0.0648,7.8562,0.0,-0.0584,7.4861,0.0002,-0.1813
80592,-106.731,0.1775,-0.0102,-0.1246,-89.5295,-0.0001,-0.0648,7.8562,0.0,-0.0584,7.4861,0.0002,-0.1813
80608,-106.731,0.1775,-0.0102,-0.1246,-89.5295,-0.0001,-0.0648,7.8562,0.0,-0.0584,7.4861,0.0002,-0.1813
80624,-106.731,0.1775,-0.0102,-0.1246,-89.5295,-0.0001,-0.0648,7.8562,0.0,-0.0584,7.4861,0.0002,-0.1813
80640,-106.731,0.1775,-0.0102,-0.1246,-89.5295,-0.0001,-0.0648,7.8562,0.0,-0.0584,7.4861,0.0002,-0.1813
80656,-106.731,0.1775,-0.0102,-0.1246,-89.5295,-0.0001,-0.0648,7.8562,0.0,-0.0584,7.4861,0.0002,-0.1813
80673,-106.7377,0.9798,-0.0103,-0.1132,-89.5217,-0.0,-0.0695,8.3902,-0.0,-0.048,5.4407,-0.0001,0.2881
80688,-106.7377,0.9798,-0.0103,-0.1132,-89.5217,-0.0,-0.0695,8.3902,-0.0,-0.048,5.4407,-0.0001,0.2881
80704,-106.7377,0.9798,-0.0103,-0.1132,-89.5217,-0.0,-0.0695,8.3902,-0.0,-0.048,5.4407,-0.0001,0.2881
80720,-106.7377,0.9798,-0.0103,-0.1132,-89.5217,-0.0,-0.0695,8.3902,-0.0,-0.048,5.4407,-0.0001,0.2881
80736,-106.7377,0.9798,-0.0103,-0.1132,-89.5217,-0.0,-0.0695,8.3902,-0.0,-0.048,5.4407,-0.0001,0.2881
80752,-106.7377,0.9798,-0.0103,-0.1132,-89.5217,-0.0,-0.0695,8.3902,-0.0,-0.048,5.4407,-0.0001,0.2881
80769,-106.7446,1.82,-0.0104,-0.1054,-89.5276,0.0,-0.0741,8.9668,0.0,-0.0471,5.9895,0.0002,-0.0645
80784,-106.7446,1.82,-0.0104,-0.1054,-89.5276,0.0,-0.0741,8.9668,0.0,-0.0471,5.9895,0.0002,-0.0645
80800,-106.7446,1.82,-0.0104,-0.1054,-89.5276,0.0,-0.0741,8.9668,0.0,-0.0471,5.9895,0.0002,-0.0645
80816,-106.7446,1.82,-0.0104,-0.1054,-89.5276,0.0,-0.0741,8.9668,0.0,-0.0471,5.9895,0.0002,-0.0645
80832,-106.7446,1.82,-0.0104,-0.1054,-89.5276,0.0,-0.0741,8.9668,0.0,-0.0471,5.9895,0.0002,-0.0645
80848,-106.7446,1.82,-0.0104,-0.1054,-89.5276,0.0,-0.0741,8.9668,0.0,-0.0471,5.9895,0.0002,-0.0645
80865,-106.752,2.7065,-0.0104,-0.1009,-89.5265,-0.0,-0.0787,9.5166,0.0,-0.048,5.7579,-0.0001,0.0006
80880,-106.752,2.7065,-0.0104,-0.1009,-89.5265,-0.0,-0.0787,9.5166,0.0,-0.048,5.7579,-0.0001,0.0006
80896,-106.752,2.7065,-0.0104,-0.1009,-89.5265,-0.0,-0.0787,9.5166,0.0,-0.048,5.7579,-0.0001,0.0006
80912,-106.752,2.7065,-0.0104,-0.1009,-89.5265,-0.0,-0.0787,9.5166,0.0,-0.048,5.7579,-0.0001,0.0006
80928,-106.752,2.7065,-0.0104,-0.1009,-89.5265,-0.0,-0.0787,9.5166,0.0,-0.048,5.7579,-0.0001,0.0006
80944,-106.752,2.7065,-0.0104,-0.1009,-89.5265,-0.0,-0.0787,9.5166,0.0,-0.048,5.7579,-0.0001,0.0006
80960,-106.7599,3.6743,-0.0105,-0.0943,-89.5265,-0.0,-0.0827,10.003,-0.0,-0.0407,4.9271,-0.0002,0.0
80976,-106.7599,3.6743,-0.0105,-0.0943,-89.5265,-0.0,-0.0827,10.003,-0.0,-0.0407,4.9271,-0.0002,0.0
80992,-106.7599,3.6743,-0.0105,-0.0943,-89.5265,-0.0,-0.0827,10.003,-0.0,-0.0407,4.9271,-0.0002,0.0
81008,-106.7599,3.6743,-0.0105,-0.0943,-89.5265,-0.0,-0.0827,10.003,-0.0,-0.0407,4.9271,-0.0002,0.0
81024,-106.7599,3.6743,-0.0105,-0.0943,-89.5265,-0.0,-0.0827,10.003,-0.0,-0.0407,4.9271,-0.0002,0.0
81040,-106.7599,3.6743,-0.0105,-0.0943,-89.5265,-0.0,-0.0827,10.003,-0.0,-0.0407,4.9271,-0.0002,0.0
81056,-106.7681,4.6658,-0.0105,-0.0879,-89.5265,0.0,-0.0865,10.4689,0.0,-0.0399,4.8252,0.0001,0.0001
81072,-106.7681,4.6658,-0.0105,-0.0879,-89.5265,0.0,-0.0865,10.4689,0.0,-0.0399,4.8252,0.0001,0.0001
81088,-106.7681,4.6658,-0.0105,-0.0879,-89.5265,0.0,-0.0865,10.4689,0.0,-0.0399,4.8252,0.0001,0.0001
81104,-106.7681,4.6658,-0.0105,-0.0879,-89.5265,0.0,-0.0865,10.4689,0.0,-0.0399,4.8252,0.0001,0.0001
81120,-106.7681,4.6658,-0.0105,-0.0879,-89.5265,0.0,-0.0865,10.4689,0.0,-0.0399,4.8252,0.0001,0.0001
81136,-106.7681,4.6658,-0.0105,-0.0879,-89.5265,0.0,-0.0865,10.4689,0.0,-0.0399,4.8252,0.0001,0.0001
81152,-106.7681,4.6658,-0.0105,-0.0879,-89.5265,0.0,-0.0865,10.4689,0.0,-0.0399,4.8252,0.0001,0.0001
81168,-106.7769,5.7253,-0.0106,-0.082,-89.5265,0.0,-0.0901,10.8981,0.0,-0.0359,4.342,0.0,0.0001
81184,-106.7769,5.7253,-0.0106,-0.082,-89.5265,0.0,-0.0901,10.8981,0.0,-0.0359,4.342,0.0,0.0001
81200,-106.7769,5.7253,-0.0106,-0.082,-89.5265,0.0,-0.0901,10.8981,0.0,-0.0359,4.342,0.0,0.0001
81216,-106.7769,5.7253,-0.0106,-0.082,-89.5265,0.0,-0.0901,10.8981,0.0,-0.0359,4.342,0.0,0.0001
81232,-106.7769,5.7253,-0.0106,-0.082,-89.5265,0.0,-0.0901,10.8981,0.0,-0.0359,4.342,0.0,0.0001
81248,-106.7769,5.7253,-0.0106,-0.082,-89.5265,0.0,-0.0901,10.8981,0.0,-0.0359,4.342,0.0,0.0001
81264,-106.7856,6.7793,-0.0106,-0.0773,-89.5265,0.0,-0.0934,11.3037,-0.0,-0.0354,4.2818,-0.0001,0.0001
81280,-106.7856,6.7793,-0.0106,-0.0773,-89.5265,0.0,-0.0934,11.3037,-0.0,-0.0354,4.2818,-0.0001,0.0001
81296,-106.7856,6.7793,-0.0106,-0.0773,-89.5265,0.0,-0.0934,11.3037,-0.0,-0.0354,4.2818,-0.0001,0.0001
81312,-106.7856,6.7793,-0.0106,-0.0773,-89.5265,0.0,-0.0934,11.3037,-0.0,-0.0354,4.2818,-0.0001,0.0001
81328,-106.7856,6.7793,-0.0106,-0.0773,-89.5265,0.0,-0.0934,11.3037,-0.0,-0.0354,4.2818,-0.0001,0.0001
81344,-106.7856,6.7793,-0.0106,-0.0773,-89.5265,0.0,-0.0934,11.3037,-0.0,-0.0354,4.2818,-0.0001,0.0001
81360,-106.7946,7.873,-0.0106,-0.0733,-89.5265,0.0,-0.0965,11.6825,0.0,-0.033,3.9899,0.0001,0.0002
81376,-106.7946,7.873,-0.0106,-0.0733,-89.5265,0.0,-0.0965,11.6825,0.0,-0.033,3.9899,0.0001,0.0002
81392,-106.7946,7.873,-0.0106,-0.0733,-89.5265,0.0,-0.0965,11.6825,0.0,-0.033,3.9899,0.0001,0.0002
81408,-106.7946,7.873,-0.0106,-0.0733,-89.5265,0.0,-0.0965,11.6825,0.0,-0.033,3.9899,0.0001,0.0002
81424,-106.7946,7.873,-0.0106,-0.0733,-89.5265,0.0,-0.0965,11.6825,0.0,-0.033,3.9899,0.0001,0.0002
81440,-106.7946,7.873,-0.0106,-0.0733,-89.5265,0.0,-0.0965,11.6825,0.0,-0.033,3.9899,0.0001,0.0002
81456,-106.8043,9.0423,-0.0107,-0.0683,-89.5265,-0.0,-0.0995,12.035,-0.0,-0.0296,3.5812,-0.0002,0.0004
81472,-106.8043,9.0423,-0.0107,-0.0683,-89.5265,-0.0,-0.0995,12.035,-0.0,-0.0296,3.5812,-0.0002,0.0004
81488,-106.8043,9.0423,-0.0107,-0.0683,-89.5265,-0.0,-0.0995,12.035,-0.0,-0.0296,3.5812,-0.0002,0.0004
81504,-106.8043,9.0423,-0.0107,-0.0683,-89.5265,-0.0,-0.0995,12.035,-0.0,-0.0296,3.5812,-0.0002,0.0004
81520,-106.8043,9.0423,-0.0107,-0.0683,-89.5265,-0.0,-0.0995,12.035,-0.0,-0.0296,3.5812,-0.0002,0.0004
81538,-106.8137,10.1732,-0.0107,-0.0637,-89.5265,0.0,-0.102,12.3449,-0.0,-0.0276,3.3455,0.0,0.0002
81552,-106.8137,10.1732,-0.0107,-0.0637,-89.5265,0.0,-0.102,12.3449,-0.0,-0.0276,3.3455,0.0,0.0002
81568,-106.8137,10.1732,-0.0107,-0.0637,-89.5265,0.0,-0.102,12.3449,-0.0,-0.0276,3.3455,0.0,0.0002
81584,-106.8137,10.1732,-0.0107,-0.0637,-89.5265,0.0,-0.102,12.3449,-0.0,-0.0276,3.3455,0.0,0.0002
81600,-106.8137,10.1732,-0.0107,-0.0637,-89.5265,0.0,-0.102,12.3449,-0.0,-0.0276,3.3455,0.0,0.0002
81616,-106.8137,10.1732,-0.0107,-0.0637,-89.5265,0.0,-0.102,12.3449,-0.0,-0.0276,3.3455,0.0,0.0002
81632,-106.8137,10.1732,-0.0107,-0.0637,-89.5265,0.0,-0.102,12.3449,-0.0,-0.0276,3.3455,0.0,0.0002
81648,-106.824,11.4186,-0.0107,-0.059,-89.5265,-0.0,-0.1045,12.6504,0.0,-0.0254,3.0705,0.0001,0.0006
81664,-106.824,11.4186,-0.0107,-0.059,-89.5265,-0.0,-0.1045,12.6504,0.0,-0.0254,3.0705,0.0001,0.0006
81680,-106.824,11.4186,-0.0107,-0.059,-89.5265,-0.0,-0.1045,12.6504,0.0,-0.0254,3.0705,0.0001,0.0006
81696,-106.824,11.4186,-0.0107,-0.059,-89.5265,-0.0,-0.1045,12.6504,0.0,-0.0254,3.0705,0.0001,0.0006
81728,-106.824,11.4186,-0.0107,-0.059,-89.5265,-0.0,-0.1045,12.6504,0.0,-0.0254,3.0705,0.0001,0.0006
81744,-106.8613,12.6363,-0.0108,-0.0446,-90.8076,0.117,-0.9006,12.7044,0.001,-8.3104,0.5642,0.0101,-29.1814
81760,-106.8613,12.6363,-0.0108,-0.0446,-90.8076,0.117,-0.9006,12.7044,0.001,-8.3104,0.5642,0.0101,-29.1814
81776,-106.8613,12.6363,-0.0108,-0.0446,-90.8076,0.117,-0.9006,12.7044,0.001,-8.3104,0.5642,0.0101,-29.1814
81792,-106.8613,12.6363,-0.0108,-0.0446,-90.8076,0.117,-0.9006,12.7044,0.001,-8.3104,0.5642,0.0101,-29.1814
81808,-106.8613,12.6363,-0.0108,-0.0446,-90.8076,0.117,-0.9006,12.7044,0.001,-8.3104,0.5642,0.0101,-29.1814
81824,-106.8613,12.6363,-0.0108,-0.0446,-90.8076,0.117,-0.9006,12.7044,0.001,-8.3104,0.5642,0.0101,-29.1814
81840,-106.9656,13.8828,-0.0109,-0.0078,-96.3104,0.2578,-1.8583,12.4635,0.0011,-9.6516,-2.4277,0.0015,-79.0231
81856,-106.9656,13.8828,-0.0109,-0.0078,-96.3104,0.2578,-1.8583,12.4635,0.0011,-9.6516,-2.4277,0.0015,-79.0231
81872,-106.9656,13.8828,-0.0109,-0.0078,-96.3104,0.2578,-1.8583,12.4635,0.0011,-9.6516,-2.4277,0.0015,-79.0231
81888,-106.9656,13.8828,-0.0109,-0.0078,-96.3104,0.2578,-1.8583,12.4635,0.0011,-9.6516,-2.4277,0.0015,-79.0231
81904,-106.9656,13.8828,-0.0109,-0.0078,-96.3104,0.2578,-1.8583,12.4635,0.0011,-9.6516,-2.4277,0.0015,-79.0231
81920,-106.9656,13.8828,-0.0109,-0.0078,-96.3104,0.2578,-1.8583,12.4635,0.0011,-9.6516,-2.4277,0.0015,-79.0231
81936,-107.1008,15.0854,-0.0111,0.0217,-107.2198,0.2551,-2.3037,12.1996,-0.0,-4.499,-2.6664,-0.0117,-136.5518
81952,-107.1008,15.0854,-0.0111,0.0217,-107.2198,0.2551,-2.3037,12.1996,-0.0,-4.499,-2.6664,-0.0117,-136.5518
81968,-107.1008,15.0854,-0.0111,0.0217,-107.2198,0.2551,-2.3037,12.1996,-0.0,-4.499,-2.6664,-0.0117,-136.5518
81984,-107.1008,15.0854,-0.0111,0.0217,-107.2198,0.2551,-2.3037,12.1996,-0.0,-4.499,-2.6664,-0.0117,-136.5518
82000,-107.1008,15.0854,-0.0111,0.0217,-107.2198,0.2551,-2.3037,12.1996,-0.0,-4.499,-2.6664,-0.0117,-136.5518
82016,-107.1008,15.0854,-0.0111,0.0217,-107.2198,0.2551,-2.3037,12.1996,-0.0,-4.499,-2.6664,-0.0117,-136.5518
82033,-107.2008,16.1818,-0.0111,0.0077,-122.8954,0.115,-1.8945,12.1111,-0.0012,4.3352,-0.9377,-0.0121,-187.7942
82048,-107.2008,16.1818,-0.0111,0.0077,-122.8954,0.115,-1.8945,12.1111,-0.0012,4.3352,-0.9377,-0.0121,-187.7942
82064,-107.2008,16.1818,-0.0111,0.0077,-122.8954,0.115,-1.8945,12.1111,-0.0012,4.3352,-0.9377,-0.0121,-187.7942
82080,-107.2008,16.1818,-0.0111,0.0077,-122.8954,0.115,-1.8945,12.1111,-0.0012,4.3352,-0.9377,-0.0121,-187.7942
82096,-107.2008,16.1818,-0.0111,0.0077,-122.8954,0.115,-1.8945,12.1111,-0.0012,4.3352,-0.9377,-0.0121,-187.7942
82112,-107.2008,16.1818,-0.0111,0.0077,-122.8954,0.115,-1.8945,12.1111,-0.0012,4.3352,-0.9377,-0.0121,-187.7942
82129,-107.1922,17.2383,-0.0105,-0.0843,-142.1597,-0.1476,-0.1568,12.0552,0.0007,18.2641,-0.5876,0.0197,-211.2322
82144,-107.1922,17.2383,-0.0105,-0.0843,-142.1597,-0.1476,-0.1568,12.0552,0.0007,18.2641,-0.5876,0.0197,-211.2322
82160,-107.1922,17.2383,-0.0105,-0.0843,-142.1597,-0.1476,-0.1568,12.0552,0.0007,18.2641,-0.5876,0.0197,-211.2322
82176,-107.1922,17.2383,-0.0105,-0.0843,-142.1597,-0.1476,-0.1568,12.0552,0.0007,18.2641,-0.5876,0.0197,-211.2322
82192,-107.1922,17.2383,-0.0105,-0.0843,-142.1597,-0.1476,-0.1568,12.0552,0.0007,18.2641,-0.5876,0.0197,-211.2322
82208,-107.1922,17.2383,-0.0105,-0.0843,-142.1597,-0.1476,-0.1568,12.0552,0.0007,18.2641,-0.5876,0.0197,-211.2322
82225,-107.0182,18.2283,-0.0095,-0.1995,-163.0338,-0.3969,2.093,11.3633,0.0021,23.4373,-7.2071,0.0148,-221.7068
82240,-107.0182,18.2283,-0.0095,-0.1995,-163.0338,-0.3969,2.093,11.3633,0.0021,23.4373,-7.2071,0.0148,-221.7068
82256,-107.0182,18.2283,-0.0095,-0.1995,-163.0338,-0.3969,2.093,11.3633,0.0021,23.4373,-7.2071,0.0148,-221.7068
82272,-107.0182,18.2283,-0.0095,-0.1995,-163.0338,-0.3969,2.093,11.3633,0.0021,23.4373,-7.2071,0.0148,-221.7068
82288,-107.0182,18.2283,-0.0095,-0.1995,-163.0338,-0.3969,2.093,11.3633,0.0021,23.4373,-7.2071,0.0148,-221.7068
82304,-107.0182,18.2283,-0.0095,-0.1995,-163.0338,-0.3969,2.093,11.3633,0.0021,23.4373,-7.2071,0.0148,-221.7068
82336,-106.6804,19.1016,-0.0086,-0.2866,174.7535,-0.5773,4.1949,9.8395,0.0016,21.4801,-15.5733,-0.0055,-232.0002
82352,-106.6804,19.1016,-0.0086,-0.2866,174.7535,-0.5773,4.1949,9.8395,0.0016,21.4801,-15.5733,-0.0055,-232.0002
82368,-106.6804,19.1016,-0.0086,-0.2866,174.7535,-0.5773,4.1949,9.8395,0.0016,21.4801,-15.5733,-0.0055,-232.0002
82384,-106.6804,19.1016,-0.0086,-0.2866,174.7535,-0.5773,4.1949,9.8395,0.0016,21.4801,-15.5733,-0.0055,-232.0002
82400,-106.6804,19.1016,-0.0086,-0.2866,174.7535,-0.5773,4.1949,9.8395,0.0016,21.4801,-15.5733,-0.0055,-232.0002
82417,-106.2784,19.763,-0.0083,-0.3114,152.4891,-0.7547,4.8255,7.4623,0.0017,6.6038,-24.8925,0.0011,-231.1443
82432,-106.2784,19.763,-0.0083,-0.3114,152.4891,-0.7547,4.8255,7.4623,0.0017,6.6038,-24.8925,0.0011,-231.1443
82448,-106.2784,19.763,-0.0083,-0.3114,152.4891,-0.7547,4.8255,7.4623,0.0017,6.6038,-24.8925,0.0011,-231.1443
82464,-106.2784,19.763,-0.0083,-0.3114,152.4891,-0.7547,4.8255,7.4623,0.0017,6.6038,-24.8925,0.0011,-231.1443
82480,-106.2784,19.763,-0.0083,-0.3114,152.4891,-0.7547,4.8255,7.4623,0.0017,6.6038,-24.8925,0.0011,-231.1443
82496,-106.2784,19.763,-0.0083,-0.3114,152.4891,-0.7547,4.8255,7.4623,0.0017,6.6038,-24.8925,0.0011,-231.1443
82513,-106.0003,20.2837,-0.0091,-0.199,132.913,-0.881,2.9133,6.4149,0.0031,-20.369,-11.1568,0.0157,-189.617
82528,-106.0003,20.2837,-0.0091,-0.199,132.913,-0.881,2.9133,6.4149,0.0031,-20.369,-11.1568,0.0157,-189.617
82544,-106.0003,20.2837,-0.0091,-0.199,132.913,-0.881,2.9133,6.4149,0.0031,-20.369,-11.1568,0.0157,-189.617
82560,-106.0003,20.2837,-0.0091,-0.199,132.913,-0.881,2.9133,6.4149,0.0031,-20.369,-11.1568,0.0157,-189.617
82576,-106.0003,20.2837,-0.0091,-0.199,132.913,-0.881,2.9133,6.4149,0.0031,-20.369,-11.1568,0.0157,-189.617
82594,-105.9352,20.8137,-0.0102,-0.0264,118.3927,-0.8872,0.7999,6.914,0.0002,-23.579,5.568,-0.0332,-136.6466
82608,-105.9352,20.8137,-0.0102,-0.0264,118.3927,-0.8872,0.7999,6.914,0.0002,-23.579,5.568,-0.0332,-136.6466
82624,-105.9352,20.8137,-0.0102,-0.0264,118.3927,-0.8872,0.7999,6.914,0.0002,-23.579,5.568,-0.0332,-136.6466
82640,-105.9352,20.8137,-0.0102,-0.0264,118.3927,-0.8872,0.7999,6.914,0.0002,-23.579,5.568,-0.0332,-136.6466
82656,-105.9352,20.8137,-0.0102,-0.0264,118.3927,-0.8872,0.7999,6.914,0.0002,-23.579,5.568,-0.0332,-136.6466
82672,-105.9352,20.8137,-0.0102,-0.0264,118.3927,-0.8872,0.7999,6.914,0.0002,-23.579,5.568,-0.0332,-136.6466
82689,-105.9951,21.456,-0.0113,0.1093,108.7836,-0.7188,-0.2193,7.9649,-0.0015,-11.4386,11.7931,-0.0185,-93.4396
82704,-105.9951,21.456,-0.0113,0.1093,108.7836,-0.7188,-0.2193,7.9649,-0.0015,-11.4386,11.7931,-0.0185,-93.4396
82720,-105.9951,21.456,-0.0113,0.1093,108.7836,-0.7188,-0.2193,7.9649,-0.0015,-11.4386,11.7931,-0.0185,-93.4396
82736,-105.9951,21.456,-0.0113,0.1093,108.7836,-0.7188,-0.2193,7.9649,-0.0015,-11.4386,11.7931,-0.0185,-93.4396
82752,-105.9951,21.456,-0.0113,0.1093,108.7836,-0.7188,-0.2193,7.9649,-0.0015,-11.4386,11.7931,-0.0185,-93.4396
82768,-105.9951,21.456,-0.0113,0.1093,108.7836,-0.7188,-0.2193,7.9649,-0.0015,-11.4386,11.7931,-0.0185,-93.4396
82786,-106.0451,22.2487,-0.0119,0.1502,100.0502,-0.3093,0.4726,8.672,-0.0032,7.1966,7.3547,-0.0182,-89.0966
82800,-106.0451,22.2487,-0.0119,0.1502,100.0502,-0.3093,0.4726,8.672,-0.0032,7.1966,7.3547,-0.0182,-89.0966
82816,-106.0451,22.2487,-0.0119,0.1502,100.0502,-0.3093,0.4726,8.672,-0.0032,7.1966,7.3547,-0.0182,-89.0966
82848,-106.0451,22.2487,-0.0119,0.1502,100.0502,-0.3093,0.4726,8.672,-0.0032,7.1966,7.3547,-0.0182,-89.0966
82864,-106.0451,22.2487,-0.0119,0.1502,100.0502,-0.3093,0.4726,8.672,-0.0032,7.1966,7.3547,-0.0182,-89.0966
82881,-106.0472,23.0976,-0.0121,0.1458,93.3477,-0.1516,0.225,9.1948,-0.0018,-2.6046,5.4993,0.0146,-45.5851
82896,-106.0472,23.0976,-0.0121,0.1458,93.3477,-0.1516,0.225,9.1948,-0.0018,-2.6046,5.4993,0.0146,-45.5851
82912,-106.0472,23.0976,-0.0121,0.1458,93.3477,-0.1516,0.225,9.1948,-0.0018,-2.6046,5.4993,0.0146,-45.5851
82928,-106.0472,23.0976,-0.0121,0.1458,93.3477,-0.1516,0.225,9.1948,-0.0018,-2.6046,5.4993,0.0146,-45.5851
82944,-106.0472,23.0976,-0.0121,0.1458,93.3477,-0.1516,0.225,9.1948,-0.0018,-2.6046,5.4993,0.0146,-45.5851
82960,-106.0472,23.0976,-0.0121,0.1458,93.3477,-0.1516,0.225,9.1948,-0.0018,-2.6046,5.4993,0.0146,-45.5851
82977,-106.0674,23.9827,-0.0119,0.1106,91.0955,-0.1678,-0.1358,9.4043,-0.0,-3.7972,2.2057,0.019,-11.0579
82992,-106.0674,23.9827,-0.0119,0.1106,91.0955,-0.1678,-0.1358,9.4043,-0.0,-3.7972,2.2057,0.019,-11.0579
83008,-106.0674,23.9827,-0.0119,0.1106,91.0955,-0.1678,-0.1358,9.4043,-0.0,-3.7972,2.2057,0.019,-11.0579
83024,-106.0674,23.9827,-0.0119,0.1106,91.0955,-0.1678,-0.1358,9.4043,-0.0,-3.7972,2.2057,0.019,-11.0579
83040,-106.0674,23.9827,-0.0119,0.1106,91.0955,-0.1678,-0.1358,9.4043,-0.0,-3.7972,2.2057,0.019,-11.0579
83056,-106.0674,23.9827,-0.0119,0.1106,91.0955,-0.1678,-0.1358,9.4043,-0.0,-3.7972,2.2057,0.019,-11.0579
83072,-106.0848,24.8978,-0.0116,0.0741,90.4964,-0.1062,-0.1259,9.5123,-0.0003,0.1032,1.1168,-0.003,-2.3974
83088,-106.0848,24.8978,-0.0116,0.0741,90.4964,-0.1062,-0.1259,9.5123,-0.0003,0.1032,1.1168,-0.003,-2.3974
83104,-106.0848,24.8978,-0.0116,0.0741,90.4964,-0.1062,-0.1259,9.5123,-0.0003,0.1032,1.1168,-0.003,-2.3974
83120,-106.0848,24.8978,-0.0116,0.0741,90.4964,-0.1062,-0.1259,9.5123,-0.0003,0.1032,1.1168,-0.003,-2.3974
83136,-106.0848,24.8978,-0.0116,0.0741,90.4964,-0.1062,-0.1259,9.5123,-0.0003,0.1032,1.1168,-0.003,-2.3974
83152,-106.0848,24.8978,-0.0116,0.0741,90.4964,-0.1062,-0.1259,9.5123,-0.0003,0.1032,1.1168,-0.003,-2.3974
83168,-106.0951,25.774,-0.0115,0.0508,90.3377,-0.0569,-0.0872,9.6036,-0.0003,0.4223,0.9965,-0.0003,-0.215
83184,-106.0951,25.774,-0.0115,0.0508,90.3377,-0.0569,-0.0872,9.6036,-0.0003,0.4223,0.9965,-0.0003,-0.215
83200,-106.0951,25.774,-0.0115,0.0508,90.3377,-0.0569,-0.0872,9.6036,-0.0003,0.4223,0.9965,-0.0003,-0.215
83216,-106.0951,25.774,-0.0115,0.0508,90.3377,-0.0569,-0.0872,9.6036,-0.0003,0.4223,0.9965,-0.0003,-0.215
83232,-106.0951,25.774,-0.0115,0.0508,90.3377,-0.0569,-0.0872,9.6036,-0.0003,0.4223,0.9965,-0.0003,-0.215
83248,-106.0951,25.774,-0.0115,0.0508,90.3377,-0.0569,-0.0872,9.6036,-0.0003,0.4223,0.9965,-0.0003,-0.215
83265,-106.1026,26.7373,-0.0114,0.0332,90.2905,-0.0268,-0.0635,9.6578,-0.0002,0.2364,0.5407,0.0017,0.6162
83280,-106.1026,26.7373,-0.0114,0.0332,90.2905,-0.0268,-0.0635,9.6578,-0.0002,0.2364,0.5407,0.0017,0.6162
83296,-106.1026,26.7373,-0.0114,0.0332,90.2905,-0.0268,-0.0635,9.6578,-0.0002,0.2364,0.5407,0.0017,0.6162
83312,-106.1026,26.7373,-0.0114,0.0332,90.2905,-0.0268,-0.0635,9.6578,-0.0002,0.2364,0.5407,0.0017,0.6162
83328,-106.1026,26.7373,-0.0114,0.0332,90.2905,-0.0268,-0.0635,9.6578,-0.0002,0.2364,0.5407,0.0017,0.6162
83344,-106.1026,26.7373,-0.0114,0.0332,90.2905,-0.0268,-0.0635,9.6578,-0.0002,0.2364,0.5407,0.0017,0.6162
83360,-106.1079,27.6384,-0.0113,0.0242,90.2771,-0.0134,-0.0532,9.7285,-0.0001,0.1111,0.7612,0.0013,0.6295
83376,-106.1079,27.6384,-0.0113,0.0242,90.2771,-0.0134,-0.0532,9.7285,-0.0001,0.1111,0.7612,0.0013,0.6295
83392,-106.1079,27.6384,-0.0113,0.0242,90.2771,-0.0134,-0.0532,9.7285,-0.0001,0.1111,0.7612,0.0013,0.6295
83408,-106.1079,27.6384,-0.0113,0.0242,90.2771,-0.0134,-0.0532,9.7285,-0.0001,0.1111,0.7612,0.0013,0.6295
83424,-106.1079,27.6384,-0.0113,0.0242,90.2771,-0.0134,-0.0532,9.7285,-0.0001,0.1111,0.7612,0.0013,0.6295
83440,-106.1079,27.6384,-0.0113,0.0242,90.2771,-0.0134,-0.0532,9.7285,-0.0001,0.1111,0.7612,0.0013,0.6295
83456,-106.113,28.5557,-0.0101,0.0669,90.2744,-0.1254,-0.0426,9.8135,-0.0286,0.112,0.9039,-0.3038,-0.6747
83472,-106.113,28.5557,-0.0101,0.0669,90.2744,-0.1254,-0.0426,9.8135,-0.0286,0.112,0.9039,-0.3038,-0.6747
83488,-106.113,28.5557,-0.0101,0.0669,90.2744,-0.1254,-0.0426,9.8135,-0.0286,0.112,0.9039,-0.3038,-0.6747
83504,-106.113,28.5557,-0.0101,0.0669,90.2744,-0.1254,-0.0426,9.8135,-0.0286,0.112,0.9039,-0.3038,-0.6747
83520,-106.113,28.5557,-0.0101,0.0669,90.2744,-0.1254,-0.0426,9.8135,-0.0286,0.112,0.9039,-0.3038,-0.6747
83536,-106.113,28.5557,-0.0101,0.0669,90.2744,-0.1254,-0.0426,9.8135,-0.0286,0.112,0.9039,-0.3038,-0.6747
83552,-106.1173,29.5079,-0.0112,0.0155,90.2638,0.0038,-0.0518,9.8732,-0.0065,-0.0948,0.6166,0.2285,-0.0729
83568,-106.1173,29.5079,-0.0112,0.0155,90.2638,0.0038,-0.0518,9.8732,-0.0065,-0.0948,0.6166,0.2285,-0.0729
83584,-106.1173,29.5079,-0.0112,0.0155,90.2638,0.0038,-0.0518,9.8732,-0.0065,-0.0948,0.6166,0.2285,-0.0729
83600,-106.1173,29.5079,-0.0112,0.0155,90.2638,0.0038,-0.0518,9.8732,-0.0065,-0.0948,0.6166,0.2285,-0.0729
83616,-106.1173,29.5079,-0.0112,0.0155,90.2638,0.0038,-0.0518,9.8732,-0.0065,-0.0948,0.6166,0.2285,-0.0729
83632,-106.1173,29.5079,-0.0112,0.0155,90.2638,0.0038,-0.0518,9.8732,-0.0065,-0.0948,0.6166,0.2285,-0.0729
83650,-106.1221,30.484,-0.0113,0.0089,90.2645,0.0068,-0.0478,9.9128,-0.0005,0.0406,0.401,0.0606,0.0003
83664,-106.1221,30.484,-0.0113,0.0089,90.2645,0.0068,-0.0478,9.9128,-0.0005,0.0406,0.401,0.0606,0.0003
83680,-106.1221,30.484,-0.0113,0.0089,90.2645,0.0068,-0.0478,9.9128,-0.0005,0.0406,0.401,0.0606,0.0003
83696,-106.1221,30.484,-0.0113,0.0089,90.2645,0.0068,-0.0478,9.9128,-0.0005,0.0406,0.401,0.0606,0.0003
83712,-106.1221,30.484,-0.0113,0.0089,90.2645,0.0068,-0.0478,9.9128,-0.0005,0.0406,0.401,0.0606,0.0003
83728,-106.1221,30.484,-0.0113,0.0089,90.2645,0.0068,-0.0478,9.9128,-0.0005,0.0406,0.401,0.0606,0.0003
83744,-106.1267,31.4147,-0.0103,-0.0373,90.2511,-0.0381,-0.0456,9.9776,-0.008,0.0237,0.6902,-0.0807,-0.5247
83760,-106.1267,31.4147,-0.0103,-0.0373,90.2511,-0.0381,-0.0456,9.9776,-0.008,0.0237,0.6902,-0.0807,-0.5247
83776,-106.1267,31.4147,-0.0103,-0.0373,90.2511,-0.0381,-0.0456,9.9776,-0.008,0.0237,0.6902,-0.0807,-0.5247
83792,-106.1267,31.4147,-0.0103,-0.0373,90.2511,-0.0381,-0.0456,9.9776,-0.008,0.0237,0.6902,-0.0807,-0.5247
83808,-106.1267,31.4147,-0.0103,-0.0373,90.2511,-0.0381,-0.0456,9.9776,-0.008,0.0237,0.6902,-0.0807,-0.5247
83824,-106.1267,31.4147,-0.0103,-0.0373,90.2511,-0.0381,-0.0456,9.9776,-0.008,0.0237,0.6902,-0.0807,-0.5247
83840,-106.1308,32.3434,-0.0109,-0.0036,90.246,-0.0086,-0.0457,10.0273,-0.0026,-0.0009,0.535,0.0582,-0.0343
83856,-106.1308,32.3434,-0.0109,-0.0036,90.246,-0.0086,-0.0457,10.0273,-0.0026,-0.0009,0.535,0.0582,-0.0343
83872,-106.1308,32.3434,-0.0109,-0.0036,90.246,-0.0086,-0.0457,10.0273,-0.0026,-0.0009,0.535,0.0582,-0.0343
83888,-106.1308,32.3434,-0.0109,-0.0036,90.246,-0.0086,-0.0457,10.0273,-0.0026,-0.0009,0.535,0.0582,-0.0343
83904,-106.1308,32.3434,-0.0109,-0.0036,90.246,-0.0086,-0.0457,10.0273,-0.0026,-0.0009,0.535,0.0582,-0.0343
83921,-106.1349,33.2754,-0.0111,0.0041,90.2442,-0.004,-0.0442,10.0775,-0.0008,0.0159,0.5412,0.0196,-0.0114
83936,-106.1349,33.2754,-0.0111,0.0041,90.2442,-0.004,-0.0442,10.0775,-0.0008,0.0159,0.5412,0.0196,-0.0114
83952,-106.1349,33.2754,-0.0111,0.0041,90.2442,-0.004,-0.0442,10.0775,-0.0008,0.0159,0.5412,0.0196,-0.0114
83968,-106.1349,33.2754,-0.0111,0.0041,90.2442,-0.004,-0.0442,10.0775,-0.0008,0.0159,0.5412,0.0196,-0.0114
83984,-106.1349,33.2754,-0.0111,0.0041,90.2442,-0.004,-0.0442,10.0775,-0.0008,0.0159,0.5412,0.0196,-0.0114
84000,-106.1349,33.2754,-0.0111,0.0041,90.2442,-0.004,-0.0442,10.0775,-0.0008,0.0159,0.5412,0.0196,-0.0114
84018,-106.1391,34.2348,-0.0112,0.0065,90.2435,-0.0021,-0.0436,10.1233,-0.0002,0.0065,0.4819,0.0059,-0.004
