timestamp,x,y,z,pitch,yaw,roll,vx,vy,vz,ax,ay,az,yaw_rate
172937,-106.6867,-4.8475,-0.056,0.0,-89.3578,0.0,-0.0,0.0,0.2337,-0.0,-0.0,0.2457,0.0
172952,-106.6867,-4.8475,-0.056,0.0,-89.3578,0.0,-0.0,0.0,0.2337,-0.0,-0.0,0.2457,0.0
172968,-106.6867,-4.8475,-0.056,0.0,-89.3578,0.0,-0.0,0.0,0.2337,-0.0,-0.0,0.2457,0.0
172984,-106.6867,-4.8475,-0.056,0.0,-89.3578,0.0,-0.0,0.0,0.2337,-0.0,-0.0,0.2457,0.0
173000,-106.6867,-4.8475,-0.056,0.0,-89.3578,0.0,-0.0,0.0,0.2337,-0.0,-0.0,0.2457,0.0
173016,-106.6867,-4.8475,-0.056,0.0,-89.3578,0.0,-0.0,0.0,0.2337,-0.0,-0.0,0.2457,0.0
173032,-106.6867,-4.8475,-0.056,0.0,-89.3578,0.0,-0.0,0.0,0.2337,-0.0,-0.0,0.2457,0.0
173048,-106.6867,-4.8475,-0.056,0.0,-89.3578,0.0,-0.0,0.0,0.2337,-0.0,-0.0,0.2457,0.0
173064,-106.6867,-4.8475,-0.056,0.0,-89.3578,0.0,-0.0,0.0,0.2337,-0.0,-0.0,0.2457,0.0
173080,-106.6867,-4.8475,-0.056,0.0,-89.3578,0.0,-0.0,0.0,0.2337,-0.0,-0.0,0.2457,0.0
173096,-106.6867,-4.8475,-0.056,0.0,-89.3578,0.0,-0.0,0.0,0.2337,-0.0,-0.0,0.2457,0.0
173112,-106.6867,-4.8475,-0.056,0.0,-89.3578,0.0,-0.0,0.0,0.2337,-0.0,-0.0,0.2457,0.0
173128,-106.6867,-4.8475,-0.056,0.0,-89.3578,0.0,-0.0,0.0,0.2337,-0.0,-0.0,0.2457,0.0
173144,-106.6867,-4.8475,-0.056,0.0,-89.3578,0.0,-0.0,0.0,0.2337,-0.0,-0.0,0.2457,0.0
173160,-106.6867,-4.8475,-0.056,0.0,-89.3578,0.0,-0.0,0.0,0.2337,-0.0,-0.0,0.2457,0.0
173194,-106.6867,-4.8456,-0.0361,-0.0016,-89.3578,-0.0,-0.0005,0.0405,0.1631,-0.0012,0.1078,-0.188,0.0001
173198,-106.6867,-4.8456,-0.0361,-0.0016,-89.3578,-0.0,-0.0005,0.0405,0.1631,-0.0012,0.1078,-0.188,0.0001
173214,-106.6867,-4.8456,-0.0361,-0.0016,-89.3578,-0.0,-0.0005,0.0405,0.1631,-0.0012,0.1078,-0.188,0.0001
173230,-106.6867,-4.8456,-0.0361,-0.0016,-89.3578,-0.0,-0.0005,0.0405,0.1631,-0.0012,0.1078,-0.188,0.0001
173246,-106.6867,-4.8456,-0.0361,-0.0016,-89.3578,-0.0,-0.0005,0.0405,0.1631,-0.0012,0.1078,-0.188,0.0001
173262,-106.6867,-4.8456,-0.0361,-0.0016,-89.3578,-0.0,-0.0005,0.0405,0.1631,-0.0012,0.1078,-0.188,0.0001
173278,-106.6867,-4.8456,-0.0361,-0.0016,-89.3578,-0.0,-0.0005,0.0405,0.1631,-0.0012,0.1078,-0.188,0.0001
173294,-106.6867,-4.8456,-0.0361,-0.0016,-89.3578,-0.0,-0.0005,0.0405,0.1631,-0.0012,0.1078,-0.188,0.0001
173310,-106.6867,-4.8456,-0.0361,-0.0016,-89.3578,-0.0,-0.0005,0.0405,0.1631,-0.0012,0.1078,-0.188,0.0001
173326,-106.6868,-4.8398,-0.0239,-0.0067,-89.3577,0.0,-0.0022,0.1956,0.0922,-0.0108,0.9611,-0.4396,0.0117
173342,-106.6868,-4.8398,-0.0239,-0.0067,-89.3577,0.0,-0.0022,0.1956,0.0922,-0.0108,0.9611,-0.4396,0.0117
173358,-106.6868,-4.8398,-0.0239,-0.0067,-89.3577,0.0,-0.0022,0.1956,0.0922,-0.0108,0.9611,-0.4396,0.0117
173374,-106.6868,-4.8398,-0.0239,-0.0067,-89.3577,0.0,-0.0022,0.1956,0.0922,-0.0108,0.9611,-0.4396,0.0117
173390,-106.6868,-4.8398,-0.0239,-0.0067,-89.3577,0.0,-0.0022,0.1956,0.0922,-0.0108,0.9611,-0.4396,0.0117
173406,-106.6872,-4.7997,-0.0172,-0.0303,-89.3598,0.0,-0.0068,0.6125,0.0472,-0.0417,3.7521,-0.4043,-0.011
173422,-106.6872,-4.7997,-0.0172,-0.0303,-89.3598,0.0,-0.0068,0.6125,0.0472,-0.0417,3.7521,-0.4043,-0.011
173438,-106.6872,-4.7997,-0.0172,-0.0303,-89.3598,0.0,-0.0068,0.6125,0.0472,-0.0417,3.7521,-0.4043,-0.011
173454,-106.6872,-4.7997,-0.0172,-0.0303,-89.3598,0.0,-0.0068,0.6125,0.0472,-0.0417,3.7521,-0.4043,-0.011
173470,-106.6872,-4.7997,-0.0172,-0.0303,-89.3598,0.0,-0.0068,0.6125,0.0472,-0.0417,3.7521,-0.4043,-0.011
173486,-106.6872,-4.7997,-0.0172,-0.0303,-89.3598,0.0,-0.0068,0.6125,0.0472,-0.0417,3.7521,-0.4043,-0.011
173502,-106.6872,-4.7997,-0.0172,-0.0303,-89.3598,0.0,-0.0068,0.6125,0.0472,-0.0417,3.7521,-0.4043,-0.011
173518,-106.6872,-4.7997,-0.0172,-0.0303,-89.3598,0.0,-0.0068,0.6125,0.0472,-0.0417,3.7521,-0.4043,-0.011
173534,-106.6872,-4.7997,-0.0172,-0.0303,-89.3598,0.0,-0.0068,0.6125,0.0472,-0.0417,3.7521,-0.4043,-0.011
173550,-106.6872,-4.7997,-0.0172,-0.0303,-89.3598,0.0,-0.0068,0.6125,0.0472,-0.0417,3.7521,-0.4043,-0.011
173566,-106.6872,-4.7997,-0.0172,-0.0303,-89.3598,0.0,-0.0068,0.6125,0.0472,-0.0417,3.7521,-0.4043,-0.011
173582,-106.6872,-4.7997,-0.0172,-0.0303,-89.3598,0.0,-0.0068,0.6125,0.0472,-0.0417,3.7521,-0.4043,-0.011
173598,-106.6872,-4.7997,-0.0172,-0.0303,-89.3598,0.0,-0.0068,0.6125,0.0472,-0.0417,3.7521,-0.4043,-0.011
173614,-106.6872,-4.7997,-0.0172,-0.0303,-89.3598,0.0,-0.0068,0.6125,0.0472,-0.0417,3.7521,-0.4043,-0.011
173630,-106.6872,-4.7997,-0.0172,-0.0303,-89.3598,0.0,-0.0068,0.6125,0.0472,-0.0417,3.7521,-0.4043,-0.011
173646,-106.6872,-4.7997,-0.0172,-0.0303,-89.3598,0.0,-0.0068,0.6125,0.0472,-0.0417,3.7521,-0.4043,-0.011
173662,-106.6872,-4.7997,-0.0172,-0.0303,-89.3598,0.0,-0.0068,0.6125,0.0472,-0.0417,3.7521,-0.4043,-0.011
173678,-106.6872,-4.7997,-0.0172,-0.0303,-89.3598,0.0,-0.0068,0.6125,0.0472,-0.0417,3.7521,-0.4043,-0.011
173694,-106.6872,-4.7997,-0.0172,-0.0303,-89.3598,0.0,-0.0068,0.6125,0.0472,-0.0417,3.7521,-0.4043,-0.011
173710,-106.6872,-4.7997,-0.0172,-0.0303,-89.3598,0.0,-0.0068,0.6125,0.0472,-0.0417,3.7521,-0.4043,-0.011
173726,-106.6881,-4.7145,-0.0137,-0.048,-89.3673,-0.0,-0.0105,0.9392,0.033,-0.0124,1.1083,-0.0482,-0.7939
173742,-106.6881,-4.7145,-0.0137,-0.048,-89.3673,-0.0,-0.0105,0.9392,0.033,-0.0124,1.1083,-0.0482,-0.7939
173758,-106.6881,-4.7145,-0.0137,-0.048,-89.3673,-0.0,-0.0105,0.9392,0.033,-0.0124,1.1083,-0.0482,-0.7939
173774,-106.6881,-4.7145,-0.0137,-0.048,-89.3673,-0.0,-0.0105,0.9392,0.033,-0.0124,1.1083,-0.0482,-0.7939
173790,-106.6881,-4.7145,-0.0137,-0.048,-89.3673,-0.0,-0.0105,0.9392,0.033,-0.0124,1.1083,-0.0482,-0.7939
173806,-106.6881,-4.7145,-0.0137,-0.048,-89.3673,-0.0,-0.0105,0.9392,0.033,-0.0124,1.1083,-0.0482,-0.7939
173822,-106.6881,-4.7145,-0.0137,-0.048,-89.3673,-0.0,-0.0105,0.9392,0.033,-0.0124,1.1083,-0.0482,-0.7939
173849,-106.6881,-4.7145,-0.0137,-0.048,-89.3673,-0.0,-0.0105,0.9392,0.033,-0.0124,1.1083,-0.0482,-0.7939
173983,-106.6881,-4.7145,-0.0137,-0.048,-89.3673,-0.0,-0.0105,0.9392,0.033,-0.0124,1.1083,-0.0482,-0.7939
173999,-106.6881,-4.7145,-0.0137,-0.048,-89.3673,-0.0,-0.0105,0.9392,0.033,-0.0124,1.1083,-0.0482,-0.7939
174015,-106.6881,-4.7145,-0.0137,-0.048,-89.3673,-0.0,-0.0105,0.9392,0.033,-0.0124,1.1083,-0.0482,-0.7939
174031,-106.6889,-4.6075,-0.012,-0.042,-89.3912,-0.0002,-0.0107,1.0866,0.0127,-0.0016,1.1022,-0.1522,2.1797
174059,-106.6889,-4.6075,-0.012,-0.042,-89.3912,-0.0002,-0.0107,1.0866,0.0127,-0.0016,1.1022,-0.1522,2.1797
174075,-106.6889,-4.6075,-0.012,-0.042,-89.3912,-0.0002,-0.0107,1.0866,0.0127,-0.0016,1.1022,-0.1522,2.1797
174091,-106.6889,-4.6075,-0.012,-0.042,-89.3912,-0.0002,-0.0107,1.0866,0.0127,-0.0016,1.1022,-0.1522,2.1797
174107,-106.6889,-4.6075,-0.012,-0.042,-89.3912,-0.0002,-0.0107,1.0866,0.0127,-0.0016,1.1022,-0.1522,2.1797
174123,-106.6889,-4.6075,-0.012,-0.042,-89.3912,-0.0002,-0.0107,1.0866,0.0127,-0.0016,1.1022,-0.1522,2.1797
174139,-106.6889,-4.6075,-0.012,-0.042,-89.3912,-0.0002,-0.0107,1.0866,0.0127,-0.0016,1.1022,-0.1522,2.1797
174155,-106.6889,-4.6075,-0.012,-0.042,-89.3912,-0.0002,-0.0107,1.0866,0.0127,-0.0016,1.1022,-0.1522,2.1797
174171,-106.6889,-4.6075,-0.012,-0.042,-89.3912,-0.0002,-0.0107,1.0866,0.0127,-0.0016,1.1022,-0.1522,2.1797
174187,-106.6889,-4.6075,-0.012,-0.042,-89.3912,-0.0002,-0.0107,1.0866,0.0127,-0.0016,1.1022,-0.1522,2.1797
174203,-106.6889,-4.6075,-0.012,-0.042,-89.3912,-0.0002,-0.0107,1.0866,0.0127,-0.0016,1.1022,-0.1522,2.1797
174219,-106.6889,-4.6075,-0.012,-0.042,-89.3912,-0.0002,-0.0107,1.0866,0.0127,-0.0016,1.1022,-0.1522,2.1797
174235,-106.6889,-4.6075,-0.012,-0.042,-89.3912,-0.0002,-0.0107,1.0866,0.0127,-0.0016,1.1022,-0.1522,2.1797
174251,-106.6889,-4.6075,-0.012,-0.042,-89.3912,-0.0002,-0.0107,1.0866,0.0127,-0.0016,1.1022,-0.1522,2.1797
174267,-106.6889,-4.6075,-0.012,-0.042,-89.3912,-0.0002,-0.0107,1.0866,0.0127,-0.0016,1.1022,-0.1522,2.1797
174283,-106.6889,-4.6075,-0.012,-0.042,-89.3912,-0.0002,-0.0107,1.0866,0.0127,-0.0016,1.1022,-0.1522,2.1797
174299,-106.6889,-4.6075,-0.012,-0.042,-89.3912,-0.0002,-0.0107,1.0866,0.0127,-0.0016,1.1022,-0.1522,2.1797
174315,-106.6889,-4.6075,-0.012,-0.042,-89.3912,-0.0002,-0.0107,1.0866,0.0127,-0.0016,1.1022,-0.1522,2.1797
174331,-106.6889,-4.6075,-0.012,-0.042,-89.3912,-0.0002,-0.0107,1.0866,0.0127,-0.0016,1.1022,-0.1522,2.1797
174347,-106.6889,-4.6075,-0.012,-0.042,-89.3912,-0.0002,-0.0107,1.0866,0.0127,-0.0016,1.1022,-0.1522,2.1797
174363,-106.6889,-4.6075,-0.012,-0.042,-89.3912,-0.0002,-0.0107,1.0866,0.0127,-0.0016,1.1022,-0.1522,2.1797
174379,-106.6889,-4.6075,-0.012,-0.042,-89.3912,-0.0002,-0.0107,1.0866,0.0127,-0.0016,1.1022,-0.1522,2.1797
174395,-106.6889,-4.6075,-0.012,-0.042,-89.3912,-0.0002,-0.0107,1.0866,0.0127,-0.0016,1.1022,-0.1522,2.1797
174411,-106.6889,-4.6075,-0.012,-0.042,-89.3912,-0.0002,-0.0107,1.0866,0.0127,-0.0016,1.1022,-0.1522,2.1797
174427,-106.6889,-4.6075,-0.012,-0.042,-89.3912,-0.0002,-0.0107,1.0866,0.0127,-0.0016,1.1022,-0.1522,2.1797
174443,-106.6889,-4.6075,-0.012,-0.042,-89.3912,-0.0002,-0.0107,1.0866,0.0127,-0.0016,1.1022,-0.1522,2.1797
174459,-106.6889,-4.6075,-0.012,-0.042,-89.3912,-0.0002,-0.0107,1.0866,0.0127,-0.0016,1.1022,-0.1522,2.1797
174475,-106.6889,-4.6075,-0.012,-0.042,-89.3912,-0.0002,-0.0107,1.0866,0.0127,-0.0016,1.1022,-0.1522,2.1797
174491,-106.6889,-4.6075,-0.012,-0.042,-89.3912,-0.0002,-0.0107,1.0866,0.0127,-0.0016,1.1022,-0.1522,2.1797
174507,-106.6889,-4.6075,-0.012,-0.042,-89.3912,-0.0002,-0.0107,1.0866,0.0127,-0.0016,1.1022,-0.1522,2.1797
174523,-106.6889,-4.6075,-0.012,-0.042,-89.3912,-0.0002,-0.0107,1.0866,0.0127,-0.0016,1.1022,-0.1522,2.1797
174539,-106.6889,-4.6075,-0.012,-0.042,-89.3912,-0.0002,-0.0107,1.0866,0.0127,-0.0016,1.1022,-0.1522,2.1797
174559,-106.6909,-4.4851,-0.0113,-0.0324,-89.2749,0.0003,-0.0142,1.1877,0.0041,-0.0087,0.2526,-0.0215,0.84
174571,-106.6909,-4.4851,-0.0113,-0.0324,-89.2749,0.0003,-0.0142,1.1877,0.0041,-0.0087,0.2526,-0.0215,0.84
174590,-106.6909,-4.4851,-0.0113,-0.0324,-89.2749,0.0003,-0.0142,1.1877,0.0041,-0.0087,0.2526,-0.0215,0.84
174603,-106.6909,-4.4851,-0.0113,-0.0324,-89.2749,0.0003,-0.0142,1.1877,0.0041,-0.0087,0.2526,-0.0215,0.84
174619,-106.6909,-4.4851,-0.0113,-0.0324,-89.2749,0.0003,-0.0142,1.1877,0.0041,-0.0087,0.2526,-0.0215,0.84
174635,-106.6909,-4.4851,-0.0113,-0.0324,-89.2749,0.0003,-0.0142,1.1877,0.0041,-0.0087,0.2526,-0.0215,0.84
174651,-106.6909,-4.4851,-0.0113,-0.0324,-89.2749,0.0003,-0.0142,1.1877,0.0041,-0.0087,0.2526,-0.0215,0.84
174667,-106.6909,-4.4851,-0.0113,-0.0324,-89.2749,0.0003,-0.0142,1.1877,0.0041,-0.0087,0.2526,-0.0215,0.84
174683,-106.6909,-4.4851,-0.0113,-0.0324,-89.2749,0.0003,-0.0142,1.1877,0.0041,-0.0087,0.2526,-0.0215,0.84
174699,-106.6909,-4.4851,-0.0113,-0.0324,-89.2749,0.0003,-0.0142,1.1877,0.0041,-0.0087,0.2526,-0.0215,0.84
174715,-106.6909,-4.4851,-0.0113,-0.0324,-89.2749,0.0003,-0.0142,1.1877,0.0041,-0.0087,0.2526,-0.0215,0.84
174731,-106.6909,-4.4851,-0.0113,-0.0324,-89.2749,0.0003,-0.0142,1.1877,0.0041,-0.0087,0.2526,-0.0215,0.84
174747,-106.6909,-4.4851,-0.0113,-0.0324,-89.2749,0.0003,-0.0142,1.1877,0.0041,-0.0087,0.2526,-0.0215,0.84
174763,-106.6909,-4.4851,-0.0113,-0.0324,-89.2749,0.0003,-0.0142,1.1877,0.0041,-0.0087,0.2526,-0.0215,0.84
174779,-106.6923,-4.3599,-0.0112,-0.0198,-89.2996,0.0004,-0.0136,1.2014,0.0014,0.0015,0.0345,-0.0066,-0.3784
174795,-106.6923,-4.3599,-0.0112,-0.0198,-89.2996,0.0004,-0.0136,1.2014,0.0014,0.0015,0.0345,-0.0066,-0.3784
174811,-106.6923,-4.3599,-0.0112,-0.0198,-89.2996,0.0004,-0.0136,1.2014,0.0014,0.0015,0.0345,-0.0066,-0.3784
174827,-106.6923,-4.3599,-0.0112,-0.0198,-89.2996,0.0004,-0.0136,1.2014,0.0014,0.0015,0.0345,-0.0066,-0.3784
174843,-106.6923,-4.3599,-0.0112,-0.0198,-89.2996,0.0004,-0.0136,1.2014,0.0014,0.0015,0.0345,-0.0066,-0.3784
174859,-106.6923,-4.3599,-0.0112,-0.0198,-89.2996,0.0004,-0.0136,1.2014,0.0014,0.0015,0.0345,-0.0066,-0.3784
174875,-106.6923,-4.3599,-0.0112,-0.0198,-89.2996,0.0004,-0.0136,1.2014,0.0014,0.0015,0.0345,-0.0066,-0.3784
174891,-106.6923,-4.3599,-0.0112,-0.0198,-89.2996,0.0004,-0.0136,1.2014,0.0014,0.0015,0.0345,-0.0066,-0.3784
174907,-106.6923,-4.3599,-0.0112,-0.0198,-89.2996,0.0004,-0.0136,1.2014,0.0014,0.0015,0.0345,-0.0066,-0.3784
174923,-106.6923,-4.3599,-0.0112,-0.0198,-89.2996,0.0004,-0.0136,1.2014,0.0014,0.0015,0.0345,-0.0066,-0.3784
174939,-106.6923,-4.3599,-0.0112,-0.0198,-89.2996,0.0004,-0.0136,1.2014,0.0014,0.0015,0.0345,-0.0066,-0.3784
174955,-106.6923,-4.3599,-0.0112,-0.0198,-89.2996,0.0004,-0.0136,1.2014,0.0014,0.0015,0.0345,-0.0066,-0.3784
174971,-106.6923,-4.3599,-0.0112,-0.0198,-89.2996,0.0004,-0.0136,1.2014,0.0014,0.0015,0.0345,-0.0066,-0.3784
174987,-106.6923,-4.3599,-0.0112,-0.0198,-89.2996,0.0004,-0.0136,1.2014,0.0014,0.0015,0.0345,-0.0066,-0.3784
175003,-106.6923,-4.3599,-0.0112,-0.0198,-89.2996,0.0004,-0.0136,1.2014,0.0014,0.0015,0.0345,-0.0066,-0.3784
175019,-106.6936,-4.2028,-0.0109,-0.0429,-89.3348,-0.0007,-0.0168,1.8032,0.0006,-0.0114,2.1417,-0.0031,-0.8105
175037,-106.6949,-4.0247,-0.0107,-0.0656,-89.3947,-0.0004,-0.0254,2.4262,0.0003,-0.1057,7.6078,-0.0036,-2.8184
175051,-106.6949,-4.0247,-0.0107,-0.0656,-89.3947,-0.0004,-0.0254,2.4262,0.0003,-0.1057,7.6078,-0.0036,-2.8184
175067,-106.6949,-4.0247,-0.0107,-0.0656,-89.3947,-0.0004,-0.0254,2.4262,0.0003,-0.1057,7.6078,-0.0036,-2.8184
175083,-106.6949,-4.0247,-0.0107,-0.0656,-89.3947,-0.0004,-0.0254,2.4262,0.0003,-0.1057,7.6078,-0.0036,-2.8184
175099,-106.6949,-4.0247,-0.0107,-0.0656,-89.3947,-0.0004,-0.0254,2.4262,0.0003,-0.1057,7.6078,-0.0036,-2.8184
175115,-106.6949,-4.0247,-0.0107,-0.0656,-89.3947,-0.0004,-0.0254,2.4262,0.0003,-0.1057,7.6078,-0.0036,-2.8184
175131,-106.6949,-4.0247,-0.0107,-0.0656,-89.3947,-0.0004,-0.0254,2.4262,0.0003,-0.1057,7.6078,-0.0036,-2.8184
175147,-106.6949,-4.0247,-0.0107,-0.0656,-89.3947,-0.0004,-0.0254,2.4262,0.0003,-0.1057,7.6078,-0.0036,-2.8184
175163,-106.6949,-4.0247,-0.0107,-0.0656,-89.3947,-0.0004,-0.0254,2.4262,0.0003,-0.1057,7.6078,-0.0036,-2.8184
175179,-106.6949,-4.0247,-0.0107,-0.0656,-89.3947,-0.0004,-0.0254,2.4262,0.0003,-0.1057,7.6078,-0.0036,-2.8184
175195,-106.6949,-4.0247,-0.0107,-0.0656,-89.3947,-0.0004,-0.0254,2.4262,0.0003,-0.1057,7.6078,-0.0036,-2.8184
175211,-106.6949,-4.0247,-0.0107,-0.0656,-89.3947,-0.0004,-0.0254,2.4262,0.0003,-0.1057,7.6078,-0.0036,-2.8184
175227,-106.6949,-4.0247,-0.0107,-0.0656,-89.3947,-0.0004,-0.0254,2.4262,0.0003,-0.1057,7.6078,-0.0036,-2.8184
175243,-106.6949,-4.0247,-0.0107,-0.0656,-89.3947,-0.0004,-0.0254,2.4262,0.0003,-0.1057,7.6078,-0.0036,-2.8184
175259,-106.6966,-3.7482,-0.0106,-0.0836,-89.4786,-0.0015,-0.0228,3.0152,0.0001,0.0166,3.6748,-0.0009,-4.5405
175276,-106.6966,-3.7482,-0.0106,-0.0836,-89.4786,-0.0015,-0.0228,3.0152,0.0001,0.0166,3.6748,-0.0009,-4.5405
175291,-106.6966,-3.7482,-0.0106,-0.0836,-89.4786,-0.0015,-0.0228,3.0152,0.0001,0.0166,3.6748,-0.0009,-4.5405
175307,-106.6966,-3.7482,-0.0106,-0.0836,-89.4786,-0.0015,-0.0228,3.0152,0.0001,0.0166,3.6748,-0.0009,-4.5405
175323,-106.6966,-3.7482,-0.0106,-0.0836,-89.4786,-0.0015,-0.0228,3.0152,0.0001,0.0166,3.6748,-0.0009,-4.5405
175339,-106.6966,-3.7482,-0.0106,-0.0836,-89.4786,-0.0015,-0.0228,3.0152,0.0001,0.0166,3.6748,-0.0009,-4.5405
175355,-106.6966,-3.7482,-0.0106,-0.0836,-89.4786,-0.0015,-0.0228,3.0152,0.0001,0.0166,3.6748,-0.0009,-4.5405
175371,-106.6966,-3.7482,-0.0106,-0.0836,-89.4786,-0.0015,-0.0228,3.0152,0.0001,0.0166,3.6748,-0.0009,-4.5405
175387,-106.6966,-3.7482,-0.0106,-0.0836,-89.4786,-0.0015,-0.0228,3.0152,0.0001,0.0166,3.6748,-0.0009,-4.5405
175403,-106.6989,-3.4138,-0.0105,-0.0914,-89.5603,-0.001,-0.0303,3.6935,0.0001,-0.0664,6.0133,-0.0006,-5.0475
175419,-106.6989,-3.4138,-0.0105,-0.0914,-89.5603,-0.001,-0.0303,3.6935,0.0001,-0.0664,6.0133,-0.0006,-5.0475
175435,-106.6989,-3.4138,-0.0105,-0.0914,-89.5603,-0.001,-0.0303,3.6935,0.0001,-0.0664,6.0133,-0.0006,-5.0475
175451,-106.6989,-3.4138,-0.0105,-0.0914,-89.5603,-0.001,-0.0303,3.6935,0.0001,-0.0664,6.0133,-0.0006,-5.0475
175467,-106.6989,-3.4138,-0.0105,-0.0914,-89.5603,-0.001,-0.0303,3.6935,0.0001,-0.0664,6.0133,-0.0006,-5.0475
175483,-106.6989,-3.4138,-0.0105,-0.0914,-89.5603,-0.001,-0.0303,3.6935,0.0001,-0.0664,6.0133,-0.0006,-5.0475
175499,-106.6989,-3.4138,-0.0105,-0.0914,-89.5603,-0.001,-0.0303,3.6935,0.0001,-0.0664,6.0133,-0.0006,-5.0475
175515,-106.6989,-3.4138,-0.0105,-0.0914,-89.5603,-0.001,-0.0303,3.6935,0.0001,-0.0664,6.0133,-0.0006,-5.0475
175532,-106.6989,-3.4138,-0.0105,-0.0914,-89.5603,-0.001,-0.0303,3.6935,0.0001,-0.0664,6.0133,-0.0006,-5.0475
175547,-106.6989,-3.4138,-0.0105,-0.0914,-89.5603,-0.001,-0.0303,3.6935,0.0001,-0.0664,6.0133,-0.0006,-5.0475
175563,-106.6989,-3.4138,-0.0105,-0.0914,-89.5603,-0.001,-0.0303,3.6935,0.0001,-0.0664,6.0133,-0.0006,-5.0475
175579,-106.6989,-3.4138,-0.0105,-0.0914,-89.5603,-0.001,-0.0303,3.6935,0.0001,-0.0664,6.0133,-0.0006,-5.0475
175595,-106.6989,-3.4138,-0.0105,-0.0914,-89.5603,-0.001,-0.0303,3.6935,0.0001,-0.0664,6.0133,-0.0006,-5.0475
175611,-106.6989,-3.4138,-0.0105,-0.0914,-89.5603,-0.001,-0.0303,3.6935,0.0001,-0.0664,6.0133,-0.0006,-5.0475
175627,-106.6989,-3.4138,-0.0105,-0.0914,-89.5603,-0.001,-0.0303,3.6935,0.0001,-0.0664,6.0133,-0.0006,-5.0475
175643,-106.7033,-3.016,-0.0105,-0.0937,-89.4779,0.0001,-0.0406,4.2575,0.0,-0.0661,3.6235,-0.0002,-1.0136
175659,-106.7033,-3.016,-0.0105,-0.0937,-89.4779,0.0001,-0.0406,4.2575,0.0,-0.0661,3.6235,-0.0002,-1.0136
175675,-106.7033,-3.016,-0.0105,-0.0937,-89.4779,0.0001,-0.0406,4.2575,0.0,-0.0661,3.6235,-0.0002,-1.0136
175691,-106.7033,-3.016,-0.0105,-0.0937,-89.4779,0.0001,-0.0406,4.2575,0.0,-0.0661,3.6235,-0.0002,-1.0136
175707,-106.7033,-3.016,-0.0105,-0.0937,-89.4779,0.0001,-0.0406,4.2575,0.0,-0.0661,3.6235,-0.0002,-1.0136
175723,-106.7085,-2.5705,-0.0105,-0.0877,-89.3797,0.0013,-0.0517,4.7383,0.0,-0.0531,2.2999,-0.0,-0.9363
175739,-106.7085,-2.5705,-0.0105,-0.0877,-89.3797,0.0013,-0.0517,4.7383,0.0,-0.0531,2.2999,-0.0,-0.9363
175755,-106.7085,-2.5705,-0.0105,-0.0877,-89.3797,0.0013,-0.0517,4.7383,0.0,-0.0531,2.2999,-0.0,-0.9363
175771,-106.7085,-2.5705,-0.0105,-0.0877,-89.3797,0.0013,-0.0517,4.7383,0.0,-0.0531,2.2999,-0.0,-0.9363
175787,-106.7085,-2.5705,-0.0105,-0.0877,-89.3797,0.0013,-0.0517,4.7383,0.0,-0.0531,2.2999,-0.0,-0.9363
175803,-106.7085,-2.5705,-0.0105,-0.0877,-89.3797,0.0013,-0.0517,4.7383,0.0,-0.0531,2.2999,-0.0,-0.9363
175819,-106.7085,-2.5705,-0.0105,-0.0877,-89.3797,0.0013,-0.0517,4.7383,0.0,-0.0531,2.2999,-0.0,-0.9363
175835,-106.7085,-2.5705,-0.0105,-0.0877,-89.3797,0.0013,-0.0517,4.7383,0.0,-0.0531,2.2999,-0.0,-0.9363
175851,-106.7085,-2.5705,-0.0105,-0.0877,-89.3797,0.0013,-0.0517,4.7383,0.0,-0.0531,2.2999,-0.0,-0.9363
175868,-106.7085,-2.5705,-0.0105,-0.0877,-89.3797,0.0013,-0.0517,4.7383,0.0,-0.0531,2.2999,-0.0,-0.9363
175921,-106.7085,-2.5705,-0.0105,-0.0877,-89.3797,0.0013,-0.0517,4.7383,0.0,-0.0531,2.2999,-0.0,-0.9363
175965,-106.7085,-2.5705,-0.0105,-0.0877,-89.3797,0.0013,-0.0517,4.7383,0.0,-0.0531,2.2999,-0.0,-0.9363
175981,-106.7085,-2.5705,-0.0105,-0.0877,-89.3797,0.0013,-0.0517,4.7383,0.0,-0.0531,2.2999,-0.0,-0.9363
176006,-106.7085,-2.5705,-0.0105,-0.0877,-89.3797,0.0013,-0.0517,4.7383,0.0,-0.0531,2.2999,-0.0,-0.9363
176013,-106.7085,-2.5705,-0.0105,-0.0877,-89.3797,0.0013,-0.0517,4.7383,0.0,-0.0531,2.2999,-0.0,-0.9363
176029,-106.7085,-2.5705,-0.0105,-0.0877,-89.3797,0.0013,-0.0517,4.7383,0.0,-0.0531,2.2999,-0.0,-0.9363
176045,-106.7145,-2.0674,-0.0105,-0.0921,-89.3276,0.0016,-0.0605,5.3744,0.0,-0.0583,4.2044,-0.0,1.7387
176061,-106.7145,-2.0674,-0.0105,-0.0921,-89.3276,0.0016,-0.0605,5.3744,0.0,-0.0583,4.2044,-0.0,1.7387
176077,-106.7145,-2.0674,-0.0105,-0.0921,-89.3276,0.0016,-0.0605,5.3744,0.0,-0.0583,4.2044,-0.0,1.7387
176093,-106.7145,-2.0674,-0.0105,-0.0921,-89.3276,0.0016,-0.0605,5.3744,0.0,-0.0583,4.2044,-0.0,1.7387
176109,-106.7145,-2.0674,-0.0105,-0.0921,-89.3276,0.0016,-0.0605,5.3744,0.0,-0.0583,4.2044,-0.0,1.7387
176125,-106.7145,-2.0674,-0.0105,-0.0921,-89.3276,0.0016,-0.0605,5.3744,0.0,-0.0583,4.2044,-0.0,1.7387
176141,-106.7145,-2.0674,-0.0105,-0.0921,-89.3276,0.0016,-0.0605,5.3744,0.0,-0.0583,4.2044,-0.0,1.7387
176157,-106.7145,-2.0674,-0.0105,-0.0921,-89.3276,0.0016,-0.0605,5.3744,0.0,-0.0583,4.2044,-0.0,1.7387
176173,-106.7145,-2.0674,-0.0105,-0.0921,-89.3276,0.0016,-0.0605,5.3744,0.0,-0.0583,4.2044,-0.0,1.7387
176189,-106.7145,-2.0674,-0.0105,-0.0921,-89.3276,0.0016,-0.0605,5.3744,0.0,-0.0583,4.2044,-0.0,1.7387
176205,-106.7145,-2.0674,-0.0105,-0.0921,-89.3276,0.0016,-0.0605,5.3744,0.0,-0.0583,4.2044,-0.0,1.7387
176221,-106.7145,-2.0674,-0.0105,-0.0921,-89.3276,0.0016,-0.0605,5.3744,0.0,-0.0583,4.2044,-0.0,1.7387
176239,-106.7145,-2.0674,-0.0105,-0.0921,-89.3276,0.0016,-0.0605,5.3744,0.0,-0.0583,4.2044,-0.0,1.7387
176253,-106.7203,-1.505,-0.0105,-0.094,-89.3876,0.0005,-0.0658,5.9367,0.0,-0.0167,1.7682,-0.0,-2.2246
176269,-106.7203,-1.505,-0.0105,-0.094,-89.3876,0.0005,-0.0658,5.9367,0.0,-0.0167,1.7682,-0.0,-2.2246
176285,-106.7203,-1.505,-0.0105,-0.094,-89.3876,0.0005,-0.0658,5.9367,0.0,-0.0167,1.7682,-0.0,-2.2246
176301,-106.7203,-1.505,-0.0105,-0.094,-89.3876,0.0005,-0.0658,5.9367,0.0,-0.0167,1.7682,-0.0,-2.2246
176317,-106.7203,-1.505,-0.0105,-0.094,-89.3876,0.0005,-0.0658,5.9367,0.0,-0.0167,1.7682,-0.0,-2.2246
176333,-106.7203,-1.505,-0.0105,-0.094,-89.3876,0.0005,-0.0658,5.9367,0.0,-0.0167,1.7682,-0.0,-2.2246
176349,-106.7203,-1.505,-0.0105,-0.094,-89.3876,0.0005,-0.0658,5.9367,0.0,-0.0167,1.7682,-0.0,-2.2246
176365,-106.7502,-0.8839,-0.0104,-0.0939,-90.4593,0.0981,-0.7409,6.4742,0.0007,-4.1968,3.3418,0.0042,-22.7138
176381,-106.7502,-0.8839,-0.0104,-0.0939,-90.4593,0.0981,-0.7409,6.4742,0.0007,-4.1968,3.3418,0.0042,-22.7138
176397,-106.7502,-0.8839,-0.0104,-0.0939,-90.4593,0.0981,-0.7409,6.4742,0.0007,-4.1968,3.3418,0.0042,-22.7138
176413,-106.7502,-0.8839,-0.0104,-0.0939,-90.4593,0.0981,-0.7409,6.4742,0.0007,-4.1968,3.3418,0.0042,-22.7138
176429,-106.7502,-0.8839,-0.0104,-0.0939,-90.4593,0.0981,-0.7409,6.4742,0.0007,-4.1968,3.3418,0.0042,-22.7138
176445,-106.7502,-0.8839,-0.0104,-0.0939,-90.4593,0.0981,-0.7409,6.4742,0.0007,-4.1968,3.3418,0.0042,-22.7138
176461,-106.7502,-0.8839,-0.0104,-0.0939,-90.4593,0.0981,-0.7409,6.4742,0.0007,-4.1968,3.3418,0.0042,-22.7138
176477,-106.7502,-0.8839,-0.0104,-0.0939,-90.4593,0.0981,-0.7409,6.4742,0.0007,-4.1968,3.3418,0.0042,-22.7138
176493,-106.7502,-0.8839,-0.0104,-0.0939,-90.4593,0.0981,-0.7409,6.4742,0.0007,-4.1968,3.3418,0.0042,-22.7138
176509,-106.7502,-0.8839,-0.0104,-0.0939,-90.4593,0.0981,-0.7409,6.4742,0.0007,-4.1968,3.3418,0.0042,-22.7138
176525,-106.7502,-0.8839,-0.0104,-0.0939,-90.4593,0.0981,-0.7409,6.4742,0.0007,-4.1968,3.3418,0.0042,-22.7138
176541,-106.7502,-0.8839,-0.0104,-0.0939,-90.4593,0.0981,-0.7409,6.4742,0.0007,-4.1968,3.3418,0.0042,-22.7138
176573,-106.7502,-0.8839,-0.0104,-0.0939,-90.4593,0.0981,-0.7409,6.4742,0.0007,-4.1968,3.3418,0.0042,-22.7138
176589,-106.7502,-0.8839,-0.0104,-0.0939,-90.4593,0.0981,-0.7409,6.4742,0.0007,-4.1968,3.3418,0.0042,-22.7138
176605,-106.8398,-0.2251,-0.0105,-0.0734,-94.8024,0.2241,-1.5894,6.7146,0.0008,-5.678,1.6088,0.001,-62.2272
176621,-106.8398,-0.2251,-0.0105,-0.0734,-94.8024,0.2241,-1.5894,6.7146,0.0008,-5.678,1.6088,0.001,-62.2272
176637,-106.8398,-0.2251,-0.0105,-0.0734,-94.8024,0.2241,-1.5894,6.7146,0.0008,-5.678,1.6088,0.001,-62.2272
176664,-106.8398,-0.2251,-0.0105,-0.0734,-94.8024,0.2241,-1.5894,6.7146,0.0008,-5.678,1.6088,0.001,-62.2272
176669,-106.8398,-0.2251,-0.0105,-0.0734,-94.8024,0.2241,-1.5894,6.7146,0.0008,-5.678,1.6088,0.001,-62.2272
176685,-106.8398,-0.2251,-0.0105,-0.0734,-94.8024,0.2241,-1.5894,6.7146,0.0008,-5.678,1.6088,0.001,-62.2272
176701,-106.8398,-0.2251,-0.0105,-0.0734,-94.8024,0.2241,-1.5894,6.7146,0.0008,-5.678,1.6088,0.001,-62.2272
176717,-106.8398,-0.2251,-0.0105,-0.0734,-94.8024,0.2241,-1.5894,6.7146,0.0008,-5.678,1.6088,0.001,-62.2272
176733,-106.8398,-0.2251,-0.0105,-0.0734,-94.8024,0.2241,-1.5894,6.7146,0.0008,-5.678,1.6088,0.001,-62.2272
176749,-106.8398,-0.2251,-0.0105,-0.0734,-94.8024,0.2241,-1.5894,6.7146,0.0008,-5.678,1.6088,0.001,-62.2272
176765,-106.8398,-0.2251,-0.0105,-0.0734,-94.8024,0.2241,-1.5894,6.7146,0.0008,-5.678,1.6088,0.001,-62.2272
176781,-106.8398,-0.2251,-0.0105,-0.0734,-94.8024,0.2241,-1.5894,6.7146,0.0008,-5.678,1.6088,0.001,-62.2272
176797,-106.8398,-0.2251,-0.0105,-0.0734,-94.8024,0.2241,-1.5894,6.7146,0.0008,-5.678,1.6088,0.001,-62.2272
176813,-106.8398,-0.2251,-0.0105,-0.0734,-94.8024,0.2241,-1.5894,6.7146,0.0008,-5.678,1.6088,0.001,-62.2272
176829,-106.8398,-0.2251,-0.0105,-0.0734,-94.8024,0.2241,-1.5894,6.7146,0.0008,-5.678,1.6088,0.001,-62.2272
176845,-106.8398,-0.2251,-0.0105,-0.0734,-94.8024,0.2241,-1.5894,6.7146,0.0008,-5.678,1.6088,0.001,-62.2272
176861,-106.8398,-0.2251,-0.0105,-0.0734,-94.8024,0.2241,-1.5894,6.7146,0.0008,-5.678,1.6088,0.001,-62.2272
176878,-106.9708,0.4382,-0.0107,-0.0416,-102.936,0.2545,-2.1472,6.7709,0.0001,-1.7369,0.1753,-0.0024,-98.9425
176893,-106.9708,0.4382,-0.0107,-0.0416,-102.936,0.2545,-2.1472,6.7709,0.0001,-1.7369,0.1753,-0.0024,-98.9425
176909,-106.9708,0.4382,-0.0107,-0.0416,-102.936,0.2545,-2.1472,6.7709,0.0001,-1.7369,0.1753,-0.0024,-98.9425
176925,-106.9708,0.4382,-0.0107,-0.0416,-102.936,0.2545,-2.1472,6.7709,0.0001,-1.7369,0.1753,-0.0024,-98.9425
176941,-106.9708,0.4382,-0.0107,-0.0416,-102.936,0.2545,-2.1472,6.7709,0.0001,-1.7369,0.1753,-0.0024,-98.9425
176957,-106.9708,0.4382,-0.0107,-0.0416,-102.936,0.2545,-2.1472,6.7709,0.0001,-1.7369,0.1753,-0.0024,-98.9425
176973,-106.9708,0.4382,-0.0107,-0.0416,-102.936,0.2545,-2.1472,6.7709,0.0001,-1.7369,0.1753,-0.0024,-98.9425
176989,-106.9708,0.4382,-0.0107,-0.0416,-102.936,0.2545,-2.1472,6.7709,0.0001,-1.7369,0.1753,-0.0024,-98.9425
177005,-106.9708,0.4382,-0.0107,-0.0416,-102.936,0.2545,-2.1472,6.7709,0.0001,-1.7369,0.1753,-0.0024,-98.9425
177021,-106.9708,0.4382,-0.0107,-0.0416,-102.936,0.2545,-2.1472,6.7709,0.0001,-1.7369,0.1753,-0.0024,-98.9425
177037,-106.9708,0.4382,-0.0107,-0.0416,-102.936,0.2545,-2.1472,6.7709,0.0001,-1.7369,0.1753,-0.0024,-98.9425
177053,-106.9708,0.4382,-0.0107,-0.0416,-102.936,0.2545,-2.1472,6.7709,0.0001,-1.7369,0.1753,-0.0024,-98.9425
177085,-106.9708,0.4382,-0.0107,-0.0416,-102.936,0.2545,-2.1472,6.7709,0.0001,-1.7369,0.1753,-0.0024,-98.9425
177101,-106.9708,0.4382,-0.0107,-0.0416,-102.936,0.2545,-2.1472,6.7709,0.0001,-1.7369,0.1753,-0.0024,-98.9425
177117,-106.9708,0.4382,-0.0107,-0.0416,-102.936,0.2545,-2.1472,6.7709,0.0001,-1.7369,0.1753,-0.0024,-98.9425
177133,-106.9708,0.4382,-0.0107,-0.0416,-102.936,0.2545,-2.1472,6.7709,0.0001,-1.7369,0.1753,-0.0024,-98.9425
177149,-106.9708,0.4382,-0.0107,-0.0416,-102.936,0.2545,-2.1472,6.7709,0.0001,-1.7369,0.1753,-0.0024,-98.9425
177165,-106.9708,0.4382,-0.0107,-0.0416,-102.936,0.2545,-2.1472,6.7709,0.0001,-1.7369,0.1753,-0.0024,-98.9425
177181,-106.9708,0.4382,-0.0107,-0.0416,-102.936,0.2545,-2.1472,6.7709,0.0001,-1.7369,0.1753,-0.0024,-98.9425
177206,-106.9708,0.4382,-0.0107,-0.0416,-102.936,0.2545,-2.1472,6.7709,0.0001,-1.7369,0.1753,-0.0024,-98.9425
177213,-107.0643,1.0996,-0.0107,-0.0548,-112.4586,0.0067,-0.8779,6.866,-0.0018,3.3775,0.2529,-0.0049,-83.6279
177229,-107.0643,1.0996,-0.0107,-0.0548,-112.4586,0.0067,-0.8779,6.866,-0.0018,3.3775,0.2529,-0.0049,-83.6279
177245,-107.0643,1.0996,-0.0107,-0.0548,-112.4586,0.0067,-0.8779,6.866,-0.0018,3.3775,0.2529,-0.0049,-83.6279
177261,-107.0643,1.0996,-0.0107,-0.0548,-112.4586,0.0067,-0.8779,6.866,-0.0018,3.3775,0.2529,-0.0049,-83.6279
177277,-107.0643,1.0996,-0.0107,-0.0548,-112.4586,0.0067,-0.8779,6.866,-0.0018,3.3775,0.2529,-0.0049,-83.6279
177293,-107.0643,1.0996,-0.0107,-0.0548,-112.4586,0.0067,-0.8779,6.866,-0.0018,3.3775,0.2529,-0.0049,-83.6279
177309,-107.0643,1.0996,-0.0107,-0.0548,-112.4586,0.0067,-0.8779,6.866,-0.0018,3.3775,0.2529,-0.0049,-83.6279
177325,-107.0643,1.0996,-0.0107,-0.0548,-112.4586,0.0067,-0.8779,6.866,-0.0018,3.3775,0.2529,-0.0049,-83.6279
177341,-107.0643,1.0996,-0.0107,-0.0548,-112.4586,0.0067,-0.8779,6.866,-0.0018,3.3775,0.2529,-0.0049,-83.6279
177357,-107.0643,1.0996,-0.0107,-0.0548,-112.4586,0.0067,-0.8779,6.866,-0.0018,3.3775,0.2529,-0.0049,-83.6279
177373,-107.0643,1.0996,-0.0107,-0.0548,-112.4586,0.0067,-0.8779,6.866,-0.0018,3.3775,0.2529,-0.0049,-83.6279
177389,-107.0548,1.6654,-0.0111,0.0133,-118.4315,-0.3237,0.0025,4.7865,0.002,8.5617,-20.2213,0.0363,-37.5602
177405,-107.0548,1.6654,-0.0111,0.0133,-118.4315,-0.3237,0.0025,4.7865,0.002,8.5617,-20.2213,0.0363,-37.5602
177421,-107.0548,1.6654,-0.0111,0.0133,-118.4315,-0.3237,0.0025,4.7865,0.002,8.5617,-20.2213,0.0363,-37.5602
177437,-107.0548,1.6654,-0.0111,0.0133,-118.4315,-0.3237,0.0025,4.7865,0.002,8.5617,-20.2213,0.0363,-37.5602
177453,-107.0548,1.6654,-0.0111,0.0133,-118.4315,-0.3237,0.0025,4.7865,0.002,8.5617,-20.2213,0.0363,-37.5602
177469,-107.0548,1.6654,-0.0111,0.0133,-118.4315,-0.3237,0.0025,4.7865,0.002,8.5617,-20.2213,0.0363,-37.5602
177485,-107.0548,1.6654,-0.0111,0.0133,-118.4315,-0.3237,0.0025,4.7865,0.002,8.5617,-20.2213,0.0363,-37.5602
177501,-107.0548,1.6654,-0.0111,0.0133,-118.4315,-0.3237,0.0025,4.7865,0.002,8.5617,-20.2213,0.0363,-37.5602
177517,-107.0548,1.6654,-0.0111,0.0133,-118.4315,-0.3237,0.0025,4.7865,0.002,8.5617,-20.2213,0.0363,-37.5602
177533,-107.0103,2.0196,-0.0116,0.1168,-120.4053,-0.4928,0.5477,2.7721,0.0015,3.0027,-11.0952,-0.0028,-11.3553
177549,-107.0103,2.0196,-0.0116,0.1168,-120.4053,-0.4928,0.5477,2.7721,0.0015,3.0027,-11.0952,-0.0028,-11.3553
177565,-107.0103,2.0196,-0.0116,0.1168,-120.4053,-0.4928,0.5477,2.7721,0.0015,3.0027,-11.0952,-0.0028,-11.3553
177581,-107.0103,2.0196,-0.0116,0.1168,-120.4053,-0.4928,0.5477,2.7721,0.0015,3.0027,-11.0952,-0.0028,-11.3553
177597,-107.0103,2.0196,-0.0116,0.1168,-120.4053,-0.4928,0.5477,2.7721,0.0015,3.0027,-11.0952,-0.0028,-11.3553
177613,-107.0103,2.0196,-0.0116,0.1168,-120.4053,-0.4928,0.5477,2.7721,0.0015,3.0027,-11.0952,-0.0028,-11.3553
177629,-107.0103,2.0196,-0.0116,0.1168,-120.4053,-0.4928,0.5477,2.7721,0.0015,3.0027,-11.0952,-0.0028,-11.3553
177645,-107.0103,2.0196,-0.0116,0.1168,-120.4053,-0.4928,0.5477,2.7721,0.0015,3.0027,-11.0952,-0.0028,-11.3553
177661,-107.0103,2.0196,-0.0116,0.1168,-120.4053,-0.4928,0.5477,2.7721,0.0015,3.0027,-11.0952,-0.0028,-11.3553
177677,-107.0103,2.0196,-0.0116,0.1168,-120.4053,-0.4928,0.5477,2.7721,0.0015,3.0027,-11.0952,-0.0028,-11.3553
177693,-107.0103,2.0196,-0.0116,0.1168,-120.4053,-0.4928,0.5477,2.7721,0.0015,3.0027,-11.0952,-0.0028,-11.3553
177709,-107.0103,2.0196,-0.0116,0.1168,-120.4053,-0.4928,0.5477,2.7721,0.0015,3.0027,-11.0952,-0.0028,-11.3553
177725,-107.0103,2.0196,-0.0116,0.1168,-120.4053,-0.4928,0.5477,2.7721,0.0015,3.0027,-11.0952,-0.0028,-11.3553
177741,-107.0103,2.0196,-0.0116,0.1168,-120.4053,-0.4928,0.5477,2.7721,0.0015,3.0027,-11.0952,-0.0028,-11.3553
177757,-107.0103,2.0196,-0.0116,0.1168,-120.4053,-0.4928,0.5477,2.7721,0.0015,3.0027,-11.0952,-0.0028,-11.3553
177773,-107.0103,2.0196,-0.0116,0.1168,-120.4053,-0.4928,0.5477,2.7721,0.0015,3.0027,-11.0952,-0.0028,-11.3553
177789,-107.0103,2.0196,-0.0116,0.1168,-120.4053,-0.4928,0.5477,2.7721,0.0015,3.0027,-11.0952,-0.0028,-11.3553
177805,-107.0103,2.0196,-0.0116,0.1168,-120.4053,-0.4928,0.5477,2.7721,0.0015,3.0027,-11.0952,-0.0028,-11.3553
177821,-107.0103,2.0196,-0.0116,0.1168,-120.4053,-0.4928,0.5477,2.7721,0.0015,3.0027,-11.0952,-0.0028,-11.3553
177837,-107.0103,2.0196,-0.0116,0.1168,-120.4053,-0.4928,0.5477,2.7721,0.0015,3.0027,-11.0952,-0.0028,-11.3553
177853,-107.0103,2.0196,-0.0116,0.1168,-120.4053,-0.4928,0.5477,2.7721,0.0015,3.0027,-11.0952,-0.0028,-11.3553
177873,-106.9421,2.2061,-0.0119,0.167,-120.9977,-0.4843,0.5995,1.2457,-0.0,0.1416,-4.1705,-0.0041,-3.7513
177885,-106.9421,2.2061,-0.0119,0.167,-120.9977,-0.4843,0.5995,1.2457,-0.0,0.1416,-4.1705,-0.0041,-3.7513
177901,-106.9421,2.2061,-0.0119,0.167,-120.9977,-0.4843,0.5995,1.2457,-0.0,0.1416,-4.1705,-0.0041,-3.7513
177917,-106.9421,2.2061,-0.0119,0.167,-120.9977,-0.4843,0.5995,1.2457,-0.0,0.1416,-4.1705,-0.0041,-3.7513
177933,-106.9421,2.2061,-0.0119,0.167,-120.9977,-0.4843,0.5995,1.2457,-0.0,0.1416,-4.1705,-0.0041,-3.7513
177949,-106.9421,2.2061,-0.0119,0.167,-120.9977,-0.4843,0.5995,1.2457,-0.0,0.1416,-4.1705,-0.0041,-3.7513
177965,-106.9421,2.2061,-0.0119,0.167,-120.9977,-0.4843,0.5995,1.2457,-0.0,0.1416,-4.1705,-0.0041,-3.7513
177981,-106.9421,2.2061,-0.0119,0.167,-120.9977,-0.4843,0.5995,1.2457,-0.0,0.1416,-4.1705,-0.0041,-3.7513
177997,-106.9421,2.2061,-0.0119,0.167,-120.9977,-0.4843,0.5995,1.2457,-0.0,0.1416,-4.1705,-0.0041,-3.7513
178013,-106.9421,2.2061,-0.0119,0.167,-120.9977,-0.4843,0.5995,1.2457,-0.0,0.1416,-4.1705,-0.0041,-3.7513
178029,-106.9421,2.2061,-0.0119,0.167,-120.9977,-0.4843,0.5995,1.2457,-0.0,0.1416,-4.1705,-0.0041,-3.7513
178045,-106.9421,2.2061,-0.0119,0.167,-120.9977,-0.4843,0.5995,1.2457,-0.0,0.1416,-4.1705,-0.0041,-3.7513
178061,-106.9421,2.2061,-0.0119,0.167,-120.9977,-0.4843,0.5995,1.2457,-0.0,0.1416,-4.1705,-0.0041,-3.7513
178077,-106.9421,2.2061,-0.0119,0.167,-120.9977,-0.4843,0.5995,1.2457,-0.0,0.1416,-4.1705,-0.0041,-3.7513
178093,-106.9421,2.2061,-0.0119,0.167,-120.9977,-0.4843,0.5995,1.2457,-0.0,0.1416,-4.1705,-0.0041,-3.7513
178109,-106.9421,2.2061,-0.0119,0.167,-120.9977,-0.4843,0.5995,1.2457,-0.0,0.1416,-4.1705,-0.0041,-3.7513
178125,-106.9421,2.2061,-0.0119,0.167,-120.9977,-0.4843,0.5995,1.2457,-0.0,0.1416,-4.1705,-0.0041,-3.7513
178141,-106.9421,2.2061,-0.0119,0.167,-120.9977,-0.4843,0.5995,1.2457,-0.0,0.1416,-4.1705,-0.0041,-3.7513
178157,-106.9421,2.2061,-0.0119,0.167,-120.9977,-0.4843,0.5995,1.2457,-0.0,0.1416,-4.1705,-0.0041,-3.7513
178173,-106.9421,2.2061,-0.0119,0.167,-120.9977,-0.4843,0.5995,1.2457,-0.0,0.1416,-4.1705,-0.0041,-3.7513
178250,-106.9421,2.2061,-0.0119,0.167,-120.9977,-0.4843,0.5995,1.2457,-0.0,0.1416,-4.1705,-0.0041,-3.7513
