timestamp,x,y,z,pitch,yaw,roll,vx,vy,vz,ax,ay,az,yaw_rate
117070,-106.6867,-4.8475,-0.0796,0.0,-89.3578,0.0,-0.0,-0.0,0.0696,-0.0,-0.0,6.6064,0.0
117086,-106.6867,-4.8475,-0.0796,0.0,-89.3578,0.0,-0.0,-0.0,0.0696,-0.0,-0.0,6.6064,0.0
117102,-106.6867,-4.8475,-0.0796,0.0,-89.3578,0.0,-0.0,-0.0,0.0696,-0.0,-0.0,6.6064,0.0
117118,-106.6867,-4.8475,-0.0796,0.0,-89.3578,0.0,-0.0,-0.0,0.0696,-0.0,-0.0,6.6064,0.0
117134,-106.6867,-4.8475,-0.0796,0.0,-89.3578,0.0,-0.0,-0.0,0.0696,-0.0,-0.0,6.6064,0.0
117150,-106.6867,-4.8475,-0.0796,0.0,-89.3578,0.0,-0.0,-0.0,0.0696,-0.0,-0.0,6.6064,0.0
117166,-106.6867,-4.8475,-0.0796,0.0,-89.3578,0.0,-0.0,-0.0,0.0696,-0.0,-0.0,6.6064,0.0
117182,-106.6867,-4.8475,-0.0796,0.0,-89.3578,0.0,-0.0,-0.0,0.0696,-0.0,-0.0,6.6064,0.0
117198,-106.6867,-4.8475,-0.0796,0.0,-89.3578,0.0,-0.0,-0.0,0.0696,-0.0,-0.0,6.6064,0.0
117214,-106.6867,-4.8475,-0.0796,0.0,-89.3578,0.0,-0.0,-0.0,0.0696,-0.0,-0.0,6.6064,0.0
117230,-106.6867,-4.8475,-0.0796,0.0,-89.3578,0.0,-0.0,-0.0,0.0696,-0.0,-0.0,6.6064,0.0
117246,-106.6867,-4.8475,-0.0796,0.0,-89.3578,0.0,-0.0,-0.0,0.0696,-0.0,-0.0,6.6064,0.0
117262,-106.6867,-4.8475,-0.0796,0.0,-89.3578,0.0,-0.0,-0.0,0.0696,-0.0,-0.0,6.6064,0.0
117278,-106.6867,-4.8475,-0.0796,0.0,-89.3578,0.0,-0.0,-0.0,0.0696,-0.0,-0.0,6.6064,0.0
117294,-106.6867,-4.8475,-0.0796,0.0,-89.3578,0.0,-0.0,-0.0,0.0696,-0.0,-0.0,6.6064,0.0
117310,-106.6867,-4.8475,-0.0796,0.0,-89.3578,0.0,-0.0,-0.0,0.0696,-0.0,-0.0,6.6064,0.0
117326,-106.6867,-4.8475,-0.0796,0.0,-89.3578,0.0,-0.0,-0.0,0.0696,-0.0,-0.0,6.6064,0.0
117342,-106.6867,-4.8475,-0.0796,0.0,-89.3578,0.0,-0.0,-0.0,0.0696,-0.0,-0.0,6.6064,0.0
117358,-106.6867,-4.8475,-0.0796,0.0,-89.3578,0.0,-0.0,-0.0,0.0696,-0.0,-0.0,6.6064,0.0
117374,-106.6867,-4.8475,-0.0796,0.0,-89.3578,0.0,-0.0,-0.0,0.0696,-0.0,-0.0,6.6064,0.0
117390,-106.6867,-4.8475,-0.0796,0.0,-89.3578,0.0,-0.0,-0.0,0.0696,-0.0,-0.0,6.6064,0.0
117406,-106.6867,-4.8475,-0.0796,0.0,-89.3578,0.0,-0.0,-0.0,0.0696,-0.0,-0.0,6.6064,0.0
117422,-106.6867,-4.8475,-0.0796,0.0,-89.3578,0.0,-0.0,-0.0,0.0696,-0.0,-0.0,6.6064,0.0
117438,-106.6867,-4.8475,-0.0796,0.0,-89.3578,0.0,-0.0,-0.0,0.0696,-0.0,-0.0,6.6064,0.0
117454,-106.6867,-4.8475,-0.0796,0.0,-89.3578,0.0,-0.0,-0.0,0.0696,-0.0,-0.0,6.6064,0.0
117470,-106.6867,-4.8475,-0.0796,0.0,-89.3578,0.0,-0.0,-0.0,0.0696,-0.0,-0.0,6.6064,0.0
117486,-106.6867,-4.8475,-0.0796,0.0,-89.3578,0.0,-0.0,-0.0,0.0696,-0.0,-0.0,6.6064,0.0
117502,-106.6867,-4.8475,-0.0796,0.0,-89.3578,0.0,-0.0,-0.0,0.0696,-0.0,-0.0,6.6064,0.0
117518,-106.6867,-4.8475,-0.0796,0.0,-89.3578,0.0,-0.0,-0.0,0.0696,-0.0,-0.0,6.6064,0.0
117534,-106.6867,-4.8475,-0.0796,0.0,-89.3578,0.0,-0.0,-0.0,0.0696,-0.0,-0.0,6.6064,0.0
117550,-106.6867,-4.8475,-0.0796,0.0,-89.3578,0.0,-0.0,-0.0,0.0696,-0.0,-0.0,6.6064,0.0
117566,-106.6867,-4.8475,-0.0796,0.0,-89.3578,0.0,-0.0,-0.0,0.0696,-0.0,-0.0,6.6064,0.0
117582,-106.6867,-4.8475,-0.0796,0.0,-89.3578,0.0,-0.0,-0.0,0.0696,-0.0,-0.0,6.6064,0.0
117598,-106.6867,-4.8475,-0.0796,0.0,-89.3578,0.0,-0.0,-0.0,0.0696,-0.0,-0.0,6.6064,0.0
117614,-106.6867,-4.8475,-0.0796,0.0,-89.3578,0.0,-0.0,-0.0,0.0696,-0.0,-0.0,6.6064,0.0
117630,-106.6867,-4.8475,-0.0796,0.0,-89.3578,0.0,-0.0,-0.0,0.0696,-0.0,-0.0,6.6064,0.0
117646,-106.6867,-4.8475,-0.0796,0.0,-89.3578,0.0,-0.0,-0.0,0.0696,-0.0,-0.0,6.6064,0.0
117662,-106.6867,-4.8475,-0.0796,0.0,-89.3578,0.0,-0.0,-0.0,0.0696,-0.0,-0.0,6.6064,0.0
117678,-106.6867,-4.8475,-0.0796,0.0,-89.3578,0.0,-0.0,-0.0,0.0696,-0.0,-0.0,6.6064,0.0
117694,-106.6867,-4.8475,-0.0796,0.0,-89.3578,0.0,-0.0,-0.0,0.0696,-0.0,-0.0,6.6064,0.0
117710,-106.6867,-4.8475,-0.0796,0.0,-89.3578,0.0,-0.0,-0.0,0.0696,-0.0,-0.0,6.6064,0.0
117726,-106.6867,-4.8475,-0.0796,0.0,-89.3578,0.0,-0.0,-0.0,0.0696,-0.0,-0.0,6.6064,0.0
117742,-106.6867,-4.8456,-0.0597,-0.0017,-89.3578,0.0,-0.0005,0.0423,0.2369,-0.0012,0.1057,0.4181,0.0001
117758,-106.6867,-4.8456,-0.0597,-0.0017,-89.3578,0.0,-0.0005,0.0423,0.2369,-0.0012,0.1057,0.4181,0.0001
117774,-106.6867,-4.8456,-0.0597,-0.0017,-89.3578,0.0,-0.0005,0.0423,0.2369,-0.0012,0.1057,0.4181,0.0001
117790,-106.6867,-4.8456,-0.0597,-0.0017,-89.3578,0.0,-0.0005,0.0423,0.2369,-0.0012,0.1057,0.4181,0.0001
117806,-106.6867,-4.8456,-0.0597,-0.0017,-89.3578,0.0,-0.0005,0.0423,0.2369,-0.0012,0.1057,0.4181,0.0001
117822,-106.6867,-4.8456,-0.0597,-0.0017,-89.3578,0.0,-0.0005,0.0423,0.2369,-0.0012,0.1057,0.4181,0.0001
117838,-106.6867,-4.8456,-0.0597,-0.0017,-89.3578,0.0,-0.0005,0.0423,0.2369,-0.0012,0.1057,0.4181,0.0001
117854,-106.6867,-4.8456,-0.0597,-0.0017,-89.3578,0.0,-0.0005,0.0423,0.2369,-0.0012,0.1057,0.4181,0.0001
117870,-106.6867,-4.8456,-0.0597,-0.0017,-89.3578,0.0,-0.0005,0.0423,0.2369,-0.0012,0.1057,0.4181,0.0001
117890,-106.6868,-4.8406,-0.0387,-0.0051,-89.3578,0.0,-0.0012,0.1108,0.1759,-0.0053,0.4718,-0.4198,-0.0053
117902,-106.6868,-4.8406,-0.0387,-0.0051,-89.3578,0.0,-0.0012,0.1108,0.1759,-0.0053,0.4718,-0.4198,-0.0053
117918,-106.6868,-4.8406,-0.0387,-0.0051,-89.3578,0.0,-0.0012,0.1108,0.1759,-0.0053,0.4718,-0.4198,-0.0053
117934,-106.6868,-4.8406,-0.0387,-0.0051,-89.3578,0.0,-0.0012,0.1108,0.1759,-0.0053,0.4718,-0.4198,-0.0053
117950,-106.6868,-4.8406,-0.0387,-0.0051,-89.3578,0.0,-0.0012,0.1108,0.1759,-0.0053,0.4718,-0.4198,-0.0053
117966,-106.6868,-4.8406,-0.0387,-0.0051,-89.3578,0.0,-0.0012,0.1108,0.1759,-0.0053,0.4718,-0.4198,-0.0053
117982,-106.6872,-4.804,-0.0254,-0.0291,-89.3557,0.0,-0.0068,0.5996,0.1032,-0.0569,5.0022,-0.7445,0.0145
117998,-106.6872,-4.804,-0.0254,-0.0291,-89.3557,0.0,-0.0068,0.5996,0.1032,-0.0569,5.0022,-0.7445,0.0145
118014,-106.6872,-4.804,-0.0254,-0.0291,-89.3557,0.0,-0.0068,0.5996,0.1032,-0.0569,5.0022,-0.7445,0.0145
118030,-106.6872,-4.804,-0.0254,-0.0291,-89.3557,0.0,-0.0068,0.5996,0.1032,-0.0569,5.0022,-0.7445,0.0145
118046,-106.6872,-4.804,-0.0254,-0.0291,-89.3557,0.0,-0.0068,0.5996,0.1032,-0.0569,5.0022,-0.7445,0.0145
118062,-106.6872,-4.804,-0.0254,-0.0291,-89.3557,0.0,-0.0068,0.5996,0.1032,-0.0569,5.0022,-0.7445,0.0145
118078,-106.6872,-4.804,-0.0254,-0.0291,-89.3557,0.0,-0.0068,0.5996,0.1032,-0.0569,5.0022,-0.7445,0.0145
118094,-106.6882,-4.7192,-0.0179,-0.0488,-89.3558,0.0,-0.0109,0.9683,0.0536,-0.04,3.6046,-0.4847,-0.055
118110,-106.6882,-4.7192,-0.0179,-0.0488,-89.3558,0.0,-0.0109,0.9683,0.0536,-0.04,3.6046,-0.4847,-0.055
118126,-106.6882,-4.7192,-0.0179,-0.0488,-89.3558,0.0,-0.0109,0.9683,0.0536,-0.04,3.6046,-0.4847,-0.055
118142,-106.6882,-4.7192,-0.0179,-0.0488,-89.3558,0.0,-0.0109,0.9683,0.0536,-0.04,3.6046,-0.4847,-0.055
118158,-106.6882,-4.7192,-0.0179,-0.0488,-89.3558,0.0,-0.0109,0.9683,0.0536,-0.04,3.6046,-0.4847,-0.055
118174,-106.6882,-4.7192,-0.0179,-0.0488,-89.3558,0.0,-0.0109,0.9683,0.0536,-0.04,3.6046,-0.4847,-0.055
118190,-106.6893,-4.6187,-0.014,-0.038,-89.3576,0.0,-0.012,1.0447,0.0319,-0.0108,0.7612,-0.2162,-0.5766
118206,-106.6893,-4.6187,-0.014,-0.038,-89.3576,0.0,-0.012,1.0447,0.0319,-0.0108,0.7612,-0.2162,-0.5766
118222,-106.6893,-4.6187,-0.014,-0.038,-89.3576,0.0,-0.012,1.0447,0.0319,-0.0108,0.7612,-0.2162,-0.5766
118238,-106.6893,-4.6187,-0.014,-0.038,-89.3576,0.0,-0.012,1.0447,0.0319,-0.0108,0.7612,-0.2162,-0.5766
118254,-106.6893,-4.6187,-0.014,-0.038,-89.3576,0.0,-0.012,1.0447,0.0319,-0.0108,0.7612,-0.2162,-0.5766
118270,-106.6893,-4.6187,-0.014,-0.038,-89.3576,0.0,-0.012,1.0447,0.0319,-0.0108,0.7612,-0.2162,-0.5766
118286,-106.6912,-4.5069,-0.0122,-0.0283,-89.2889,0.0005,-0.0145,1.1584,0.0116,-0.0258,1.1464,-0.2048,3.7194
118302,-106.6912,-4.5069,-0.0122,-0.0283,-89.2889,0.0005,-0.0145,1.1584,0.0116,-0.0258,1.1464,-0.2048,3.7194
118318,-106.6912,-4.5069,-0.0122,-0.0283,-89.2889,0.0005,-0.0145,1.1584,0.0116,-0.0258,1.1464,-0.2048,3.7194
118334,-106.6912,-4.5069,-0.0122,-0.0283,-89.2889,0.0005,-0.0145,1.1584,0.0116,-0.0258,1.1464,-0.2048,3.7194
118350,-106.6912,-4.5069,-0.0122,-0.0283,-89.2889,0.0005,-0.0145,1.1584,0.0116,-0.0258,1.1464,-0.2048,3.7194
118366,-106.6912,-4.5069,-0.0122,-0.0283,-89.2889,0.0005,-0.0145,1.1584,0.0116,-0.0258,1.1464,-0.2048,3.7194
118387,-106.6922,-4.3809,-0.0114,-0.034,-89.3526,0.0003,-0.0215,1.4371,0.0046,-0.0686,2.7539,-0.069,0.5261
118398,-106.6922,-4.3809,-0.0114,-0.034,-89.3526,0.0003,-0.0215,1.4371,0.0046,-0.0686,2.7539,-0.069,0.5261
118414,-106.6922,-4.3809,-0.0114,-0.034,-89.3526,0.0003,-0.0215,1.4371,0.0046,-0.0686,2.7539,-0.069,0.5261
118430,-106.6922,-4.3809,-0.0114,-0.034,-89.3526,0.0003,-0.0215,1.4371,0.0046,-0.0686,2.7539,-0.069,0.5261
118446,-106.6922,-4.3809,-0.0114,-0.034,-89.3526,0.0003,-0.0215,1.4371,0.0046,-0.0686,2.7539,-0.069,0.5261
118462,-106.6922,-4.3809,-0.0114,-0.034,-89.3526,0.0003,-0.0215,1.4371,0.0046,-0.0686,2.7539,-0.069,0.5261
118478,-106.6922,-4.3809,-0.0114,-0.034,-89.3526,0.0003,-0.0215,1.4371,0.0046,-0.0686,2.7539,-0.069,0.5261
118494,-106.6937,-4.2034,-0.011,-0.0547,-89.419,-0.0005,-0.0197,2.0334,0.002,0.0173,5.9057,-0.0261,-3.8049
118510,-106.6937,-4.2034,-0.011,-0.0547,-89.419,-0.0005,-0.0197,2.0334,0.002,0.0173,5.9057,-0.0261,-3.8049
118526,-106.6937,-4.2034,-0.011,-0.0547,-89.419,-0.0005,-0.0197,2.0334,0.002,0.0173,5.9057,-0.0261,-3.8049
118542,-106.6937,-4.2034,-0.011,-0.0547,-89.419,-0.0005,-0.0197,2.0334,0.002,0.0173,5.9057,-0.0261,-3.8049
118558,-106.6937,-4.2034,-0.011,-0.0547,-89.419,-0.0005,-0.0197,2.0334,0.002,0.0173,5.9057,-0.0261,-3.8049
118574,-106.6937,-4.2034,-0.011,-0.0547,-89.419,-0.0005,-0.0197,2.0334,0.002,0.0173,5.9057,-0.0261,-3.8049
118590,-106.6977,-3.9715,-0.0108,-0.0701,-89.3732,0.0011,-0.0335,2.4617,0.0009,-0.1382,4.3077,-0.0107,-0.9888
118606,-106.6977,-3.9715,-0.0108,-0.0701,-89.3732,0.0011,-0.0335,2.4617,0.0009,-0.1382,4.3077,-0.0107,-0.9888
118622,-106.6977,-3.9715,-0.0108,-0.0701,-89.3732,0.0011,-0.0335,2.4617,0.0009,-0.1382,4.3077,-0.0107,-0.9888
118638,-106.6977,-3.9715,-0.0108,-0.0701,-89.3732,0.0011,-0.0335,2.4617,0.0009,-0.1382,4.3077,-0.0107,-0.9888
118654,-106.6977,-3.9715,-0.0108,-0.0701,-89.3732,0.0011,-0.0335,2.4617,0.0009,-0.1382,4.3077,-0.0107,-0.9888
118670,-106.6977,-3.9715,-0.0108,-0.0701,-89.3732,0.0011,-0.0335,2.4617,0.0009,-0.1382,4.3077,-0.0107,-0.9888
118686,-106.7015,-3.6793,-0.0106,-0.0832,-89.3443,-0.0003,-0.0377,3.1574,0.0004,-0.0426,7.0299,-0.0048,1.3834
118702,-106.7015,-3.6793,-0.0106,-0.0832,-89.3443,-0.0003,-0.0377,3.1574,0.0004,-0.0426,7.0299,-0.0048,1.3834
118718,-106.7015,-3.6793,-0.0106,-0.0832,-89.3443,-0.0003,-0.0377,3.1574,0.0004,-0.0426,7.0299,-0.0048,1.3834
118734,-106.7015,-3.6793,-0.0106,-0.0832,-89.3443,-0.0003,-0.0377,3.1574,0.0004,-0.0426,7.0299,-0.0048,1.3834
118750,-106.7015,-3.6793,-0.0106,-0.0832,-89.3443,-0.0003,-0.0377,3.1574,0.0004,-0.0426,7.0299,-0.0048,1.3834
118766,-106.7015,-3.6793,-0.0106,-0.0832,-89.3443,-0.0003,-0.0377,3.1574,0.0004,-0.0426,7.0299,-0.0048,1.3834
118792,-106.7059,-3.3344,-0.0106,-0.0842,-89.3149,0.0004,-0.0463,3.633,0.0002,-0.084,4.6237,-0.0021,-0.1457
118798,-106.7059,-3.3344,-0.0106,-0.0842,-89.3149,0.0004,-0.0463,3.633,0.0002,-0.084,4.6237,-0.0021,-0.1457
118814,-106.7059,-3.3344,-0.0106,-0.0842,-89.3149,0.0004,-0.0463,3.633,0.0002,-0.084,4.6237,-0.0021,-0.1457
118830,-106.7059,-3.3344,-0.0106,-0.0842,-89.3149,0.0004,-0.0463,3.633,0.0002,-0.084,4.6237,-0.0021,-0.1457
118846,-106.7059,-3.3344,-0.0106,-0.0842,-89.3149,0.0004,-0.0463,3.633,0.0002,-0.084,4.6237,-0.0021,-0.1457
118862,-106.7059,-3.3344,-0.0106,-0.0842,-89.3149,0.0004,-0.0463,3.633,0.0002,-0.084,4.6237,-0.0021,-0.1457
118878,-106.7059,-3.3344,-0.0106,-0.0842,-89.3149,0.0004,-0.0463,3.633,0.0002,-0.084,4.6237,-0.0021,-0.1457
118903,-106.7116,-2.9353,-0.0106,-0.0823,-89.2519,0.0007,-0.0526,4.087,0.0001,-0.0562,4.0645,-0.0011,0.2331
118910,-106.7116,-2.9353,-0.0106,-0.0823,-89.2519,0.0007,-0.0526,4.087,0.0001,-0.0562,4.0645,-0.0011,0.2331
118926,-106.7116,-2.9353,-0.0106,-0.0823,-89.2519,0.0007,-0.0526,4.087,0.0001,-0.0562,4.0645,-0.0011,0.2331
118942,-106.7116,-2.9353,-0.0106,-0.0823,-89.2519,0.0007,-0.0526,4.087,0.0001,-0.0562,4.0645,-0.0011,0.2331
118958,-106.7116,-2.9353,-0.0106,-0.0823,-89.2519,0.0007,-0.0526,4.087,0.0001,-0.0562,4.0645,-0.0011,0.2331
118974,-106.7116,-2.9353,-0.0106,-0.0823,-89.2519,0.0007,-0.0526,4.087,0.0001,-0.0562,4.0645,-0.0011,0.2331
118990,-106.7116,-2.9353,-0.0106,-0.0823,-89.2519,0.0007,-0.0526,4.087,0.0001,-0.0562,4.0645,-0.0011,0.2331
119010,-106.716,-2.4959,-0.0106,-0.0763,-89.3752,-0.0011,-0.0506,4.5569,0.0,0.0192,4.4596,-0.0004,-1.9138
119022,-106.716,-2.4959,-0.0106,-0.0763,-89.3752,-0.0011,-0.0506,4.5569,0.0,0.0192,4.4596,-0.0004,-1.9138
119038,-106.716,-2.4959,-0.0106,-0.0763,-89.3752,-0.0011,-0.0506,4.5569,0.0,0.0192,4.4596,-0.0004,-1.9138
119054,-106.716,-2.4959,-0.0106,-0.0763,-89.3752,-0.0011,-0.0506,4.5569,0.0,0.0192,4.4596,-0.0004,-1.9138
119070,-106.716,-2.4959,-0.0106,-0.0763,-89.3752,-0.0011,-0.0506,4.5569,0.0,0.0192,4.4596,-0.0004,-1.9138
119086,-106.716,-2.4959,-0.0106,-0.0763,-89.3752,-0.0011,-0.0506,4.5569,0.0,0.0192,4.4596,-0.0004,-1.9138
119107,-106.7206,-2.0081,-0.0106,-0.0825,-89.4395,-0.0022,-0.0512,5.1659,0.0,-0.0065,6.1531,-0.0,-0.7263
119118,-106.7206,-2.0081,-0.0106,-0.0825,-89.4395,-0.0022,-0.0512,5.1659,0.0,-0.0065,6.1531,-0.0,-0.7263
119134,-106.7206,-2.0081,-0.0106,-0.0825,-89.4395,-0.0022,-0.0512,5.1659,0.0,-0.0065,6.1531,-0.0,-0.7263
119150,-106.7206,-2.0081,-0.0106,-0.0825,-89.4395,-0.0022,-0.0512,5.1659,0.0,-0.0065,6.1531,-0.0,-0.7263
119166,-106.7206,-2.0081,-0.0106,-0.0825,-89.4395,-0.0022,-0.0512,5.1659,0.0,-0.0065,6.1531,-0.0,-0.7263
119182,-106.7206,-2.0081,-0.0106,-0.0825,-89.4395,-0.0022,-0.0512,5.1659,0.0,-0.0065,6.1531,-0.0,-0.7263
119198,-106.7206,-2.0081,-0.0106,-0.0825,-89.4395,-0.0022,-0.0512,5.1659,0.0,-0.0065,6.1531,-0.0,-0.7263
119214,-106.7254,-1.4508,-0.0105,-0.0932,-89.4865,-0.0021,-0.0529,5.8342,0.0,-0.0165,6.5443,-0.0004,-0.1805
119230,-106.7254,-1.4508,-0.0105,-0.0932,-89.4865,-0.0021,-0.0529,5.8342,0.0,-0.0165,6.5443,-0.0004,-0.1805
119246,-106.7254,-1.4508,-0.0105,-0.0932,-89.4865,-0.0021,-0.0529,5.8342,0.0,-0.0165,6.5443,-0.0004,-0.1805
119262,-106.7254,-1.4508,-0.0105,-0.0932,-89.4865,-0.0021,-0.0529,5.8342,0.0,-0.0165,6.5443,-0.0004,-0.1805
119278,-106.7254,-1.4508,-0.0105,-0.0932,-89.4865,-0.0021,-0.0529,5.8342,0.0,-0.0165,6.5443,-0.0004,-0.1805
119294,-106.7254,-1.4508,-0.0105,-0.0932,-89.4865,-0.0021,-0.0529,5.8342,0.0,-0.0165,6.5443,-0.0004,-0.1805
119310,-106.7312,-0.8283,-0.0104,-0.1042,-89.4753,-0.0014,-0.0601,6.5777,-0.0,-0.0722,7.4931,-0.0,0.1424
119326,-106.7312,-0.8283,-0.0104,-0.1042,-89.4753,-0.0014,-0.0601,6.5777,-0.0,-0.0722,7.4931,-0.0,0.1424
119342,-106.7312,-0.8283,-0.0104,-0.1042,-89.4753,-0.0014,-0.0601,6.5777,-0.0,-0.0722,7.4931,-0.0,0.1424
119358,-106.7312,-0.8283,-0.0104,-0.1042,-89.4753,-0.0014,-0.0601,6.5777,-0.0,-0.0722,7.4931,-0.0,0.1424
119374,-106.7312,-0.8283,-0.0104,-0.1042,-89.4753,-0.0014,-0.0601,6.5777,-0.0,-0.0722,7.4931,-0.0,0.1424
119390,-106.7312,-0.8283,-0.0104,-0.1042,-89.4753,-0.0014,-0.0601,6.5777,-0.0,-0.0722,7.4931,-0.0,0.1424
119410,-106.7374,-0.1252,-0.0103,-0.1128,-89.4924,-0.001,-0.0657,7.331,-0.0,-0.0529,7.1248,-0.0,-0.4338
119422,-106.7374,-0.1252,-0.0103,-0.1128,-89.4924,-0.001,-0.0657,7.331,-0.0,-0.0529,7.1248,-0.0,-0.4338
119438,-106.7374,-0.1252,-0.0103,-0.1128,-89.4924,-0.001,-0.0657,7.331,-0.0,-0.0529,7.1248,-0.0,-0.4338
119454,-106.7374,-0.1252,-0.0103,-0.1128,-89.4924,-0.001,-0.0657,7.331,-0.0,-0.0529,7.1248,-0.0,-0.4338
119470,-106.7374,-0.1252,-0.0103,-0.1128,-89.4924,-0.001,-0.0657,7.331,-0.0,-0.0529,7.1248,-0.0,-0.4338
119486,-106.7374,-0.1252,-0.0103,-0.1128,-89.4924,-0.001,-0.0657,7.331,-0.0,-0.0529,7.1248,-0.0,-0.4338
119502,-106.7374,-0.1252,-0.0103,-0.1128,-89.4924,-0.001,-0.0657,7.331,-0.0,-0.0529,7.1248,-0.0,-0.4338
119518,-106.7445,0.6502,-0.0103,-0.1147,-89.4788,-0.0005,-0.0725,8.031,-0.0,-0.065,6.6959,-0.0002,0.3719
119534,-106.7445,0.6502,-0.0103,-0.1147,-89.4788,-0.0005,-0.0725,8.031,-0.0,-0.065,6.6959,-0.0002,0.3719
119550,-106.7445,0.6502,-0.0103,-0.1147,-89.4788,-0.0005,-0.0725,8.031,-0.0,-0.065,6.6959,-0.0002,0.3719
119566,-106.7445,0.6502,-0.0103,-0.1147,-89.4788,-0.0005,-0.0725,8.031,-0.0,-0.065,6.6959,-0.0002,0.3719
119582,-106.7445,0.6502,-0.0103,-0.1147,-89.4788,-0.0005,-0.0725,8.031,-0.0,-0.065,6.6959,-0.0002,0.3719
119598,-106.7445,0.6502,-0.0103,-0.1147,-89.4788,-0.0005,-0.0725,8.031,-0.0,-0.065,6.6959,-0.0002,0.3719
119620,-106.7518,1.4719,-0.0103,-0.1132,-89.4871,-0.0003,-0.0781,8.6958,0.0,-0.0577,6.8131,0.0002,-0.1117
119630,-106.7518,1.4719,-0.0103,-0.1132,-89.4871,-0.0003,-0.0781,8.6958,0.0,-0.0577,6.8131,0.0002,-0.1117
119646,-106.7518,1.4719,-0.0103,-0.1132,-89.4871,-0.0003,-0.0781,8.6958,0.0,-0.0577,6.8131,0.0002,-0.1117
119662,-106.7518,1.4719,-0.0103,-0.1132,-89.4871,-0.0003,-0.0781,8.6958,0.0,-0.0577,6.8131,0.0002,-0.1117
119678,-106.7518,1.4719,-0.0103,-0.1132,-89.4871,-0.0003,-0.0781,8.6958,0.0,-0.0577,6.8131,0.0002,-0.1117
119694,-106.7518,1.4719,-0.0103,-0.1132,-89.4871,-0.0003,-0.0781,8.6958,0.0,-0.0577,6.8131,0.0002,-0.1117
119710,-106.7518,1.4719,-0.0103,-0.1132,-89.4871,-0.0003,-0.0781,8.6958,0.0,-0.0577,6.8131,0.0002,-0.1117
119736,-106.7599,2.3738,-0.0104,-0.1053,-89.4841,-0.0002,-0.083,9.2301,-0.0,-0.0416,4.5282,-0.0,0.0612
119742,-106.7599,2.3738,-0.0104,-0.1053,-89.4841,-0.0002,-0.083,9.2301,-0.0,-0.0416,4.5282,-0.0,0.0612
119758,-106.7599,2.3738,-0.0104,-0.1053,-89.4841,-0.0002,-0.083,9.2301,-0.0,-0.0416,4.5282,-0.0,0.0612
119774,-106.7599,2.3738,-0.0104,-0.1053,-89.4841,-0.0002,-0.083,9.2301,-0.0,-0.0416,4.5282,-0.0,0.0612
119790,-106.7599,2.3738,-0.0104,-0.1053,-89.4841,-0.0002,-0.083,9.2301,-0.0,-0.0416,4.5282,-0.0,0.0612
119806,-106.7599,2.3738,-0.0104,-0.1053,-89.4841,-0.0002,-0.083,9.2301,-0.0,-0.0416,4.5282,-0.0,0.0612
119822,-106.7599,2.3738,-0.0104,-0.1053,-89.4841,-0.0002,-0.083,9.2301,-0.0,-0.0416,4.5282,-0.0,0.0612
119838,-106.7685,3.3265,-0.0105,-0.096,-89.4853,-0.0001,-0.0875,9.7405,-0.0,-0.0417,4.6856,-0.0,-0.0087
119854,-106.7685,3.3265,-0.0105,-0.096,-89.4853,-0.0001,-0.0875,9.7405,-0.0,-0.0417,4.6856,-0.0,-0.0087
119870,-106.7685,3.3265,-0.0105,-0.096,-89.4853,-0.0001,-0.0875,9.7405,-0.0,-0.0417,4.6856,-0.0,-0.0087
119886,-106.7685,3.3265,-0.0105,-0.096,-89.4853,-0.0001,-0.0875,9.7405,-0.0,-0.0417,4.6856,-0.0,-0.0087
119902,-106.7685,3.3265,-0.0105,-0.096,-89.4853,-0.0001,-0.0875,9.7405,-0.0,-0.0417,4.6856,-0.0,-0.0087
119918,-106.7685,3.3265,-0.0105,-0.096,-89.4853,-0.0001,-0.0875,9.7405,-0.0,-0.0417,4.6856,-0.0,-0.0087
119939,-106.7775,4.3298,-0.0105,-0.0904,-89.4851,-0.0001,-0.0921,10.247,-0.0,-0.0453,5.047,0.0,-0.0001
119950,-106.7775,4.3298,-0.0105,-0.0904,-89.4851,-0.0001,-0.0921,10.247,-0.0,-0.0453,5.047,0.0,-0.0001
119966,-106.7775,4.3298,-0.0105,-0.0904,-89.4851,-0.0001,-0.0921,10.247,-0.0,-0.0453,5.047,0.0,-0.0001
119982,-106.7775,4.3298,-0.0105,-0.0904,-89.4851,-0.0001,-0.0921,10.247,-0.0,-0.0453,5.047,0.0,-0.0001
119998,-106.7775,4.3298,-0.0105,-0.0904,-89.4851,-0.0001,-0.0921,10.247,-0.0,-0.0453,5.047,0.0,-0.0001
120014,-106.7775,4.3298,-0.0105,-0.0904,-89.4851,-0.0001,-0.0921,10.247,-0.0,-0.0453,5.047,0.0,-0.0001
120030,-106.7775,4.3298,-0.0105,-0.0904,-89.4851,-0.0001,-0.0921,10.247,-0.0,-0.0453,5.047,0.0,-0.0001
120051,-106.787,5.382,-0.0105,-0.0857,-89.4851,-0.0,-0.0963,10.7199,0.0,-0.0396,4.4029,0.0001,-0.0001
120062,-106.787,5.382,-0.0105,-0.0857,-89.4851,-0.0,-0.0963,10.7199,0.0,-0.0396,4.4029,0.0001,-0.0001
120094,-106.787,5.382,-0.0105,-0.0857,-89.4851,-0.0,-0.0963,10.7199,0.0,-0.0396,4.4029,0.0001,-0.0001
120110,-106.787,5.382,-0.0105,-0.0857,-89.4851,-0.0,-0.0963,10.7199,0.0,-0.0396,4.4029,0.0001,-0.0001
120126,-106.787,5.382,-0.0105,-0.0857,-89.4851,-0.0,-0.0963,10.7199,0.0,-0.0396,4.4029,0.0001,-0.0001
120148,-106.8261,6.4709,-0.0106,-0.0707,-90.8639,0.1227,-0.9175,10.9526,0.001,-8.128,2.3039,0.0095,-29.9598
120158,-106.8261,6.4709,-0.0106,-0.0707,-90.8639,0.1227,-0.9175,10.9526,0.001,-8.128,2.3039,0.0095,-29.9598
120174,-106.8261,6.4709,-0.0106,-0.0707,-90.8639,0.1227,-0.9175,10.9526,0.001,-8.128,2.3039,0.0095,-29.9598
120190,-106.8261,6.4709,-0.0106,-0.0707,-90.8639,0.1227,-0.9175,10.9526,0.001,-8.128,2.3039,0.0095,-29.9598
120206,-106.8261,6.4709,-0.0106,-0.0707,-90.8639,0.1227,-0.9175,10.9526,0.001,-8.128,2.3039,0.0095,-29.9598
120222,-106.8261,6.4709,-0.0106,-0.0707,-90.8639,0.1227,-0.9175,10.9526,0.001,-8.128,2.3039,0.0095,-29.9598
120238,-106.8261,6.4709,-0.0106,-0.0707,-90.8639,0.1227,-0.9175,10.9526,0.001,-8.128,2.3039,0.0095,-29.9598
120254,-106.9298,7.5461,-0.0108,-0.0337,-96.301,0.2556,-1.8304,10.8597,0.0011,-9.2484,-0.9415,0.0009,-76.7412
120270,-106.9298,7.5461,-0.0108,-0.0337,-96.301,0.2556,-1.8304,10.8597,0.0011,-9.2484,-0.9415,0.0009,-76.7412
120286,-106.9298,7.5461,-0.0108,-0.0337,-96.301,0.2556,-1.8304,10.8597,0.0011,-9.2484,-0.9415,0.0009,-76.7412
120302,-106.9298,7.5461,-0.0108,-0.0337,-96.301,0.2556,-1.8304,10.8597,0.0011,-9.2484,-0.9415,0.0009,-76.7412
120318,-106.9298,7.5461,-0.0108,-0.0337,-96.301,0.2556,-1.8304,10.8597,0.0011,-9.2484,-0.9415,0.0009,-76.7412
120334,-106.9298,7.5461,-0.0108,-0.0337,-96.301,0.2556,-1.8304,10.8597,0.0011,-9.2484,-0.9415,0.0009,-76.7412
120355,-107.066,8.6079,-0.0109,-0.0015,-106.869,0.2531,-2.2681,10.6997,-0.0001,-4.2692,-1.5599,-0.0111,-128.9805
120366,-107.066,8.6079,-0.0109,-0.0015,-106.869,0.2531,-2.2681,10.6997,-0.0001,-4.2692,-1.5599,-0.0111,-128.9805
120382,-107.066,8.6079,-0.0109,-0.0015,-106.869,0.2531,-2.2681,10.6997,-0.0001,-4.2692,-1.5599,-0.0111,-128.9805
120398,-107.066,8.6079,-0.0109,-0.0015,-106.869,0.2531,-2.2681,10.6997,-0.0001,-4.2692,-1.5599,-0.0111,-128.9805
120414,-107.066,8.6079,-0.0109,-0.0015,-106.869,0.2531,-2.2681,10.6997,-0.0001,-4.2692,-1.5599,-0.0111,-128.9805
120430,-107.066,8.6079,-0.0109,-0.0015,-106.869,0.2531,-2.2681,10.6997,-0.0001,-4.2692,-1.5599,-0.0111,-128.9805
120454,-107.1755,9.6225,-0.0098,-0.0729,-122.4992,0.0587,-1.8704,10.7013,-0.0096,3.9963,0.0158,-0.0953,-174.0527
120462,-107.1755,9.6225,-0.0098,-0.0729,-122.4992,0.0587,-1.8704,10.7013,-0.0096,3.9963,0.0158,-0.0953,-174.0527
120478,-107.1755,9.6225,-0.0098,-0.0729,-122.4992,0.0587,-1.8704,10.7013,-0.0096,3.9963,0.0158,-0.0953,-174.0527
120494,-107.1755,9.6225,-0.0098,-0.0729,-122.4992,0.0587,-1.8704,10.7013,-0.0096,3.9963,0.0158,-0.0953,-174.0527
120510,-107.1755,9.6225,-0.0098,-0.0729,-122.4992,0.0587,-1.8704,10.7013,-0.0096,3.9963,0.0158,-0.0953,-174.0527
120526,-107.1755,9.6225,-0.0098,-0.0729,-122.4992,0.0587,-1.8704,10.7013,-0.0096,3.9963,0.0158,-0.0953,-174.0527
120542,-107.1755,9.6225,-0.0098,-0.0729,-122.4992,0.0587,-1.8704,10.7013,-0.0096,3.9963,0.0158,-0.0953,-174.0527
120563,-107.1689,10.6068,-0.0099,-0.1184,-141.3098,-0.1579,-0.086,10.7679,-0.0016,15.5959,0.5818,0.0692,-196.0859
120574,-107.1689,10.6068,-0.0099,-0.1184,-141.3098,-0.1579,-0.086,10.7679,-0.0016,15.5959,0.5818,0.0692,-196.0859
120590,-107.1689,10.6068,-0.0099,-0.1184,-141.3098,-0.1579,-0.086,10.7679,-0.0016,15.5959,0.5818,0.0692,-196.0859
120606,-107.1689,10.6068,-0.0099,-0.1184,-141.3098,-0.1579,-0.086,10.7679,-0.0016,15.5959,0.5818,0.0692,-196.0859
120622,-107.1689,10.6068,-0.0099,-0.1184,-141.3098,-0.1579,-0.086,10.7679,-0.0016,15.5959,0.5818,0.0692,-196.0859
120638,-107.1689,10.6068,-0.0099,-0.1184,-141.3098,-0.1579,-0.086,10.7679,-0.0016,15.5959,0.5818,0.0692,-196.0859
120654,-107.1689,10.6068,-0.0099,-0.1184,-141.3098,-0.1579,-0.086,10.7679,-0.0016,15.5959,0.5818,0.0692,-196.0859
120675,-106.9813,11.5278,-0.0092,-0.2147,-161.4733,-0.3903,2.2041,10.193,0.0008,21.1593,-5.3114,0.0229,-205.1864
120702,-106.9813,11.5278,-0.0092,-0.2147,-161.4733,-0.3903,2.2041,10.193,0.0008,21.1593,-5.3114,0.0229,-205.1864
120718,-106.9813,11.5278,-0.0092,-0.2147,-161.4733,-0.3903,2.2041,10.193,0.0008,21.1593,-5.3114,0.0229,-205.1864
120734,-106.9813,11.5278,-0.0092,-0.2147,-161.4733,-0.3903,2.2041,10.193,0.0008,21.1593,-5.3114,0.0229,-205.1864
120750,-106.9813,11.5278,-0.0092,-0.2147,-161.4733,-0.3903,2.2041,10.193,0.0008,21.1593,-5.3114,0.0229,-205.1864
120771,-106.6495,12.2861,-0.0087,-0.262,178.2769,-0.6436,3.6888,8.1636,0.0018,15.035,-20.5522,0.0094,-202.6981
120782,-106.6495,12.2861,-0.0087,-0.262,178.2769,-0.6436,3.6888,8.1636,0.0018,15.035,-20.5522,0.0094,-202.6981
120798,-106.6495,12.2861,-0.0087,-0.262,178.2769,-0.6436,3.6888,8.1636,0.0018,15.035,-20.5522,0.0094,-202.6981
120814,-106.6495,12.2861,-0.0087,-0.262,178.2769,-0.6436,3.6888,8.1636,0.0018,15.035,-20.5522,0.0094,-202.6981
120830,-106.6495,12.2861,-0.0087,-0.262,178.2769,-0.6436,3.6888,8.1636,0.0018,15.035,-20.5522,0.0094,-202.6981
120846,-106.6495,12.2861,-0.0087,-0.262,178.2769,-0.6436,3.6888,8.1636,0.0018,15.035,-20.5522,0.0094,-202.6981
120870,-106.3647,12.8091,-0.0091,-0.1902,160.7079,-0.8395,2.7073,6.1376,-0.0043,-10.5553,-21.7877,-0.0657,-176.6632
120878,-106.3647,12.8091,-0.0091,-0.1902,160.7079,-0.8395,2.7073,6.1376,-0.0043,-10.5553,-21.7877,-0.0657,-176.6632
120894,-106.3647,12.8091,-0.0091,-0.1902,160.7079,-0.8395,2.7073,6.1376,-0.0043,-10.5553,-21.7877,-0.0657,-176.6632
120910,-106.3647,12.8091,-0.0091,-0.1902,160.7079,-0.8395,2.7073,6.1376,-0.0043,-10.5553,-21.7877,-0.0657,-176.6632
120926,-106.3647,12.8091,-0.0091,-0.1902,160.7079,-0.8395,2.7073,6.1376,-0.0043,-10.5553,-21.7877,-0.0657,-176.6632
120942,-106.3647,12.8091,-0.0091,-0.1902,160.7079,-0.8395,2.7073,6.1376,-0.0043,-10.5553,-21.7877,-0.0657,-176.6632
120958,-106.3647,12.8091,-0.0091,-0.1902,160.7079,-0.8395,2.7073,6.1376,-0.0043,-10.5553,-21.7877,-0.0657,-176.6632
120974,-106.2696,13.2487,-0.0102,-0.037,144.6405,-0.9242,0.4655,5.1603,0.0025,-21.1081,-9.2028,0.0648,-140.824
120990,-106.2696,13.2487,-0.0102,-0.037,144.6405,-0.9242,0.4655,5.1603,0.0025,-21.1081,-9.2028,0.0648,-140.824
121006,-106.2696,13.2487,-0.0102,-0.037,144.6405,-0.9242,0.4655,5.1603,0.0025,-21.1081,-9.2028,0.0648,-140.824
121022,-106.2696,13.2487,-0.0102,-0.037,144.6405,-0.9242,0.4655,5.1603,0.0025,-21.1081,-9.2028,0.0648,-140.824
121038,-106.2696,13.2487,-0.0102,-0.037,144.6405,-0.9242,0.4655,5.1603,0.0025,-21.1081,-9.2028,0.0648,-140.824
121054,-106.2696,13.2487,-0.0102,-0.037,144.6405,-0.9242,0.4655,5.1603,0.0025,-21.1081,-9.2028,0.0648,-140.824
121074,-106.4144,13.7346,-0.0115,0.1405,133.3483,-0.7864,-1.8711,5.838,-0.0007,-22.4434,6.5094,-0.0311,-91.6308
121086,-106.4144,13.7346,-0.0115,0.1405,133.3483,-0.7864,-1.8711,5.838,-0.0007,-22.4434,6.5094,-0.0311,-91.6308
121102,-106.4144,13.7346,-0.0115,0.1405,133.3483,-0.7864,-1.8711,5.838,-0.0007,-22.4434,6.5094,-0.0311,-91.6308
121118,-106.4144,13.7346,-0.0115,0.1405,133.3483,-0.7864,-1.8711,5.838,-0.0007,-22.4434,6.5094,-0.0311,-91.6308
121134,-106.4144,13.7346,-0.0115,0.1405,133.3483,-0.7864,-1.8711,5.838,-0.0007,-22.4434,6.5094,-0.0311,-91.6308
121150,-106.4144,13.7346,-0.0115,0.1405,133.3483,-0.7864,-1.8711,5.838,-0.0007,-22.4434,6.5094,-0.0311,-91.6308
121166,-106.4144,13.7346,-0.0115,0.1405,133.3483,-0.7864,-1.8711,5.838,-0.0007,-22.4434,6.5094,-0.0311,-91.6308
121182,-106.6895,14.3347,-0.0121,0.2056,125.3424,-0.4735,-2.3652,6.7306,-0.0024,-4.9273,8.9026,-0.0166,-75.0321
121214,-106.6895,14.3347,-0.0121,0.2056,125.3424,-0.4735,-2.3652,6.7306,-0.0024,-4.9273,8.9026,-0.0166,-75.0321
121230,-106.6895,14.3347,-0.0121,0.2056,125.3424,-0.4735,-2.3652,6.7306,-0.0024,-4.9273,8.9026,-0.0166,-75.0321
121246,-106.6895,14.3347,-0.0121,0.2056,125.3424,-0.4735,-2.3652,6.7306,-0.0024,-4.9273,8.9026,-0.0166,-75.0321
121274,-106.966,14.9552,-0.0123,0.191,119.8766,-0.3135,-3.0512,7.0671,-0.002,-7.4845,3.6711,0.0045,-39.0009
121278,-106.966,14.9552,-0.0123,0.191,119.8766,-0.3135,-3.0512,7.0671,-0.002,-7.4845,3.6711,0.0045,-39.0009
121294,-106.966,14.9552,-0.0123,0.191,119.8766,-0.3135,-3.0512,7.0671,-0.002,-7.4845,3.6711,0.0045,-39.0009
121310,-106.966,14.9552,-0.0123,0.191,119.8766,-0.3135,-3.0512,7.0671,-0.002,-7.4845,3.6711,0.0045,-39.0009
121326,-106.966,14.9552,-0.0123,0.191,119.8766,-0.3135,-3.0512,7.0671,-0.002,-7.4845,3.6711,0.0045,-39.0009
121342,-106.966,14.9552,-0.0123,0.191,119.8766,-0.3135,-3.0512,7.0671,-0.002,-7.4845,3.6711,0.0045,-39.0009
121358,-106.966,14.9552,-0.0123,0.191,119.8766,-0.3135,-3.0512,7.0671,-0.002,-7.4845,3.6711,0.0045,-39.0009
121380,-107.3211,15.6499,-0.0119,0.1364,117.9338,-0.2897,-3.6046,7.0243,-0.0004,-5.2054,-0.4025,0.0141,-8.3017
121390,-107.3211,15.6499,-0.0119,0.1364,117.9338,-0.2897,-3.6046,7.0243,-0.0004,-5.2054,-0.4025,0.0141,-8.3017
121406,-107.3211,15.6499,-0.0119,0.1364,117.9338,-0.2897,-3.6046,7.0243,-0.0004,-5.2054,-0.4025,0.0141,-8.3017
121422,-107.3211,15.6499,-0.0119,0.1364,117.9338,-0.2897,-3.6046,7.0243,-0.0004,-5.2054,-0.4025,0.0141,-8.3017
121438,-107.3211,15.6499,-0.0119,0.1364,117.9338,-0.2897,-3.6046,7.0243,-0.0004,-5.2054,-0.4025,0.0141,-8.3017
121454,-107.3211,15.6499,-0.0119,0.1364,117.9338,-0.2897,-3.6046,7.0243,-0.0004,-5.2054,-0.4025,0.0141,-8.3017
121470,-107.6802,16.3353,-0.0117,0.0914,117.4733,-0.192,-3.7212,7.1373,-0.0007,-1.2024,1.1652,-0.0028,-1.3225
121486,-107.6802,16.3353,-0.0117,0.0914,117.4733,-0.192,-3.7212,7.1373,-0.0007,-1.2024,1.1652,-0.0028,-1.3225
121502,-107.6802,16.3353,-0.0117,0.0914,117.4733,-0.192,-3.7212,7.1373,-0.0007,-1.2024,1.1652,-0.0028,-1.3225
121518,-107.6802,16.3353,-0.0117,0.0914,117.4733,-0.192,-3.7212,7.1373,-0.0007,-1.2024,1.1652,-0.0028,-1.3225
121534,-107.6802,16.3353,-0.0117,0.0914,117.4733,-0.192,-3.7212,7.1373,-0.0007,-1.2024,1.1652,-0.0028,-1.3225
121550,-107.6802,16.3353,-0.0117,0.0914,117.4733,-0.192,-3.7212,7.1373,-0.0007,-1.2024,1.1652,-0.0028,-1.3225
121570,-108.0529,17.0505,-0.0115,0.0603,117.3541,-0.1103,-3.7631,7.2412,-0.0006,-0.4214,1.0448,0.0009,0.4649
121582,-108.0529,17.0505,-0.0115,0.0603,117.3541,-0.1103,-3.7631,7.2412,-0.0006,-0.4214,1.0448,0.0009,0.4649
121598,-108.0529,17.0505,-0.0115,0.0603,117.3541,-0.1103,-3.7631,7.2412,-0.0006,-0.4214,1.0448,0.0009,0.4649
121614,-108.0529,17.0505,-0.0115,0.0603,117.3541,-0.1103,-3.7631,7.2412,-0.0006,-0.4214,1.0448,0.0009,0.4649
121630,-108.0529,17.0505,-0.0115,0.0603,117.3541,-0.1103,-3.7631,7.2412,-0.0006,-0.4214,1.0448,0.0009,0.4649
121646,-108.0529,17.0505,-0.0115,0.0603,117.3541,-0.1103,-3.7631,7.2412,-0.0006,-0.4214,1.0448,0.0009,0.4649
121672,-108.4288,17.7754,-0.0114,0.0414,117.3228,-0.0612,-3.799,7.3346,-0.0003,-0.3609,0.9393,0.0028,0.8926
121678,-108.4288,17.7754,-0.0114,0.0414,117.3228,-0.0612,-3.799,7.3346,-0.0003,-0.3609,0.9393,0.0028,0.8926
121694,-108.4288,17.7754,-0.0114,0.0414,117.3228,-0.0612,-3.799,7.3346,-0.0003,-0.3609,0.9393,0.0028,0.8926
121710,-108.4288,17.7754,-0.0114,0.0414,117.3228,-0.0612,-3.799,7.3346,-0.0003,-0.3609,0.9393,0.0028,0.8926
121726,-108.4288,17.7754,-0.0114,0.0414,117.3228,-0.0612,-3.799,7.3346,-0.0003,-0.3609,0.9393,0.0028,0.8926
121742,-108.4288,17.7754,-0.0114,0.0414,117.3228,-0.0612,-3.799,7.3346,-0.0003,-0.3609,0.9393,0.0028,0.8926
121758,-108.4288,17.7754,-0.0114,0.0414,117.3228,-0.0612,-3.799,7.3346,-0.0003,-0.3609,0.9393,0.0028,0.8926
121779,-108.8105,18.5135,-0.0114,0.03,117.3141,-0.0337,-3.8354,7.4179,-0.0002,-0.3293,0.7544,0.0016,1.0085
121790,-108.8105,18.5135,-0.0114,0.03,117.3141,-0.0337,-3.8354,7.4179,-0.0002,-0.3293,0.7544,0.0016,1.0085
121806,-108.8105,18.5135,-0.0114,0.03,117.3141,-0.0337,-3.8354,7.4179,-0.0002,-0.3293,0.7544,0.0016,1.0085
121822,-108.8105,18.5135,-0.0114,0.03,117.3141,-0.0337,-3.8354,7.4179,-0.0002,-0.3293,0.7544,0.0016,1.0085
121838,-108.8105,18.5135,-0.0114,0.03,117.3141,-0.0337,-3.8354,7.4179,-0.0002,-0.3293,0.7544,0.0016,1.0085
121854,-108.8105,18.5135,-0.0114,0.03,117.3141,-0.0337,-3.8354,7.4179,-0.0002,-0.3293,0.7544,0.0016,1.0085
121870,-108.8105,18.5135,-0.0114,0.03,117.3141,-0.0337,-3.8354,7.4179,-0.0002,-0.3293,0.7544,0.0016,1.0085
121886,-109.1961,19.2597,-0.0113,0.0234,117.3116,-0.0187,-3.8731,7.497,-0.0001,-0.3746,0.7856,0.001,1.028
121902,-109.1961,19.2597,-0.0113,0.0234,117.3116,-0.0187,-3.8731,7.497,-0.0001,-0.3746,0.7856,0.001,1.028
121918,-109.1961,19.2597,-0.0113,0.0234,117.3116,-0.0187,-3.8731,7.497,-0.0001,-0.3746,0.7856,0.001,1.028
121934,-109.1961,19.2597,-0.0113,0.0234,117.3116,-0.0187,-3.8731,7.497,-0.0001,-0.3746,0.7856,0.001,1.028
121950,-109.1961,19.2597,-0.0113,0.0234,117.3116,-0.0187,-3.8731,7.497,-0.0001,-0.3746,0.7856,0.001,1.028
121966,-109.1961,19.2597,-0.0113,0.0234,117.3116,-0.0187,-3.8731,7.497,-0.0001,-0.3746,0.7856,0.001,1.028
121987,-109.5854,20.0136,-0.0113,0.0195,117.3108,-0.0104,-3.911,7.5732,-0.0,-0.3547,0.7129,0.0004,1.0253
121998,-109.5854,20.0136,-0.0113,0.0195,117.3108,-0.0104,-3.911,7.5732,-0.0,-0.3547,0.7129,0.0004,1.0253
122014,-109.5854,20.0136,-0.0113,0.0195,117.3108,-0.0104,-3.911,7.5732,-0.0,-0.3547,0.7129,0.0004,1.0253
122030,-109.5854,20.0136,-0.0113,0.0195,117.3108,-0.0104,-3.911,7.5732,-0.0,-0.3547,0.7129,0.0004,1.0253
122046,-109.5854,20.0136,-0.0113,0.0195,117.3108,-0.0104,-3.911,7.5732,-0.0,-0.3547,0.7129,0.0004,1.0253
122062,-109.5854,20.0136,-0.0113,0.0195,117.3108,-0.0104,-3.911,7.5732,-0.0,-0.3547,0.7129,0.0004,1.0253
122078,-109.5854,20.0136,-0.0113,0.0195,117.3108,-0.0104,-3.911,7.5732,-0.0,-0.3547,0.7129,0.0004,1.0253
122094,-109.9785,20.775,-0.0113,0.0173,117.3105,-0.0058,-3.9486,7.6472,0.0,-0.3654,0.7203,0.0002,1.0163
122110,-109.9785,20.775,-0.0113,0.0173,117.3105,-0.0058,-3.9486,7.6472,0.0,-0.3654,0.7203,0.0002,1.0163
122126,-109.9785,20.775,-0.0113,0.0173,117.3105,-0.0058,-3.9486,7.6472,0.0,-0.3654,0.7203,0.0002,1.0163
122142,-109.9785,20.775,-0.0113,0.0173,117.3105,-0.0058,-3.9486,7.6472,0.0,-0.3654,0.7203,0.0002,1.0163
122158,-109.9785,20.775,-0.0113,0.0173,117.3105,-0.0058,-3.9486,7.6472,0.0,-0.3654,0.7203,0.0002,1.0163
122174,-109.9785,20.775,-0.0113,0.0173,117.3105,-0.0058,-3.9486,7.6472,0.0,-0.3654,0.7203,0.0002,1.0163
122194,-110.3754,21.5437,-0.0113,0.0159,117.3104,-0.0033,-3.9855,7.7194,0.0,-0.3531,0.6897,-0.0,1.0061
122206,-110.3754,21.5437,-0.0113,0.0159,117.3104,-0.0033,-3.9855,7.7194,0.0,-0.3531,0.6897,-0.0,1.0061
122222,-110.3754,21.5437,-0.0113,0.0159,117.3104,-0.0033,-3.9855,7.7194,0.0,-0.3531,0.6897,-0.0,1.0061
122238,-110.3754,21.5437,-0.0113,0.0159,117.3104,-0.0033,-3.9855,7.7194,0.0,-0.3531,0.6897,-0.0,1.0061
122254,-110.3754,21.5437,-0.0113,0.0159,117.3104,-0.0033,-3.9855,7.7194,0.0,-0.3531,0.6897,-0.0,1.0061
122270,-110.3754,21.5437,-0.0113,0.0159,117.3104,-0.0033,-3.9855,7.7194,0.0,-0.3531,0.6897,-0.0,1.0061
122286,-110.3754,21.5437,-0.0113,0.0159,117.3104,-0.0033,-3.9855,7.7194,0.0,-0.3531,0.6897,-0.0,1.0061
122302,-110.776,22.3195,-0.0113,0.015,117.3103,-0.0019,-4.0218,7.79,-0.0,-0.3575,0.6955,-0.0,0.9949
122318,-110.776,22.3195,-0.0113,0.015,117.3103,-0.0019,-4.0218,7.79,-0.0,-0.3575,0.6955,-0.0,0.9949
122334,-110.776,22.3195,-0.0113,0.015,117.3103,-0.0019,-4.0218,7.79,-0.0,-0.3575,0.6955,-0.0,0.9949
122350,-110.776,22.3195,-0.0113,0.015,117.3103,-0.0019,-4.0218,7.79,-0.0,-0.3575,0.6955,-0.0,0.9949
122366,-110.776,22.3195,-0.0113,0.015,117.3103,-0.0019,-4.0218,7.79,-0.0,-0.3575,0.6955,-0.0,0.9949
122382,-110.776,22.3195,-0.0113,0.015,117.3103,-0.0019,-4.0218,7.79,-0.0,-0.3575,0.6955,-0.0,0.9949
