timestamp,x,y,z,pitch,yaw,roll,vx,vy,vz,ax,ay,az,yaw_rate
47203,-106.6867,-4.8475,-0.0808,0.0,-89.3578,0.0,0.0,0.0,-0.0283,0.0,0.0,8.7921,-0.0
47219,-106.6867,-4.8475,-0.0808,0.0,-89.3578,0.0,0.0,0.0,-0.0283,0.0,0.0,8.7921,-0.0
47235,-106.6867,-4.8475,-0.0808,0.0,-89.3578,0.0,0.0,0.0,-0.0283,0.0,0.0,8.7921,-0.0
47251,-106.6867,-4.8475,-0.0808,0.0,-89.3578,0.0,0.0,0.0,-0.0283,0.0,0.0,8.7921,-0.0
47267,-106.6867,-4.8475,-0.0808,0.0,-89.3578,0.0,0.0,0.0,-0.0283,0.0,0.0,8.7921,-0.0
47283,-106.6867,-4.8475,-0.0808,0.0,-89.3578,0.0,0.0,0.0,-0.0283,0.0,0.0,8.7921,-0.0
47299,-106.6867,-4.8475,-0.0808,0.0,-89.3578,0.0,0.0,0.0,-0.0283,0.0,0.0,8.7921,-0.0
47315,-106.6867,-4.8475,-0.0808,0.0,-89.3578,0.0,0.0,0.0,-0.0283,0.0,0.0,8.7921,-0.0
47331,-106.6867,-4.8475,-0.0808,0.0,-89.3578,0.0,0.0,0.0,-0.0283,0.0,0.0,8.7921,-0.0
47347,-106.6867,-4.8475,-0.0808,0.0,-89.3578,0.0,0.0,0.0,-0.0283,0.0,0.0,8.7921,-0.0
47363,-106.6867,-4.8483,-0.0641,-0.0002,-89.3616,0.0,-0.0003,0.0293,0.2367,-0.0023,0.1952,1.7628,-0.4238
47379,-106.6867,-4.8483,-0.0641,-0.0002,-89.3616,0.0,-0.0003,0.0293,0.2367,-0.0023,0.1952,1.7628,-0.4238
47395,-106.6867,-4.8483,-0.0641,-0.0002,-89.3616,0.0,-0.0003,0.0293,0.2367,-0.0023,0.1952,1.7628,-0.4238
47411,-106.6867,-4.8483,-0.0641,-0.0002,-89.3616,0.0,-0.0003,0.0293,0.2367,-0.0023,0.1952,1.7628,-0.4238
47427,-106.6867,-4.8483,-0.0641,-0.0002,-89.3616,0.0,-0.0003,0.0293,0.2367,-0.0023,0.1952,1.7628,-0.4238
47443,-106.6867,-4.8483,-0.0641,-0.0002,-89.3616,0.0,-0.0003,0.0293,0.2367,-0.0023,0.1952,1.7628,-0.4238
47459,-106.6867,-4.8483,-0.0641,-0.0002,-89.3616,0.0,-0.0003,0.0293,0.2367,-0.0023,0.1952,1.7628,-0.4238
47475,-106.6867,-4.8483,-0.0641,-0.0002,-89.3616,0.0,-0.0003,0.0293,0.2367,-0.0023,0.1952,1.7628,-0.4238
47492,-106.6868,-4.8438,-0.0421,-0.0049,-89.36,0.0,-0.0012,0.0989,0.1912,-0.0059,0.5068,-0.3314,-0.5188
47507,-106.6868,-4.8438,-0.0421,-0.0049,-89.36,0.0,-0.0012,0.0989,0.1912,-0.0059,0.5068,-0.3314,-0.5188
47523,-106.6868,-4.8438,-0.0421,-0.0049,-89.36,0.0,-0.0012,0.0989,0.1912,-0.0059,0.5068,-0.3314,-0.5188
47539,-106.6868,-4.8438,-0.0421,-0.0049,-89.36,0.0,-0.0012,0.0989,0.1912,-0.0059,0.5068,-0.3314,-0.5188
47555,-106.6868,-4.8438,-0.0421,-0.0049,-89.36,0.0,-0.0012,0.0989,0.1912,-0.0059,0.5068,-0.3314,-0.5188
47571,-106.6868,-4.8438,-0.0421,-0.0049,-89.36,0.0,-0.0012,0.0989,0.1912,-0.0059,0.5068,-0.3314,-0.5188
47589,-106.6873,-4.8138,-0.0281,-0.0252,-89.3312,0.0001,-0.0061,0.5164,0.1198,-0.0546,4.5762,-0.7831,0.0819
47603,-106.6873,-4.8138,-0.0281,-0.0252,-89.3312,0.0001,-0.0061,0.5164,0.1198,-0.0546,4.5762,-0.7831,0.0819
47619,-106.6873,-4.8138,-0.0281,-0.0252,-89.3312,0.0001,-0.0061,0.5164,0.1198,-0.0546,4.5762,-0.7831,0.0819
47635,-106.6873,-4.8138,-0.0281,-0.0252,-89.3312,0.0001,-0.0061,0.5164,0.1198,-0.0546,4.5762,-0.7831,0.0819
47651,-106.6873,-4.8138,-0.0281,-0.0252,-89.3312,0.0001,-0.0061,0.5164,0.1198,-0.0546,4.5762,-0.7831,0.0819
47667,-106.6873,-4.8138,-0.0281,-0.0252,-89.3312,0.0001,-0.0061,0.5164,0.1198,-0.0546,4.5762,-0.7831,0.0819
47683,-106.6882,-4.7424,-0.0198,-0.0479,-89.3278,0.0,-0.0113,0.9577,0.0671,-0.0565,4.8118,-0.5746,0.0438
47699,-106.6882,-4.7424,-0.0198,-0.0479,-89.3278,0.0,-0.0113,0.9577,0.0671,-0.0565,4.8118,-0.5746,0.0438
47715,-106.6882,-4.7424,-0.0198,-0.0479,-89.3278,0.0,-0.0113,0.9577,0.0671,-0.0565,4.8118,-0.5746,0.0438
47731,-106.6882,-4.7424,-0.0198,-0.0479,-89.3278,0.0,-0.0113,0.9577,0.0671,-0.0565,4.8118,-0.5746,0.0438
47747,-106.6882,-4.7424,-0.0198,-0.0479,-89.3278,0.0,-0.0113,0.9577,0.0671,-0.0565,4.8118,-0.5746,0.0438
47763,-106.6882,-4.7424,-0.0198,-0.0479,-89.3278,0.0,-0.0113,0.9577,0.0671,-0.0565,4.8118,-0.5746,0.0438
47779,-106.6893,-4.6454,-0.015,-0.0495,-89.331,-0.0002,-0.013,1.2133,0.0388,-0.0183,2.7548,-0.3051,2.5381
47795,-106.6893,-4.6454,-0.015,-0.0495,-89.331,-0.0002,-0.013,1.2133,0.0388,-0.0183,2.7548,-0.3051,2.5381
47811,-106.6893,-4.6454,-0.015,-0.0495,-89.331,-0.0002,-0.013,1.2133,0.0388,-0.0183,2.7548,-0.3051,2.5381
47827,-106.6893,-4.6454,-0.015,-0.0495,-89.331,-0.0002,-0.013,1.2133,0.0388,-0.0183,2.7548,-0.3051,2.5381
47843,-106.6893,-4.6454,-0.015,-0.0495,-89.331,-0.0002,-0.013,1.2133,0.0388,-0.0183,2.7548,-0.3051,2.5381
47859,-106.6917,-4.5311,-0.0128,-0.038,-89.2549,0.0009,-0.0177,1.1633,0.0163,-0.0505,-0.5365,-0.241,0.2643
47875,-106.6917,-4.5311,-0.0128,-0.038,-89.2549,0.0009,-0.0177,1.1633,0.0163,-0.0505,-0.5365,-0.241,0.2643
47891,-106.6917,-4.5311,-0.0128,-0.038,-89.2549,0.0009,-0.0177,1.1633,0.0163,-0.0505,-0.5365,-0.241,0.2643
47907,-106.6917,-4.5311,-0.0128,-0.038,-89.2549,0.0009,-0.0177,1.1633,0.0163,-0.0505,-0.5365,-0.241,0.2643
47923,-106.6917,-4.5311,-0.0128,-0.038,-89.2549,0.0009,-0.0177,1.1633,0.0163,-0.0505,-0.5365,-0.241,0.2643
47939,-106.6917,-4.5311,-0.0128,-0.038,-89.2549,0.0009,-0.0177,1.1633,0.0163,-0.0505,-0.5365,-0.241,0.2643
47957,-106.6932,-4.4249,-0.0119,-0.0225,-89.2527,0.0002,-0.0165,1.2385,0.0076,0.0135,0.8513,-0.0987,-0.1238
47971,-106.6932,-4.4249,-0.0119,-0.0225,-89.2527,0.0002,-0.0165,1.2385,0.0076,0.0135,0.8513,-0.0987,-0.1238
47987,-106.6932,-4.4249,-0.0119,-0.0225,-89.2527,0.0002,-0.0165,1.2385,0.0076,0.0135,0.8513,-0.0987,-0.1238
48003,-106.6932,-4.4249,-0.0119,-0.0225,-89.2527,0.0002,-0.0165,1.2385,0.0076,0.0135,0.8513,-0.0987,-0.1238
48019,-106.6932,-4.4249,-0.0119,-0.0225,-89.2527,0.0002,-0.0165,1.2385,0.0076,0.0135,0.8513,-0.0987,-0.1238
48035,-106.6932,-4.4249,-0.0119,-0.0225,-89.2527,0.0002,-0.0165,1.2385,0.0076,0.0135,0.8513,-0.0987,-0.1238
48053,-106.6948,-4.2981,-0.0114,-0.0265,-89.2613,-0.0,-0.0198,1.5149,0.0035,-0.0338,2.8909,-0.043,-0.0318
48067,-106.6948,-4.2981,-0.0114,-0.0265,-89.2613,-0.0,-0.0198,1.5149,0.0035,-0.0338,2.8909,-0.043,-0.0318
48083,-106.6948,-4.2981,-0.0114,-0.0265,-89.2613,-0.0,-0.0198,1.5149,0.0035,-0.0338,2.8909,-0.043,-0.0318
48099,-106.6948,-4.2981,-0.0114,-0.0265,-89.2613,-0.0,-0.0198,1.5149,0.0035,-0.0338,2.8909,-0.043,-0.0318
48115,-106.6948,-4.2981,-0.0114,-0.0265,-89.2613,-0.0,-0.0198,1.5149,0.0035,-0.0338,2.8909,-0.043,-0.0318
48131,-106.6948,-4.2981,-0.0114,-0.0265,-89.2613,-0.0,-0.0198,1.5149,0.0035,-0.0338,2.8909,-0.043,-0.0318
48147,-106.6967,-4.1449,-0.0111,-0.0426,-89.2676,-0.0001,-0.0255,1.9843,0.0017,-0.0631,5.2012,-0.0195,0.0635
48163,-106.6967,-4.1449,-0.0111,-0.0426,-89.2676,-0.0001,-0.0255,1.9843,0.0017,-0.0631,5.2012,-0.0195,0.0635
48179,-106.6967,-4.1449,-0.0111,-0.0426,-89.2676,-0.0001,-0.0255,1.9843,0.0017,-0.0631,5.2012,-0.0195,0.0635
48195,-106.6967,-4.1449,-0.0111,-0.0426,-89.2676,-0.0001,-0.0255,1.9843,0.0017,-0.0631,5.2012,-0.0195,0.0635
48211,-106.6967,-4.1449,-0.0111,-0.0426,-89.2676,-0.0001,-0.0255,1.9843,0.0017,-0.0631,5.2012,-0.0195,0.0635
48227,-106.6967,-4.1449,-0.0111,-0.0426,-89.2676,-0.0001,-0.0255,1.9843,0.0017,-0.0631,5.2012,-0.0195,0.0635
48244,-106.7006,-3.9147,-0.0107,-0.0701,-89.183,0.0008,-0.0377,2.6377,0.0008,-0.124,6.5964,-0.0091,0.4205
48259,-106.7006,-3.9147,-0.0107,-0.0701,-89.183,0.0008,-0.0377,2.6377,0.0008,-0.124,6.5964,-0.0091,0.4205
48275,-106.7006,-3.9147,-0.0107,-0.0701,-89.183,0.0008,-0.0377,2.6377,0.0008,-0.124,6.5964,-0.0091,0.4205
48291,-106.7006,-3.9147,-0.0107,-0.0701,-89.183,0.0008,-0.0377,2.6377,0.0008,-0.124,6.5964,-0.0091,0.4205
48307,-106.7006,-3.9147,-0.0107,-0.0701,-89.183,0.0008,-0.0377,2.6377,0.0008,-0.124,6.5964,-0.0091,0.4205
48324,-106.7044,-3.6532,-0.0106,-0.0827,-89.1734,0.0005,-0.0465,3.2055,0.0004,-0.0962,6.2617,-0.0046,-0.3256
48339,-106.7044,-3.6532,-0.0106,-0.0827,-89.1734,0.0005,-0.0465,3.2055,0.0004,-0.0962,6.2617,-0.0046,-0.3256
48355,-106.7044,-3.6532,-0.0106,-0.0827,-89.1734,0.0005,-0.0465,3.2055,0.0004,-0.0962,6.2617,-0.0046,-0.3256
48371,-106.7044,-3.6532,-0.0106,-0.0827,-89.1734,0.0005,-0.0465,3.2055,0.0004,-0.0962,6.2617,-0.0046,-0.3256
48387,-106.7044,-3.6532,-0.0106,-0.0827,-89.1734,0.0005,-0.0465,3.2055,0.0004,-0.0962,6.2617,-0.0046,-0.3256
48403,-106.7044,-3.6532,-0.0106,-0.0827,-89.1734,0.0005,-0.0465,3.2055,0.0004,-0.0962,6.2617,-0.0046,-0.3256
48421,-106.709,-3.3293,-0.0105,-0.0926,-89.1845,0.0002,-0.0531,3.7879,0.0002,-0.072,6.275,-0.0021,1.6892
48435,-106.709,-3.3293,-0.0105,-0.0926,-89.1845,0.0002,-0.0531,3.7879,0.0002,-0.072,6.275,-0.0021,1.6892
48451,-106.709,-3.3293,-0.0105,-0.0926,-89.1845,0.0002,-0.0531,3.7879,0.0002,-0.072,6.275,-0.0021,1.6892
48467,-106.709,-3.3293,-0.0105,-0.0926,-89.1845,0.0002,-0.0531,3.7879,0.0002,-0.072,6.275,-0.0021,1.6892
48483,-106.709,-3.3293,-0.0105,-0.0926,-89.1845,0.0002,-0.0531,3.7879,0.0002,-0.072,6.275,-0.0021,1.6892
48499,-106.709,-3.3293,-0.0105,-0.0926,-89.1845,0.0002,-0.0531,3.7879,0.0002,-0.072,6.275,-0.0021,1.6892
48515,-106.7153,-2.9398,-0.0105,-0.0853,-89.1199,0.0011,-0.0665,4.2082,0.0001,-0.1355,4.2612,-0.0011,-0.6823
48531,-106.7153,-2.9398,-0.0105,-0.0853,-89.1199,0.0011,-0.0665,4.2082,0.0001,-0.1355,4.2612,-0.0011,-0.6823
48547,-106.7153,-2.9398,-0.0105,-0.0853,-89.1199,0.0011,-0.0665,4.2082,0.0001,-0.1355,4.2612,-0.0011,-0.6823
48563,-106.7153,-2.9398,-0.0105,-0.0853,-89.1199,0.0011,-0.0665,4.2082,0.0001,-0.1355,4.2612,-0.0011,-0.6823
48579,-106.7153,-2.9398,-0.0105,-0.0853,-89.1199,0.0011,-0.0665,4.2082,0.0001,-0.1355,4.2612,-0.0011,-0.6823
48595,-106.7153,-2.9398,-0.0105,-0.0853,-89.1199,0.0011,-0.0665,4.2082,0.0001,-0.1355,4.2612,-0.0011,-0.6823
48612,-106.7228,-2.5237,-0.0105,-0.088,-89.0266,0.002,-0.0797,4.7699,0.0001,-0.1412,6.0114,-0.0005,2.3642
48627,-106.7228,-2.5237,-0.0105,-0.088,-89.0266,0.002,-0.0797,4.7699,0.0001,-0.1412,6.0114,-0.0005,2.3642
48643,-106.7228,-2.5237,-0.0105,-0.088,-89.0266,0.002,-0.0797,4.7699,0.0001,-0.1412,6.0114,-0.0005,2.3642
48659,-106.7228,-2.5237,-0.0105,-0.088,-89.0266,0.002,-0.0797,4.7699,0.0001,-0.1412,6.0114,-0.0005,2.3642
48675,-106.7228,-2.5237,-0.0105,-0.088,-89.0266,0.002,-0.0797,4.7699,0.0001,-0.1412,6.0114,-0.0005,2.3642
48691,-106.7228,-2.5237,-0.0105,-0.088,-89.0266,0.002,-0.0797,4.7699,0.0001,-0.1412,6.0114,-0.0005,2.3642
48709,-106.7312,-2.0354,-0.0104,-0.0985,-89.025,0.0017,-0.0943,5.4405,0.0,-0.1524,7.0167,-0.0003,-1.6717
48723,-106.7312,-2.0354,-0.0104,-0.0985,-89.025,0.0017,-0.0943,5.4405,0.0,-0.1524,7.0167,-0.0003,-1.6717
48739,-106.7312,-2.0354,-0.0104,-0.0985,-89.025,0.0017,-0.0943,5.4405,0.0,-0.1524,7.0167,-0.0003,-1.6717
48755,-106.7312,-2.0354,-0.0104,-0.0985,-89.025,0.0017,-0.0943,5.4405,0.0,-0.1524,7.0167,-0.0003,-1.6717
48771,-106.7312,-2.0354,-0.0104,-0.0985,-89.025,0.0017,-0.0943,5.4405,0.0,-0.1524,7.0167,-0.0003,-1.6717
48787,-106.7312,-2.0354,-0.0104,-0.0985,-89.025,0.0017,-0.0943,5.4405,0.0,-0.1524,7.0167,-0.0003,-1.6717
48805,-106.7409,-1.4769,-0.0104,-0.1057,-89.0045,0.0011,-0.1048,6.1209,0.0,-0.1088,7.0331,-0.0002,1.6301
48819,-106.7409,-1.4769,-0.0104,-0.1057,-89.0045,0.0011,-0.1048,6.1209,0.0,-0.1088,7.0331,-0.0002,1.6301
48835,-106.7409,-1.4769,-0.0104,-0.1057,-89.0045,0.0011,-0.1048,6.1209,0.0,-0.1088,7.0331,-0.0002,1.6301
48851,-106.7409,-1.4769,-0.0104,-0.1057,-89.0045,0.0011,-0.1048,6.1209,0.0,-0.1088,7.0331,-0.0002,1.6301
48867,-106.7409,-1.4769,-0.0104,-0.1057,-89.0045,0.0011,-0.1048,6.1209,0.0,-0.1088,7.0331,-0.0002,1.6301
48883,-106.7409,-1.4769,-0.0104,-0.1057,-89.0045,0.0011,-0.1048,6.1209,0.0,-0.1088,7.0331,-0.0002,1.6301
48900,-106.7514,-0.8642,-0.0103,-0.1168,-89.0135,0.0007,-0.1196,6.911,0.0,-0.1579,8.4012,-0.0,-0.8663
48915,-106.7514,-0.8642,-0.0103,-0.1168,-89.0135,0.0007,-0.1196,6.911,0.0,-0.1579,8.4012,-0.0,-0.8663
48931,-106.7514,-0.8642,-0.0103,-0.1168,-89.0135,0.0007,-0.1196,6.911,0.0,-0.1579,8.4012,-0.0,-0.8663
48947,-106.7514,-0.8642,-0.0103,-0.1168,-89.0135,0.0007,-0.1196,6.911,0.0,-0.1579,8.4012,-0.0,-0.8663
48963,-106.7514,-0.8642,-0.0103,-0.1168,-89.0135,0.0007,-0.1196,6.911,0.0,-0.1579,8.4012,-0.0,-0.8663
48979,-106.7514,-0.8642,-0.0103,-0.1168,-89.0135,0.0007,-0.1196,6.911,0.0,-0.1579,8.4012,-0.0,-0.8663
48995,-106.7625,-0.2181,-0.0103,-0.1176,-89.017,0.0004,-0.1283,7.4433,0.0,-0.097,5.9476,-0.0,-0.435
49011,-106.7625,-0.2181,-0.0103,-0.1176,-89.017,0.0004,-0.1283,7.4433,0.0,-0.097,5.9476,-0.0,-0.435
49027,-106.7625,-0.2181,-0.0103,-0.1176,-89.017,0.0004,-0.1283,7.4433,0.0,-0.097,5.9476,-0.0,-0.435
49043,-106.7625,-0.2181,-0.0103,-0.1176,-89.017,0.0004,-0.1283,7.4433,0.0,-0.097,5.9476,-0.0,-0.435
49059,-106.7625,-0.2181,-0.0103,-0.1176,-89.017,0.0004,-0.1283,7.4433,0.0,-0.097,5.9476,-0.0,-0.435
49075,-106.7625,-0.2181,-0.0103,-0.1176,-89.017,0.0004,-0.1283,7.4433,0.0,-0.097,5.9476,-0.0,-0.435
49091,-106.7756,0.5346,-0.0103,-0.1165,-89.0063,0.0003,-0.1408,8.136,-0.0,-0.13,7.2292,-0.0001,0.211
49107,-106.7756,0.5346,-0.0103,-0.1165,-89.0063,0.0003,-0.1408,8.136,-0.0,-0.13,7.2292,-0.0001,0.211
49123,-106.7756,0.5346,-0.0103,-0.1165,-89.0063,0.0003,-0.1408,8.136,-0.0,-0.13,7.2292,-0.0001,0.211
49139,-106.7756,0.5346,-0.0103,-0.1165,-89.0063,0.0003,-0.1408,8.136,-0.0,-0.13,7.2292,-0.0001,0.211
49155,-106.7756,0.5346,-0.0103,-0.1165,-89.0063,0.0003,-0.1408,8.136,-0.0,-0.13,7.2292,-0.0001,0.211
49171,-106.7756,0.5346,-0.0103,-0.1165,-89.0063,0.0003,-0.1408,8.136,-0.0,-0.13,7.2292,-0.0001,0.211
49187,-106.7896,1.3416,-0.0103,-0.1134,-89.0112,0.0001,-0.1512,8.7542,0.0,-0.1102,6.5107,0.0001,-0.057
49203,-106.7896,1.3416,-0.0103,-0.1134,-89.0112,0.0001,-0.1512,8.7542,0.0,-0.1102,6.5107,0.0001,-0.057
49219,-106.7896,1.3416,-0.0103,-0.1134,-89.0112,0.0001,-0.1512,8.7542,0.0,-0.1102,6.5107,0.0001,-0.057
49235,-106.7896,1.3416,-0.0103,-0.1134,-89.0112,0.0001,-0.1512,8.7542,0.0,-0.1102,6.5107,0.0001,-0.057
49251,-106.7896,1.3416,-0.0103,-0.1134,-89.0112,0.0001,-0.1512,8.7542,0.0,-0.1102,6.5107,0.0001,-0.057
49267,-106.7896,1.3416,-0.0103,-0.1134,-89.0112,0.0001,-0.1512,8.7542,0.0,-0.1102,6.5107,0.0001,-0.057
49283,-106.8041,2.1856,-0.0104,-0.1092,-89.0102,0.0001,-0.1613,9.3378,0.0,-0.1088,6.2853,-0.0,0.0001
49299,-106.8041,2.1856,-0.0104,-0.1092,-89.0102,0.0001,-0.1613,9.3378,0.0,-0.1088,6.2853,-0.0,0.0001
49315,-106.8041,2.1856,-0.0104,-0.1092,-89.0102,0.0001,-0.1613,9.3378,0.0,-0.1088,6.2853,-0.0,0.0001
49331,-106.8041,2.1856,-0.0104,-0.1092,-89.0102,0.0001,-0.1613,9.3378,0.0,-0.1088,6.2853,-0.0,0.0001
49347,-106.8041,2.1856,-0.0104,-0.1092,-89.0102,0.0001,-0.1613,9.3378,0.0,-0.1088,6.2853,-0.0,0.0001
49365,-106.8196,3.0792,-0.0104,-0.1035,-89.0102,0.0,-0.1703,9.8544,-0.0,-0.0962,5.5714,-0.0001,0.0002
49379,-106.8196,3.0792,-0.0104,-0.1035,-89.0102,0.0,-0.1703,9.8544,-0.0,-0.0962,5.5714,-0.0001,0.0002
49395,-106.8196,3.0792,-0.0104,-0.1035,-89.0102,0.0,-0.1703,9.8544,-0.0,-0.0962,5.5714,-0.0001,0.0002
49411,-106.8196,3.0792,-0.0104,-0.1035,-89.0102,0.0,-0.1703,9.8544,-0.0,-0.0962,5.5714,-0.0001,0.0002
49427,-106.8196,3.0792,-0.0104,-0.1035,-89.0102,0.0,-0.1703,9.8544,-0.0,-0.0962,5.5714,-0.0001,0.0002
49443,-106.8196,3.0792,-0.0104,-0.1035,-89.0102,0.0,-0.1703,9.8544,-0.0,-0.0962,5.5714,-0.0001,0.0002
49461,-106.8354,3.9935,-0.0104,-0.0964,-89.0102,0.0,-0.1782,10.3146,0.0,-0.0879,5.0919,0.0002,-0.0
49475,-106.8354,3.9935,-0.0104,-0.0964,-89.0102,0.0,-0.1782,10.3146,0.0,-0.0879,5.0919,0.0002,-0.0
49491,-106.8354,3.9935,-0.0104,-0.0964,-89.0102,0.0,-0.1782,10.3146,0.0,-0.0879,5.0919,0.0002,-0.0
49507,-106.8354,3.9935,-0.0104,-0.0964,-89.0102,0.0,-0.1782,10.3146,0.0,-0.0879,5.0919,0.0002,-0.0
49523,-106.8354,3.9935,-0.0104,-0.0964,-89.0102,0.0,-0.1782,10.3146,0.0,-0.0879,5.0919,0.0002,-0.0
49539,-106.8354,3.9935,-0.0104,-0.0964,-89.0102,0.0,-0.1782,10.3146,0.0,-0.0879,5.0919,0.0002,-0.0
49555,-106.8523,4.9739,-0.0105,-0.0889,-89.0102,0.0,-0.1855,10.739,-0.0,-0.0789,4.5696,-0.0002,0.0
49571,-106.8523,4.9739,-0.0105,-0.0889,-89.0102,0.0,-0.1855,10.739,-0.0,-0.0789,4.5696,-0.0002,0.0
49587,-106.8523,4.9739,-0.0105,-0.0889,-89.0102,0.0,-0.1855,10.739,-0.0,-0.0789,4.5696,-0.0002,0.0
49603,-106.8523,4.9739,-0.0105,-0.0889,-89.0102,0.0,-0.1855,10.739,-0.0,-0.0789,4.5696,-0.0002,0.0
49619,-106.8523,4.9739,-0.0105,-0.0889,-89.0102,0.0,-0.1855,10.739,-0.0,-0.0789,4.5696,-0.0002,0.0
49635,-106.8523,4.9739,-0.0105,-0.0889,-89.0102,0.0,-0.1855,10.739,-0.0,-0.0789,4.5696,-0.0002,0.0
49651,-106.8703,6.0131,-0.0106,-0.0811,-89.0102,0.0,-0.1923,11.1281,0.0,-0.0709,4.104,0.0002,0.0
49667,-106.8703,6.0131,-0.0106,-0.0811,-89.0102,0.0,-0.1923,11.1281,0.0,-0.0709,4.104,0.0002,0.0
49683,-106.8703,6.0131,-0.0106,-0.0811,-89.0102,0.0,-0.1923,11.1281,0.0,-0.0709,4.104,0.0002,0.0
49699,-106.8703,6.0131,-0.0106,-0.0811,-89.0102,0.0,-0.1923,11.1281,0.0,-0.0709,4.104,0.0002,0.0
49715,-106.8703,6.0131,-0.0106,-0.0811,-89.0102,0.0,-0.1923,11.1281,0.0,-0.0709,4.104,0.0002,0.0
49731,-106.8703,6.0131,-0.0106,-0.0811,-89.0102,0.0,-0.1923,11.1281,0.0,-0.0709,4.104,0.0002,0.0
49747,-106.8889,7.0873,-0.0106,-0.0743,-89.0102,0.0,-0.1986,11.4927,0.0,-0.0665,3.8466,-0.0,-0.0
49763,-106.8889,7.0873,-0.0106,-0.0743,-89.0102,0.0,-0.1986,11.4927,0.0,-0.0665,3.8466,-0.0,-0.0
49779,-106.8889,7.0873,-0.0106,-0.0743,-89.0102,0.0,-0.1986,11.4927,0.0,-0.0665,3.8466,-0.0,-0.0
49795,-106.8889,7.0873,-0.0106,-0.0743,-89.0102,0.0,-0.1986,11.4927,0.0,-0.0665,3.8466,-0.0,-0.0
49811,-106.8889,7.0873,-0.0106,-0.0743,-89.0102,0.0,-0.1986,11.4927,0.0,-0.0665,3.8466,-0.0,-0.0
49828,-106.8889,7.0873,-0.0106,-0.0743,-89.0102,0.0,-0.1986,11.4927,0.0,-0.0665,3.8466,-0.0,-0.0
49843,-106.9087,8.2365,-0.0107,-0.0685,-89.0102,0.0,-0.2046,11.8416,0.0,-0.0613,3.5495,-0.0,0.0
49859,-106.9087,8.2365,-0.0107,-0.0685,-89.0102,0.0,-0.2046,11.8416,0.0,-0.0613,3.5495,-0.0,0.0
49875,-106.9087,8.2365,-0.0107,-0.0685,-89.0102,0.0,-0.2046,11.8416,0.0,-0.0613,3.5495,-0.0,0.0
49891,-106.9087,8.2365,-0.0107,-0.0685,-89.0102,0.0,-0.2046,11.8416,0.0,-0.0613,3.5495,-0.0,0.0
49907,-106.9087,8.2365,-0.0107,-0.0685,-89.0102,0.0,-0.2046,11.8416,0.0,-0.0613,3.5495,-0.0,0.0
49923,-106.9087,8.2365,-0.0107,-0.0685,-89.0102,0.0,-0.2046,11.8416,0.0,-0.0613,3.5495,-0.0,0.0
49939,-106.9285,9.3808,-0.0107,-0.0638,-89.0102,-0.0,-0.2102,12.1669,-0.0,-0.0591,3.4182,-0.0001,-0.0
49955,-106.9285,9.3808,-0.0107,-0.0638,-89.0102,-0.0,-0.2102,12.1669,-0.0,-0.0591,3.4182,-0.0001,-0.0
49971,-106.9285,9.3808,-0.0107,-0.0638,-89.0102,-0.0,-0.2102,12.1669,-0.0,-0.0591,3.4182,-0.0001,-0.0
49987,-106.9285,9.3808,-0.0107,-0.0638,-89.0102,-0.0,-0.2102,12.1669,-0.0,-0.0591,3.4182,-0.0001,-0.0
50003,-106.9285,9.3808,-0.0107,-0.0638,-89.0102,-0.0,-0.2102,12.1669,-0.0,-0.0591,3.4182,-0.0001,-0.0
50019,-106.9285,9.3808,-0.0107,-0.0638,-89.0102,-0.0,-0.2102,12.1669,-0.0,-0.0591,3.4182,-0.0001,-0.0
50035,-106.949,10.5675,-0.0107,-0.0601,-89.0102,0.0,-0.2156,12.4774,0.0,-0.0558,3.2293,0.0001,0.0
50051,-106.949,10.5675,-0.0107,-0.0601,-89.0102,0.0,-0.2156,12.4774,0.0,-0.0558,3.2293,0.0001,0.0
50067,-106.949,10.5675,-0.0107,-0.0601,-89.0102,0.0,-0.2156,12.4774,0.0,-0.0558,3.2293,0.0001,0.0
50083,-106.949,10.5675,-0.0107,-0.0601,-89.0102,0.0,-0.2156,12.4774,0.0,-0.0558,3.2293,0.0001,0.0
50099,-106.949,10.5675,-0.0107,-0.0601,-89.0102,0.0,-0.2156,12.4774,0.0,-0.0558,3.2293,0.0001,0.0
50116,-106.9697,11.7678,-0.0107,-0.056,-89.0102,-0.0,-0.2203,12.7491,-0.0,-0.0494,2.8589,-0.0,0.0
50131,-106.9697,11.7678,-0.0107,-0.056,-89.0102,-0.0,-0.2203,12.7491,-0.0,-0.0494,2.8589,-0.0,0.0
50147,-106.9697,11.7678,-0.0107,-0.056,-89.0102,-0.0,-0.2203,12.7491,-0.0,-0.0494,2.8589,-0.0,0.0
50163,-106.9697,11.7678,-0.0107,-0.056,-89.0102,-0.0,-0.2203,12.7491,-0.0,-0.0494,2.8589,-0.0,0.0
50179,-106.9697,11.7678,-0.0107,-0.056,-89.0102,-0.0,-0.2203,12.7491,-0.0,-0.0494,2.8589,-0.0,0.0
50195,-106.9697,11.7678,-0.0107,-0.056,-89.0102,-0.0,-0.2203,12.7491,-0.0,-0.0494,2.8589,-0.0,0.0
50227,-106.9919,13.054,-0.0108,-0.0483,-89.0102,0.0,-0.2237,12.9497,0.0,-0.0347,2.007,0.0,0.0001
50243,-106.9919,13.054,-0.0108,-0.0483,-89.0102,0.0,-0.2237,12.9497,0.0,-0.0347,2.007,0.0,0.0001
50259,-106.9919,13.054,-0.0108,-0.0483,-89.0102,0.0,-0.2237,12.9497,0.0,-0.0347,2.007,0.0,0.0001
50275,-106.9919,13.054,-0.0108,-0.0483,-89.0102,0.0,-0.2237,12.9497,0.0,-0.0347,2.007,0.0,0.0001
50291,-106.9919,13.054,-0.0108,-0.0483,-89.0102,0.0,-0.2237,12.9497,0.0,-0.0347,2.007,0.0,0.0001
50307,-107.035,14.2062,-0.0109,-0.0335,-90.0869,0.1042,-0.9414,12.928,0.0009,-8.0744,-0.2441,0.01,-26.1148
50323,-107.035,14.2062,-0.0109,-0.0335,-90.0869,0.1042,-0.9414,12.928,0.0009,-8.0744,-0.2441,0.01,-26.1148
50339,-107.035,14.2062,-0.0109,-0.0335,-90.0869,0.1042,-0.9414,12.928,0.0009,-8.0744,-0.2441,0.01,-26.1148
50355,-107.035,14.2062,-0.0109,-0.0335,-90.0869,0.1042,-0.9414,12.928,0.0009,-8.0744,-0.2441,0.01,-26.1148
50371,-107.035,14.2062,-0.0109,-0.0335,-90.0869,0.1042,-0.9414,12.928,0.0009,-8.0744,-0.2441,0.01,-26.1148
50387,-107.035,14.2062,-0.0109,-0.0335,-90.0869,0.1042,-0.9414,12.928,0.0009,-8.0744,-0.2441,0.01,-26.1148
50404,-107.1361,15.3825,-0.011,-0.0024,-94.6601,0.2419,-1.85,12.6719,0.0012,-9.8749,-2.7831,0.0034,-71.0136
50419,-107.1361,15.3825,-0.011,-0.0024,-94.6601,0.2419,-1.85,12.6719,0.0012,-9.8749,-2.7831,0.0034,-71.0136
50435,-107.1361,15.3825,-0.011,-0.0024,-94.6601,0.2419,-1.85,12.6719,0.0012,-9.8749,-2.7831,0.0034,-71.0136
50451,-107.1361,15.3825,-0.011,-0.0024,-94.6601,0.2419,-1.85,12.6719,0.0012,-9.8749,-2.7831,0.0034,-71.0136
50467,-107.1361,15.3825,-0.011,-0.0024,-94.6601,0.2419,-1.85,12.6719,0.0012,-9.8749,-2.7831,0.0034,-71.0136
50483,-107.1361,15.3825,-0.011,-0.0024,-94.6601,0.2419,-1.85,12.6719,0.0012,-9.8749,-2.7831,0.0034,-71.0136
50500,-107.2792,16.5905,-0.0111,0.0282,-104.5776,0.2657,-2.3972,12.3647,0.0002,-5.6055,-3.1478,-0.0103,-127.6517
50515,-107.2792,16.5905,-0.0111,0.0282,-104.5776,0.2657,-2.3972,12.3647,0.0002,-5.6055,-3.1478,-0.0103,-127.6517
50531,-107.2792,16.5905,-0.0111,0.0282,-104.5776,0.2657,-2.3972,12.3647,0.0002,-5.6055,-3.1478,-0.0103,-127.6517
50547,-107.2792,16.5905,-0.0111,0.0282,-104.5776,0.2657,-2.3972,12.3647,0.0002,-5.6055,-3.1478,-0.0103,-127.6517
50563,-107.2792,16.5905,-0.0111,0.0282,-104.5776,0.2657,-2.3972,12.3647,0.0002,-5.6055,-3.1478,-0.0103,-127.6517
50579,-107.2792,16.5905,-0.0111,0.0282,-104.5776,0.2657,-2.3972,12.3647,0.0002,-5.6055,-3.1478,-0.0103,-127.6517
50595,-107.3946,17.6519,-0.0112,0.0239,-118.6567,0.1573,-2.2345,12.2121,-0.0009,1.8154,-1.7028,-0.0128,-180.3344
50611,-107.3946,17.6519,-0.0112,0.0239,-118.6567,0.1573,-2.2345,12.2121,-0.0009,1.8154,-1.7028,-0.0128,-180.3344
50627,-107.3946,17.6519,-0.0112,0.0239,-118.6567,0.1573,-2.2345,12.2121,-0.0009,1.8154,-1.7028,-0.0128,-180.3344
50643,-107.3946,17.6519,-0.0112,0.0239,-118.6567,0.1573,-2.2345,12.2121,-0.0009,1.8154,-1.7028,-0.0128,-180.3344
50659,-107.3946,17.6519,-0.0112,0.0239,-118.6567,0.1573,-2.2345,12.2121,-0.0009,1.8154,-1.7028,-0.0128,-180.3344
50675,-107.3946,17.6519,-0.0112,0.0239,-118.6567,0.1573,-2.2345,12.2121,-0.0009,1.8154,-1.7028,-0.0128,-180.3344
50693,-107.426,18.7541,-0.0107,-0.058,-138.0135,-0.0962,-0.6719,12.2141,-0.0001,16.0534,0.02,0.0082,-209.6887
50707,-107.426,18.7541,-0.0107,-0.058,-138.0135,-0.0962,-0.6719,12.2141,-0.0001,16.0534,0.02,0.0082,-209.6887
50723,-107.426,18.7541,-0.0107,-0.058,-138.0135,-0.0962,-0.6719,12.2141,-0.0001,16.0534,0.02,0.0082,-209.6887
50739,-107.426,18.7541,-0.0107,-0.058,-138.0135,-0.0962,-0.6719,12.2141,-0.0001,16.0534,0.02,0.0082,-209.6887
50755,-107.426,18.7541,-0.0107,-0.058,-138.0135,-0.0962,-0.6719,12.2141,-0.0001,16.0534,0.02,0.0082,-209.6887
50771,-107.426,18.7541,-0.0107,-0.058,-138.0135,-0.0962,-0.6719,12.2141,-0.0001,16.0534,0.02,0.0082,-209.6887
50787,-107.3073,19.7094,-0.0097,-0.1705,-157.4414,-0.3429,1.4083,11.734,0.0021,23.1868,-5.3509,0.0247,-220.9503
50803,-107.3073,19.7094,-0.0097,-0.1705,-157.4414,-0.3429,1.4083,11.734,0.0021,23.1868,-5.3509,0.0247,-220.9503
50835,-107.3073,19.7094,-0.0097,-0.1705,-157.4414,-0.3429,1.4083,11.734,0.0021,23.1868,-5.3509,0.0247,-220.9503
50851,-107.3073,19.7094,-0.0097,-0.1705,-157.4414,-0.3429,1.4083,11.734,0.0021,23.1868,-5.3509,0.0247,-220.9503
50869,-107.0551,20.5619,-0.009,-0.242,-178.0158,-0.605,2.9989,9.909,0.0026,17.218,-19.7559,0.0056,-223.281
50883,-107.0551,20.5619,-0.009,-0.242,-178.0158,-0.605,2.9989,9.909,0.0026,17.218,-19.7559,0.0056,-223.281
50899,-107.0551,20.5619,-0.009,-0.242,-178.0158,-0.605,2.9989,9.909,0.0026,17.218,-19.7559,0.0056,-223.281
50915,-107.0551,20.5619,-0.009,-0.242,-178.0158,-0.605,2.9989,9.909,0.0026,17.218,-19.7559,0.0056,-223.281
50931,-107.0551,20.5619,-0.009,-0.242,-178.0158,-0.605,2.9989,9.909,0.0026,17.218,-19.7559,0.0056,-223.281
50947,-107.0551,20.5619,-0.009,-0.242,-178.0158,-0.605,2.9989,9.909,0.0026,17.218,-19.7559,0.0056,-223.281
50964,-106.8262,21.1929,-0.0091,-0.2014,163.2496,-0.8171,2.3293,7.8554,-0.0034,-7.6051,-23.3218,-0.068,-201.7142
50979,-106.8262,21.1929,-0.0091,-0.2014,163.2496,-0.8171,2.3293,7.8554,-0.0034,-7.6051,-23.3218,-0.068,-201.7142
50995,-106.8262,21.1929,-0.0091,-0.2014,163.2496,-0.8171,2.3293,7.8554,-0.0034,-7.6051,-23.3218,-0.068,-201.7142
51011,-106.8262,21.1929,-0.0091,-0.2014,163.2496,-0.8171,2.3293,7.8554,-0.0034,-7.6051,-23.3218,-0.068,-201.7142
51027,-106.8262,21.1929,-0.0091,-0.2014,163.2496,-0.8171,2.3293,7.8554,-0.0034,-7.6051,-23.3218,-0.068,-201.7142
51045,-106.761,21.6782,-0.0098,-0.0907,147.0536,-0.9495,0.6117,6.602,0.0026,-20.4483,-14.9224,0.0714,-181.3579
51059,-106.761,21.6782,-0.0098,-0.0907,147.0536,-0.9495,0.6117,6.602,0.0026,-20.4483,-14.9224,0.0714,-181.3579
51075,-106.761,21.6782,-0.0098,-0.0907,147.0536,-0.9495,0.6117,6.602,0.0026,-20.4483,-14.9224,0.0714,-181.3579
51091,-106.761,21.6782,-0.0098,-0.0907,147.0536,-0.9495,0.6117,6.602,0.0026,-20.4483,-14.9224,0.0714,-181.3579
51107,-106.761,21.6782,-0.0098,-0.0907,147.0536,-0.9495,0.6117,6.602,0.0026,-20.4483,-14.9224,0.0714,-181.3579
51123,-106.761,21.6782,-0.0098,-0.0907,147.0536,-0.9495,0.6117,6.602,0.0026,-20.4483,-14.9224,0.0714,-181.3579
51139,-106.8782,22.1884,-0.0108,0.0623,133.6619,-0.8813,-1.5457,6.9087,-0.0004,-24.6899,3.51,-0.034,-130.372
51155,-106.8782,22.1884,-0.0108,0.0623,133.6619,-0.8813,-1.5457,6.9087,-0.0004,-24.6899,3.51,-0.034,-130.372
51171,-106.8782,22.1884,-0.0108,0.0623,133.6619,-0.8813,-1.5457,6.9087,-0.0004,-24.6899,3.51,-0.034,-130.372
51187,-106.8782,22.1884,-0.0108,0.0623,133.6619,-0.8813,-1.5457,6.9087,-0.0004,-24.6899,3.51,-0.034,-130.372
51203,-106.8782,22.1884,-0.0108,0.0623,133.6619,-0.8813,-1.5457,6.9087,-0.0004,-24.6899,3.51,-0.034,-130.372
51221,-107.1258,22.7943,-0.0118,0.1761,124.1819,-0.6416,-2.4892,7.8833,-0.0019,-10.8508,11.2076,-0.0171,-98.4148
51235,-107.1258,22.7943,-0.0118,0.1761,124.1819,-0.6416,-2.4892,7.8833,-0.0019,-10.8508,11.2076,-0.0171,-98.4148
51251,-107.1258,22.7943,-0.0118,0.1761,124.1819,-0.6416,-2.4892,7.8833,-0.0019,-10.8508,11.2076,-0.0171,-98.4148
51267,-107.1258,22.7943,-0.0118,0.1761,124.1819,-0.6416,-2.4892,7.8833,-0.0019,-10.8508,11.2076,-0.0171,-98.4148
51283,-107.1258,22.7943,-0.0118,0.1761,124.1819,-0.6416,-2.4892,7.8833,-0.0019,-10.8508,11.2076,-0.0171,-98.4148
51300,-107.368,23.4675,-0.0122,0.1974,116.1821,-0.2859,-2.056,8.7235,-0.0032,5.1716,10.0309,-0.016,-94.1396
51315,-107.368,23.4675,-0.0122,0.1974,116.1821,-0.2859,-2.056,8.7235,-0.0032,5.1716,10.0309,-0.016,-94.1396
51347,-107.368,23.4675,-0.0122,0.1974,116.1821,-0.2859,-2.056,8.7235,-0.0032,5.1716,10.0309,-0.016,-94.1396
51363,-107.368,23.4675,-0.0122,0.1974,116.1821,-0.2859,-2.056,8.7235,-0.0032,5.1716,10.0309,-0.016,-94.1396
51379,-107.368,23.4675,-0.0122,0.1974,116.1821,-0.2859,-2.056,8.7235,-0.0032,5.1716,10.0309,-0.016,-94.1396
51395,-107.6062,24.2757,-0.0124,0.1808,109.277,-0.1245,-2.3732,9.2121,-0.0021,-3.4709,5.3464,0.0123,-51.1812
51411,-107.6062,24.2757,-0.0124,0.1808,109.277,-0.1245,-2.3732,9.2121,-0.0021,-3.4709,5.3464,0.0123,-51.1812
51427,-107.6062,24.2757,-0.0124,0.1808,109.277,-0.1245,-2.3732,9.2121,-0.0021,-3.4709,5.3464,0.0123,-51.1812
51443,-107.6062,24.2757,-0.0124,0.1808,109.277,-0.1245,-2.3732,9.2121,-0.0021,-3.4709,5.3464,0.0123,-51.1812
51459,-107.6062,24.2757,-0.0124,0.1808,109.277,-0.1245,-2.3732,9.2121,-0.0021,-3.4709,5.3464,0.0123,-51.1812
51476,-107.8493,25.0597,-0.0121,0.1392,106.8603,-0.1484,-2.7726,9.3302,-0.0,-4.6877,1.3861,0.0238,-16.5391
51491,-107.8493,25.0597,-0.0121,0.1392,106.8603,-0.1484,-2.7726,9.3302,-0.0,-4.6877,1.3861,0.0238,-16.5391
51507,-107.8493,25.0597,-0.0121,0.1392,106.8603,-0.1484,-2.7726,9.3302,-0.0,-4.6877,1.3861,0.0238,-16.5391
51523,-107.8493,25.0597,-0.0121,0.1392,106.8603,-0.1484,-2.7726,9.3302,-0.0,-4.6877,1.3861,0.0238,-16.5391
51539,-107.8493,25.0597,-0.0121,0.1392,106.8603,-0.1484,-2.7726,9.3302,-0.0,-4.6877,1.3861,0.0238,-16.5391
51555,-107.8493,25.0597,-0.0121,0.1392,106.8603,-0.1484,-2.7726,9.3302,-0.0,-4.6877,1.3861,0.0238,-16.5391
51572,-108.1014,25.8924,-0.0118,0.0953,106.1617,-0.0988,-2.7837,9.434,-0.0003,-0.1252,1.1687,-0.0023,-3.3251
51587,-108.1014,25.8924,-0.0118,0.0953,106.1617,-0.0988,-2.7837,9.434,-0.0003,-0.1252,1.1687,-0.0023,-3.3251
51603,-108.1014,25.8924,-0.0118,0.0953,106.1617,-0.0988,-2.7837,9.434,-0.0003,-0.1252,1.1687,-0.0023,-3.3251
51619,-108.1014,25.8924,-0.0118,0.0953,106.1617,-0.0988,-2.7837,9.434,-0.0003,-0.1252,1.1687,-0.0023,-3.3251
51635,-108.1014,25.8924,-0.0118,0.0953,106.1617,-0.0988,-2.7837,9.434,-0.0003,-0.1252,1.1687,-0.0023,-3.3251
51651,-108.3514,26.7433,-0.0116,0.0624,105.9443,-0.0519,-2.7592,9.5076,-0.0003,0.2729,0.8189,-0.0004,-2.162
51667,-108.3514,26.7433,-0.0116,0.0624,105.9443,-0.0519,-2.7592,9.5076,-0.0003,0.2729,0.8189,-0.0004,-2.162
51683,-108.3514,26.7433,-0.0116,0.0624,105.9443,-0.0519,-2.7592,9.5076,-0.0003,0.2729,0.8189,-0.0004,-2.162
51699,-108.3514,26.7433,-0.0116,0.0624,105.9443,-0.0519,-2.7592,9.5076,-0.0003,0.2729,0.8189,-0.0004,-2.162
51715,-108.3514,26.7433,-0.0116,0.0624,105.9443,-0.0519,-2.7592,9.5076,-0.0003,0.2729,0.8189,-0.0004,-2.162
51731,-108.3514,26.7433,-0.0116,0.0624,105.9443,-0.0519,-2.7592,9.5076,-0.0003,0.2729,0.8189,-0.0004,-2.162
51749,-108.6122,27.6473,-0.0115,0.0412,105.8772,-0.0237,-2.7485,9.585,-0.0002,0.113,0.8171,0.0014,-1.0899
51763,-108.6122,27.6473,-0.0115,0.0412,105.8772,-0.0237,-2.7485,9.585,-0.0002,0.113,0.8171,0.0014,-1.0899
51779,-108.6122,27.6473,-0.0115,0.0412,105.8772,-0.0237,-2.7485,9.585,-0.0002,0.113,0.8171,0.0014,-1.0899
51795,-108.6122,27.6473,-0.0115,0.0412,105.8772,-0.0237,-2.7485,9.585,-0.0002,0.113,0.8171,0.0014,-1.0899
51811,-108.6122,27.6473,-0.0115,0.0412,105.8772,-0.0237,-2.7485,9.585,-0.0002,0.113,0.8171,0.0014,-1.0899
51827,-108.6122,27.6473,-0.0115,0.0412,105.8772,-0.0237,-2.7485,9.585,-0.0002,0.113,0.8171,0.0014,-1.0899
51845,-108.8706,28.5516,-0.0114,0.0286,105.8581,-0.0103,-2.7506,9.6474,-0.0,-0.0228,0.6644,0.0012,-0.7916
51859,-108.8706,28.5516,-0.0114,0.0286,105.8581,-0.0103,-2.7506,9.6474,-0.0,-0.0228,0.6644,0.0012,-0.7916
51875,-108.8706,28.5516,-0.0114,0.0286,105.8581,-0.0103,-2.7506,9.6474,-0.0,-0.0228,0.6644,0.0012,-0.7916
51891,-108.8706,28.5516,-0.0114,0.0286,105.8581,-0.0103,-2.7506,9.6474,-0.0,-0.0228,0.6644,0.0012,-0.7916
51907,-108.8706,28.5516,-0.0114,0.0286,105.8581,-0.0103,-2.7506,9.6474,-0.0,-0.0228,0.6644,0.0012,-0.7916
51923,-108.8706,28.5516,-0.0114,0.0286,105.8581,-0.0103,-2.7506,9.6474,-0.0,-0.0228,0.6644,0.0012,-0.7916
51941,-109.1212,29.4318,-0.0113,0.0213,105.8531,-0.0045,-2.7606,9.7058,0.0,-0.1099,0.6416,0.0005,-0.6289
51955,-109.1212,29.4318,-0.0113,0.0213,105.8531,-0.0045,-2.7606,9.7058,0.0,-0.1099,0.6416,0.0005,-0.6289
51971,-109.1212,29.4318,-0.0113,0.0213,105.8531,-0.0045,-2.7606,9.7058,0.0,-0.1099,0.6416,0.0005,-0.6289
51987,-109.1212,29.4318,-0.0113,0.0213,105.8531,-0.0045,-2.7606,9.7058,0.0,-0.1099,0.6416,0.0005,-0.6289
52003,-109.1212,29.4318,-0.0113,0.0213,105.8531,-0.0045,-2.7606,9.7058,0.0,-0.1099,0.6416,0.0005,-0.6289
52019,-109.1212,29.4318,-0.0113,0.0213,105.8531,-0.0045,-2.7606,9.7058,0.0,-0.1099,0.6416,0.0005,-0.6289
52035,-109.3789,30.3384,-0.0113,0.0164,105.8514,-0.002,-2.7714,9.7531,0.0,-0.1158,0.5082,0.0,-0.6504
52051,-109.3789,30.3384,-0.0113,0.0164,105.8514,-0.002,-2.7714,9.7531,0.0,-0.1158,0.5082,0.0,-0.6504
52067,-109.3789,30.3384,-0.0113,0.0164,105.8514,-0.002,-2.7714,9.7531,0.0,-0.1158,0.5082,0.0,-0.6504
52083,-109.3789,30.3384,-0.0113,0.0164,105.8514,-0.002,-2.7714,9.7531,0.0,-0.1158,0.5082,0.0,-0.6504
52099,-109.3789,30.3384,-0.0113,0.0164,105.8514,-0.002,-2.7714,9.7531,0.0,-0.1158,0.5082,0.0,-0.6504
52115,-109.6346,31.2382,-0.0113,0.0134,105.851,-0.0009,-2.7837,9.8001,0.0,-0.1339,0.5112,0.0002,-0.608
52131,-109.6346,31.2382,-0.0113,0.0134,105.851,-0.0009,-2.7837,9.8001,0.0,-0.1339,0.5112,0.0002,-0.608
52147,-109.6346,31.2382,-0.0113,0.0134,105.851,-0.0009,-2.7837,9.8001,0.0,-0.1339,0.5112,0.0002,-0.608
52163,-109.6346,31.2382,-0.0113,0.0134,105.851,-0.0009,-2.7837,9.8001,0.0,-0.1339,0.5112,0.0002,-0.608
52179,-109.6346,31.2382,-0.0113,0.0134,105.851,-0.0009,-2.7837,9.8001,0.0,-0.1339,0.5112,0.0002,-0.608
52195,-109.6346,31.2382,-0.0113,0.0134,105.851,-0.0009,-2.7837,9.8001,0.0,-0.1339,0.5112,0.0002,-0.608
52213,-109.8932,32.1489,-0.0112,0.0115,105.8509,-0.0005,-2.7958,9.8439,0.0,-0.1297,0.4715,-0.0,-0.6149
52227,-109.8932,32.1489,-0.0112,0.0115,105.8509,-0.0005,-2.7958,9.8439,0.0,-0.1297,0.4715,-0.0,-0.6149
52243,-109.8932,32.1489,-0.0112,0.0115,105.8509,-0.0005,-2.7958,9.8439,0.0,-0.1297,0.4715,-0.0,-0.6149
52259,-109.8932,32.1489,-0.0112,0.0115,105.8509,-0.0005,-2.7958,9.8439,0.0,-0.1297,0.4715,-0.0,-0.6149
52275,-109.8932,32.1489,-0.0112,0.0115,105.8509,-0.0005,-2.7958,9.8439,0.0,-0.1297,0.4715,-0.0,-0.6149
52291,-109.8932,32.1489,-0.0112,0.0115,105.8509,-0.0005,-2.7958,9.8439,0.0,-0.1297,0.4715,-0.0,-0.6149
52309,-110.1486,33.048,-0.0112,0.0105,105.851,-0.0002,-2.8084,9.8889,0.0,-0.1387,0.4948,-0.0001,-0.5671
52323,-110.1486,33.048,-0.0112,0.0105,105.851,-0.0002,-2.8084,9.8889,0.0,-0.1387,0.4948,-0.0001,-0.5671
52339,-110.1486,33.048,-0.0112,0.0105,105.851,-0.0002,-2.8084,9.8889,0.0,-0.1387,0.4948,-0.0001,-0.5671
52355,-110.1486,33.048,-0.0112,0.0105,105.851,-0.0002,-2.8084,9.8889,0.0,-0.1387,0.4948,-0.0001,-0.5671
52371,-110.1486,33.048,-0.0112,0.0105,105.851,-0.0002,-2.8084,9.8889,0.0,-0.1387,0.4948,-0.0001,-0.5671
52387,-110.1486,33.048,-0.0112,0.0105,105.851,-0.0002,-2.8084,9.8889,0.0,-0.1387,0.4948,-0.0001,-0.5671
52403,-110.4048,33.9503,-0.0112,0.0098,105.851,-0.0001,-2.8205,9.9319,0.0,-0.1334,0.4722,-0.0001,-0.5567
52419,-110.4048,33.9503,-0.0112,0.0098,105.851,-0.0001,-2.8205,9.9319,0.0,-0.1334,0.4722,-0.0001,-0.5567
52435,-110.4048,33.9503,-0.0112,0.0098,105.851,-0.0001,-2.8205,9.9319,0.0,-0.1334,0.4722,-0.0001,-0.5567
52451,-110.4048,33.9503,-0.0112,0.0098,105.851,-0.0001,-2.8205,9.9319,0.0,-0.1334,0.4722,-0.0001,-0.5567
52467,-110.4048,33.9503,-0.0112,0.0098,105.851,-0.0001,-2.8205,9.9319,0.0,-0.1334,0.4722,-0.0001,-0.5567
52483,-110.664,34.8629,-0.0112,0.0092,105.851,-0.0001,-2.832,9.9722,-0.0,-0.1247,0.4398,-0.0001,-0.566
52499,-110.664,34.8629,-0.0112,0.0092,105.851,-0.0001,-2.832,9.9722,-0.0,-0.1247,0.4398,-0.0001,-0.566
52515,-110.664,34.8629,-0.0112,0.0092,105.851,-0.0001,-2.832,9.9722,-0.0,-0.1247,0.4398,-0.0001,-0.566
