timestamp,x,y,z,pitch,yaw,roll,vx,vy,vz,ax,ay,az,yaw_rate
41151,-106.6867,-4.8475,0.4786,0.0,-89.3578,0.0,0.0,0.0,-1.4973,0.0,0.0,-9.8,0.0
41167,-106.6867,-4.8475,0.4786,0.0,-89.3578,0.0,0.0,0.0,-1.4973,0.0,0.0,-9.8,0.0
41183,-106.6867,-4.8475,0.4786,0.0,-89.3578,0.0,0.0,0.0,-1.4973,0.0,0.0,-9.8,0.0
41199,-106.6867,-4.8475,0.4786,0.0,-89.3578,0.0,0.0,0.0,-1.4973,0.0,0.0,-9.8,0.0
41215,-106.6867,-4.8475,0.4786,0.0,-89.3578,0.0,0.0,0.0,-1.4973,0.0,0.0,-9.8,0.0
41231,-106.6867,-4.8475,0.3455,0.0,-89.3578,0.0,0.0,0.0,-2.1888,0.0,0.0,-9.8,0.0
41247,-106.6867,-4.8475,0.3455,0.0,-89.3578,0.0,0.0,0.0,-2.1888,0.0,0.0,-9.8,0.0
41264,-106.6867,-4.8475,0.2579,0.0,-89.3578,0.0,0.0,0.0,-2.5447,0.0,0.0,-9.8,0.0
41279,-106.6867,-4.8475,0.2579,0.0,-89.3578,0.0,0.0,0.0,-2.5447,0.0,0.0,-9.8,0.0
41297,-106.6867,-4.8475,0.1672,0.0,-89.3578,0.0,0.0,0.0,-2.8684,0.0,0.0,-9.8,0.0
41311,-106.6867,-4.8475,0.1672,0.0,-89.3578,0.0,0.0,0.0,-2.8684,0.0,0.0,-9.8,0.0
41329,-106.6867,-4.8475,0.0691,0.0,-89.3578,0.0,0.0,0.0,-3.1821,0.0,0.0,-9.8,0.0
41343,-106.6867,-4.8475,0.0691,0.0,-89.3578,0.0,0.0,0.0,-3.1821,0.0,0.0,-9.8,0.0
41361,-106.6867,-4.8463,-0.0074,-0.0018,-89.3578,0.0,-0.0012,0.1047,-2.0369,-0.0386,3.4482,37.705,0.0
41375,-106.6867,-4.8463,-0.0074,-0.0018,-89.3578,0.0,-0.0012,0.1047,-2.0369,-0.0386,3.4482,37.705,0.0
41393,-106.6868,-4.8455,-0.0522,-0.002,-89.3578,0.0,-0.0011,0.0965,-1.0904,0.0029,-0.2595,29.7969,-0.0
41407,-106.6868,-4.8455,-0.0522,-0.002,-89.3578,0.0,-0.0011,0.0965,-1.0904,0.0029,-0.2595,29.7969,-0.0
41425,-106.6868,-4.8429,-0.0743,-0.0047,-89.3577,0.0,-0.0018,0.1616,-0.4944,-0.0233,2.0542,18.7983,0.0012
41439,-106.6868,-4.8429,-0.0743,-0.0047,-89.3577,0.0,-0.0018,0.1616,-0.4944,-0.0233,2.0542,18.7983,0.0012
41457,-106.6868,-4.8375,-0.0822,-0.0091,-89.3611,-0.0001,-0.0022,0.2581,-0.136,-0.0118,3.0891,11.4697,-0.323
41471,-106.6868,-4.8375,-0.0822,-0.0091,-89.3611,-0.0001,-0.0022,0.2581,-0.136,-0.0118,3.0891,11.4697,-0.323
41487,-106.6869,-4.8248,-0.082,-0.0198,-89.3627,-0.0001,-0.0049,0.4346,0.0751,-0.0853,5.5407,6.6278,0.3952
41503,-106.6869,-4.8248,-0.082,-0.0198,-89.3627,-0.0001,-0.0049,0.4346,0.0751,-0.0853,5.5407,6.6278,0.3952
41521,-106.6872,-4.8064,-0.077,-0.0306,-89.3636,0.0001,-0.008,0.6543,0.1874,-0.0956,6.8176,3.4854,0.0979
41535,-106.6872,-4.8064,-0.077,-0.0306,-89.3636,0.0001,-0.008,0.6543,0.1874,-0.0956,6.8176,3.4854,0.0979
41551,-106.6874,-4.7822,-0.0699,-0.0407,-89.3683,0.0001,-0.0088,0.8241,0.2359,-0.026,5.3315,1.5229,-1.0169
41567,-106.6874,-4.7822,-0.0699,-0.0407,-89.3683,0.0001,-0.0088,0.8241,0.2359,-0.026,5.3315,1.5229,-1.0169
41585,-106.6878,-4.7506,-0.0617,-0.0506,-89.3648,0.0,-0.0111,1.026,0.247,-0.07,6.1017,0.3344,-0.2115
41599,-106.6878,-4.7506,-0.0617,-0.0506,-89.3648,0.0,-0.0111,1.026,0.247,-0.07,6.1017,0.3344,-0.2115
41617,-106.688,-4.7167,-0.0532,-0.0555,-89.3774,-0.0002,-0.0108,1.1004,0.2539,0.0119,2.329,0.2178,-0.2258
41631,-106.688,-4.7167,-0.0532,-0.0555,-89.3774,-0.0002,-0.0108,1.1004,0.2539,0.0119,2.329,0.2178,-0.2258
41649,-106.6883,-4.6837,-0.046,-0.0531,-89.3797,-0.0002,-0.0111,1.0972,0.2216,-0.0103,-0.1041,-1.0428,-0.0414
41663,-106.6883,-4.6837,-0.046,-0.0531,-89.3797,-0.0002,-0.0111,1.0972,0.2216,-0.0103,-0.1041,-1.0428,-0.0414
41681,-106.6887,-4.6496,-0.0395,-0.0471,-89.3771,-0.0002,-0.0117,1.0952,0.1893,-0.0206,-0.0621,-0.9969,0.1121
41695,-106.6887,-4.6496,-0.0395,-0.0471,-89.3771,-0.0002,-0.0117,1.0952,0.1893,-0.0206,-0.0621,-0.9969,0.1121
41713,-106.6892,-4.6137,-0.0339,-0.041,-89.3628,0.0,-0.0125,1.1522,0.1574,-0.0217,1.6972,-0.9505,1.5528
41727,-106.6892,-4.6137,-0.0339,-0.041,-89.3628,0.0,-0.0125,1.1522,0.1574,-0.0217,1.6972,-0.9505,1.5528
41745,-106.6895,-4.5769,-0.0295,-0.039,-89.3722,-0.0,-0.0124,1.2116,0.129,0.0031,1.8717,-0.8946,-0.7308
41759,-106.6895,-4.5769,-0.0295,-0.039,-89.3722,-0.0,-0.0124,1.2116,0.129,0.0031,1.8717,-0.8946,-0.7308
41777,-106.6897,-4.5362,-0.0256,-0.0375,-89.3972,-0.0001,-0.0149,1.3507,0.1053,-0.0767,4.1536,-0.7094,-0.487
41791,-106.6897,-4.5362,-0.0256,-0.0375,-89.3972,-0.0001,-0.0149,1.3507,0.1053,-0.0767,4.1536,-0.7094,-0.487
41808,-106.6901,-4.4945,-0.0228,-0.0392,-89.4064,0.0,-0.0163,1.4685,0.0851,-0.0425,3.7855,-0.6475,-0.2363
41823,-106.6901,-4.4945,-0.0228,-0.0392,-89.4064,0.0,-0.0163,1.4685,0.0851,-0.0425,3.7855,-0.6475,-0.2363
41840,-106.6906,-4.4485,-0.0204,-0.041,-89.4104,0.0,-0.0168,1.5479,0.0691,-0.0161,2.4926,-0.5016,0.0496
41855,-106.6906,-4.4485,-0.0204,-0.041,-89.4104,0.0,-0.0168,1.5479,0.0691,-0.0161,2.4926,-0.5016,0.0496
41873,-106.6912,-4.3997,-0.0184,-0.0417,-89.3996,-0.0001,-0.0169,1.6125,0.0556,-0.0027,2.0167,-0.4218,1.8045
41887,-106.6912,-4.3997,-0.0184,-0.0417,-89.3996,-0.0001,-0.0169,1.6125,0.0556,-0.0027,2.0167,-0.4218,1.8045
41905,-106.6917,-4.3492,-0.0169,-0.0419,-89.4122,-0.0001,-0.0169,1.7062,0.0446,-0.0019,2.958,-0.3468,1.0525
41919,-106.6917,-4.3492,-0.0169,-0.0419,-89.4122,-0.0001,-0.0169,1.7062,0.0446,-0.0019,2.958,-0.3468,1.0525
41937,-106.6926,-4.2867,-0.0156,-0.0576,-89.3755,0.0003,-0.0241,2.1403,0.0359,-0.2314,14.0403,-0.2836,3.3439
41951,-106.6926,-4.2867,-0.0156,-0.0576,-89.3755,0.0003,-0.0241,2.1403,0.0359,-0.2314,14.0403,-0.2836,3.3439
41968,-106.693,-4.2126,-0.0144,-0.0682,-89.4262,-0.0005,-0.0205,2.2897,0.0286,0.1063,4.4642,-0.2176,-1.0457
41983,-106.693,-4.2126,-0.0144,-0.0682,-89.4262,-0.0005,-0.0205,2.2897,0.0286,0.1063,4.4642,-0.2176,-1.0457
42000,-106.6934,-4.1392,-0.0136,-0.0725,-89.4592,-0.0008,-0.0218,2.4268,0.0226,-0.04,4.3902,-0.1907,-1.07
42015,-106.6934,-4.1392,-0.0136,-0.0725,-89.4592,-0.0008,-0.0218,2.4268,0.0226,-0.04,4.3902,-0.1907,-1.07
42032,-106.6941,-4.0566,-0.013,-0.0749,-89.4687,-0.0009,-0.0237,2.5857,0.018,-0.0583,4.8153,-0.1409,-0.4687
42047,-106.6941,-4.0566,-0.013,-0.0749,-89.4687,-0.0009,-0.0237,2.5857,0.018,-0.0583,4.8153,-0.1409,-0.4687
42064,-106.6948,-3.9729,-0.0125,-0.0759,-89.473,-0.0008,-0.025,2.7387,0.0142,-0.0413,4.846,-0.1195,-0.0166
42079,-106.6948,-3.9729,-0.0125,-0.0759,-89.473,-0.0008,-0.025,2.7387,0.0142,-0.0413,4.846,-0.1195,-0.0166
42097,-106.6956,-3.8785,-0.0121,-0.0767,-89.4751,-0.0006,-0.0265,2.8995,0.0112,-0.0437,4.7925,-0.0889,-0.0075
42111,-106.6956,-3.8785,-0.0121,-0.0767,-89.4751,-0.0006,-0.0265,2.8995,0.0112,-0.0437,4.7925,-0.0889,-0.0075
42129,-106.6965,-3.7817,-0.0117,-0.0782,-89.4759,-0.0005,-0.0282,3.0966,0.0088,-0.0552,6.0916,-0.0749,-0.0244
42143,-106.6965,-3.7817,-0.0117,-0.0782,-89.4759,-0.0005,-0.0282,3.0966,0.0088,-0.0552,6.0916,-0.0749,-0.0244
42161,-106.6975,-3.6759,-0.0115,-0.0806,-89.4764,-0.0005,-0.03,3.2927,0.0069,-0.0532,5.9051,-0.0565,0.012
42175,-106.6975,-3.6759,-0.0115,-0.0806,-89.4764,-0.0005,-0.03,3.2927,0.0069,-0.0532,5.9051,-0.0565,0.012
42192,-106.6984,-3.572,-0.0113,-0.0848,-89.4764,-0.0004,-0.0324,3.5618,0.0055,-0.0786,8.8386,-0.0474,0.0217
42207,-106.6984,-3.572,-0.0113,-0.0848,-89.4764,-0.0004,-0.0324,3.5618,0.0055,-0.0786,8.8386,-0.0474,0.0217
42225,-106.6995,-3.4569,-0.0111,-0.0893,-89.476,-0.0003,-0.0342,3.7617,0.0043,-0.0566,6.3236,-0.0354,0.1038
42239,-106.6995,-3.4569,-0.0111,-0.0893,-89.476,-0.0003,-0.0342,3.7617,0.0043,-0.0566,6.3236,-0.0354,0.1038
42256,-106.7006,-3.3346,-0.0109,-0.0931,-89.4721,-0.0002,-0.036,3.9734,0.0035,-0.0576,6.6758,-0.0277,0.8129
42271,-106.7006,-3.3346,-0.0109,-0.0931,-89.4721,-0.0002,-0.036,3.9734,0.0035,-0.0576,6.6758,-0.0277,0.8129
42289,-106.7018,-3.209,-0.0108,-0.0951,-89.4681,-0.0002,-0.0376,4.1513,0.0028,-0.0505,5.7281,-0.0231,1.6315
42303,-106.7018,-3.209,-0.0108,-0.0951,-89.4681,-0.0002,-0.0376,4.1513,0.0028,-0.0505,5.7281,-0.0231,1.6315
42321,-106.7031,-3.0774,-0.0107,-0.0958,-89.4622,-0.0001,-0.0396,4.3266,0.0022,-0.0653,5.6267,-0.018,1.6855
42335,-106.7031,-3.0774,-0.0107,-0.0958,-89.4622,-0.0001,-0.0396,4.3266,0.0022,-0.0653,5.6267,-0.018,1.6855
42353,-106.7045,-2.9323,-0.0107,-0.0959,-89.457,0.0001,-0.0418,4.5133,0.0017,-0.0668,5.6698,-0.0143,1.8139
42367,-106.7045,-2.9323,-0.0107,-0.0959,-89.457,0.0001,-0.0418,4.5133,0.0017,-0.0668,5.6698,-0.0143,1.8139
42385,-106.7059,-2.7911,-0.0106,-0.0966,-89.448,0.0002,-0.0443,4.7128,0.0014,-0.0801,6.5046,-0.0114,1.5648
42399,-106.7059,-2.7911,-0.0106,-0.0966,-89.448,0.0002,-0.0443,4.7128,0.0014,-0.0801,6.5046,-0.0114,1.5648
42417,-106.7074,-2.6397,-0.0106,-0.0988,-89.4425,0.0003,-0.047,4.9435,0.0011,-0.0863,7.3556,-0.009,1.4652
42431,-106.7074,-2.6397,-0.0106,-0.0988,-89.4425,0.0003,-0.047,4.9435,0.0011,-0.0863,7.3556,-0.009,1.4652
42449,-106.709,-2.472,-0.0105,-0.101,-89.4398,0.0004,-0.0494,5.1643,0.0009,-0.0723,6.6518,-0.007,1.5637
42463,-106.709,-2.472,-0.0105,-0.101,-89.4398,0.0004,-0.0494,5.1643,0.0009,-0.0723,6.6518,-0.007,1.5637
42481,-106.7106,-2.3044,-0.0105,-0.1026,-89.4391,0.0004,-0.0517,5.3805,0.0007,-0.0721,6.7832,-0.006,1.1733
42495,-106.7106,-2.3044,-0.0105,-0.1026,-89.4391,0.0004,-0.0517,5.3805,0.0007,-0.0721,6.7832,-0.006,1.1733
42513,-106.7123,-2.1359,-0.0105,-0.1053,-89.44,0.0004,-0.0543,5.6262,0.0005,-0.0866,8.0268,-0.0044,0.7394
42527,-106.7123,-2.1359,-0.0105,-0.1053,-89.44,0.0004,-0.0543,5.6262,0.0005,-0.0866,8.0268,-0.0044,0.7394
42545,-106.7142,-1.9354,-0.0104,-0.1087,-89.4398,0.0003,-0.0568,5.8751,0.0004,-0.0718,7.1589,-0.0031,1.0919
42559,-106.7142,-1.9354,-0.0104,-0.1087,-89.4398,0.0003,-0.0568,5.8751,0.0004,-0.0718,7.1589,-0.0031,1.0919
42576,-106.716,-1.7489,-0.0104,-0.1093,-89.441,0.0003,-0.0589,6.0792,0.0003,-0.0665,6.5246,-0.0034,0.6954
42591,-106.716,-1.7489,-0.0104,-0.1093,-89.441,0.0003,-0.0589,6.0792,0.0003,-0.0665,6.5246,-0.0034,0.6954
42609,-106.7181,-1.5416,-0.0104,-0.1119,-89.4396,0.0003,-0.0617,6.3456,0.0002,-0.0834,8.0112,-0.0022,0.5755
42623,-106.7181,-1.5416,-0.0104,-0.1119,-89.4396,0.0003,-0.0617,6.3456,0.0002,-0.0834,8.0112,-0.0022,0.5755
42640,-106.7201,-1.3282,-0.0104,-0.1127,-89.4393,0.0002,-0.0637,6.5559,0.0002,-0.0604,6.3563,-0.001,0.7994
42655,-106.7201,-1.3282,-0.0104,-0.1127,-89.4393,0.0002,-0.0637,6.5559,0.0002,-0.0604,6.3563,-0.001,0.7994
42671,-106.7222,-1.1152,-0.0103,-0.1127,-89.4397,0.0002,-0.0659,6.7757,0.0002,-0.0702,6.8785,-0.0013,0.5294
42687,-106.7222,-1.1152,-0.0103,-0.1127,-89.4397,0.0002,-0.0659,6.7757,0.0002,-0.0702,6.8785,-0.0013,0.5294
42703,-106.7244,-0.889,-0.0103,-0.1136,-89.4402,0.0002,-0.0684,7.0155,0.0001,-0.0744,7.3237,-0.0012,0.3082
42719,-106.7244,-0.889,-0.0103,-0.1136,-89.4402,0.0002,-0.0684,7.0155,0.0001,-0.0744,7.3237,-0.0012,0.3082
42735,-106.7267,-0.6512,-0.0103,-0.1139,-89.4403,0.0001,-0.0705,7.2353,0.0001,-0.0651,6.5965,-0.0009,0.2715
42751,-106.7267,-0.6512,-0.0103,-0.1139,-89.4403,0.0001,-0.0705,7.2353,0.0001,-0.0651,6.5965,-0.0009,0.2715
42767,-106.7291,-0.4116,-0.0103,-0.1132,-89.4405,0.0001,-0.0726,7.4431,0.0001,-0.062,6.3741,-0.0006,0.2435
42783,-106.7291,-0.4116,-0.0103,-0.1132,-89.4405,0.0001,-0.0726,7.4431,0.0001,-0.062,6.3741,-0.0006,0.2435
42799,-106.7314,-0.1774,-0.0103,-0.113,-89.441,0.0001,-0.0748,7.6646,0.0001,-0.0713,7.1552,-0.0008,0.0291
42815,-106.7314,-0.1774,-0.0103,-0.113,-89.441,0.0001,-0.0748,7.6646,0.0001,-0.0713,7.1552,-0.0008,0.0291
42831,-106.7338,0.0709,-0.0103,-0.1139,-89.441,0.0001,-0.0771,7.8987,0.0,-0.0722,7.3557,-0.001,-0.0009
42847,-106.7338,0.0709,-0.0103,-0.1139,-89.441,0.0001,-0.0771,7.8987,0.0,-0.0722,7.3557,-0.001,-0.0009
42863,-106.7363,0.3308,-0.0103,-0.1145,-89.441,0.0001,-0.0793,8.1237,0.0,-0.0679,6.9549,0.0004,-0.0019
42879,-106.7363,0.3308,-0.0103,-0.1145,-89.441,0.0001,-0.0793,8.1237,0.0,-0.0679,6.9549,0.0004,-0.0019
42895,-106.7389,0.591,-0.0103,-0.1145,-89.441,0.0001,-0.0813,8.3311,0.0,-0.0643,6.5752,-0.0005,-0.003
42911,-106.7389,0.591,-0.0103,-0.1145,-89.441,0.0001,-0.0813,8.3311,0.0,-0.0643,6.5752,-0.0005,-0.003
42927,-106.7416,0.8724,-0.0103,-0.1135,-89.441,0.0001,-0.0833,8.5404,0.0,-0.0615,6.2932,0.0,-0.0061
42943,-106.7416,0.8724,-0.0103,-0.1135,-89.441,0.0001,-0.0833,8.5404,0.0,-0.0615,6.2932,0.0,-0.0061
42960,-106.7442,1.1409,-0.0103,-0.1121,-89.441,0.0,-0.0851,8.7259,0.0,-0.0583,5.975,-0.0001,-0.0077
42975,-106.7442,1.1409,-0.0103,-0.1121,-89.441,0.0,-0.0851,8.7259,0.0,-0.0583,5.975,-0.0001,-0.0077
42991,-106.7469,1.4194,-0.0103,-0.1102,-89.441,0.0,-0.0869,8.9097,0.0,-0.0569,5.8325,-0.0002,-0.0104
43007,-106.7469,1.4194,-0.0103,-0.1102,-89.441,0.0,-0.0869,8.9097,0.0,-0.0569,5.8325,-0.0002,-0.0104
43025,-106.7497,1.7002,-0.0104,-0.1081,-89.441,0.0,-0.0887,9.0854,-0.0,-0.0551,5.6419,-0.0007,-0.0124
43039,-106.7497,1.7002,-0.0104,-0.1081,-89.441,0.0,-0.0887,9.0854,-0.0,-0.0551,5.6419,-0.0007,-0.0124
43055,-106.7525,1.9922,-0.0104,-0.1057,-89.441,0.0,-0.0903,9.259,-0.0,-0.0533,5.4654,0.0001,-0.016
43071,-106.7525,1.9922,-0.0104,-0.1057,-89.441,0.0,-0.0903,9.259,-0.0,-0.0533,5.4654,0.0001,-0.016
43089,-106.7553,2.2797,-0.0104,-0.1033,-89.441,0.0,-0.0919,9.4215,-0.0,-0.0516,5.2907,0.0001,-0.0149
43103,-106.7553,2.2797,-0.0104,-0.1033,-89.441,0.0,-0.0919,9.4215,-0.0,-0.0516,5.2907,0.0001,-0.0149
43121,-106.7583,2.5819,-0.0104,-0.1008,-89.441,0.0,-0.0935,9.5846,0.0,-0.05,5.1412,0.0005,-0.0162
43135,-106.7583,2.5819,-0.0104,-0.1008,-89.441,0.0,-0.0935,9.5846,0.0,-0.05,5.1412,0.0005,-0.0162
43153,-106.7613,2.8874,-0.0104,-0.0982,-89.441,0.0,-0.0951,9.7423,0.0,-0.0488,4.9972,-0.0001,-0.0156
43167,-106.7613,2.8874,-0.0104,-0.0982,-89.441,0.0,-0.0951,9.7423,0.0,-0.0488,4.9972,-0.0001,-0.0156
43185,-106.7645,3.2189,-0.0105,-0.0955,-89.4411,0.0,-0.0967,9.9061,0.0,-0.0475,4.8634,0.0001,-0.0227
43199,-106.7645,3.2189,-0.0105,-0.0955,-89.4411,0.0,-0.0967,9.9061,0.0,-0.0475,4.8634,0.0001,-0.0227
43216,-106.7677,3.5457,-0.0105,-0.0929,-89.4411,0.0,-0.0982,10.0608,0.0,-0.0461,4.7347,-0.0001,-0.0241
43231,-106.7677,3.5457,-0.0105,-0.0929,-89.4411,0.0,-0.0982,10.0608,0.0,-0.0461,4.7347,-0.0001,-0.0241
43247,-106.771,3.8849,-0.0105,-0.0904,-89.4411,-0.0,-0.0997,10.215,-0.0,-0.0451,4.6168,-0.0005,-0.0281
43263,-106.771,3.8849,-0.0105,-0.0904,-89.4411,-0.0,-0.0997,10.215,-0.0,-0.0451,4.6168,-0.0005,-0.0281
43279,-106.7743,4.2268,-0.0105,-0.088,-89.4411,0.0,-0.1011,10.3644,0.0,-0.0439,4.5046,0.0003,-0.0286
43295,-106.7743,4.2268,-0.0105,-0.088,-89.4411,0.0,-0.1011,10.3644,0.0,-0.0439,4.5046,0.0003,-0.0286
43313,-106.7777,4.5759,-0.0105,-0.0856,-89.4411,0.0,-0.1026,10.5112,0.0,-0.0429,4.3983,0.0001,-0.0282
43327,-106.7777,4.5759,-0.0105,-0.0856,-89.4411,0.0,-0.1026,10.5112,0.0,-0.0429,4.3983,0.0001,-0.0282
43345,-106.7811,4.9226,-0.0105,-0.0835,-89.4411,0.0,-0.1039,10.6518,0.0,-0.0419,4.2974,-0.0001,-0.0218
43359,-106.7811,4.9226,-0.0105,-0.0835,-89.4411,0.0,-0.1039,10.6518,0.0,-0.0419,4.2974,-0.0001,-0.0218
43375,-106.7811,4.9226,-0.0105,-0.0835,-89.4411,0.0,-0.1039,10.6518,0.0,-0.0419,4.2974,-0.0001,-0.0218
43391,-106.7845,5.2634,-0.0106,-0.0815,-89.441,0.0,-0.1052,10.7852,-0.0,-0.041,4.2028,-0.0,-0.0121
43407,-106.7845,5.2634,-0.0106,-0.0815,-89.441,0.0,-0.1052,10.7852,-0.0,-0.041,4.2028,-0.0,-0.0121
43423,-106.788,5.6295,-0.0106,-0.0794,-89.441,0.0,-0.1066,10.9236,0.0,-0.0401,4.1103,0.0001,-0.0102
43439,-106.788,5.6295,-0.0106,-0.0794,-89.441,0.0,-0.1066,10.9236,0.0,-0.0401,4.1103,0.0001,-0.0102
43455,-106.7915,5.9844,-0.0106,-0.0775,-89.441,0.0,-0.1078,11.0533,-0.0,-0.0392,4.0192,-0.0003,-0.0056
43471,-106.7915,5.9844,-0.0106,-0.0775,-89.441,0.0,-0.1078,11.0533,-0.0,-0.0392,4.0192,-0.0003,-0.0056
43489,-106.7951,6.3526,-0.0106,-0.0757,-89.441,-0.0,-0.1091,11.1833,0.0,-0.0383,3.932,0.0003,-0.0035
43503,-106.7951,6.3526,-0.0106,-0.0757,-89.441,-0.0,-0.1091,11.1833,0.0,-0.0383,3.932,0.0003,-0.0035
43520,-106.7987,6.722,-0.0106,-0.0739,-89.441,0.0,-0.1103,11.3094,0.0,-0.0375,3.8462,-0.0001,-0.002
43535,-106.7987,6.722,-0.0106,-0.0739,-89.441,0.0,-0.1103,11.3094,0.0,-0.0375,3.8462,-0.0001,-0.002
43551,-106.8022,7.0833,-0.0106,-0.0723,-89.441,0.0,-0.1115,11.4289,0.0,-0.0367,3.7642,0.0,-0.0008
43567,-106.8022,7.0833,-0.0106,-0.0723,-89.441,0.0,-0.1115,11.4289,0.0,-0.0367,3.7642,0.0,-0.0008
43585,-106.8058,7.447,-0.0106,-0.0708,-89.441,-0.0,-0.1126,11.5455,-0.0,-0.0359,3.6858,-0.0002,-0.0003
43599,-106.8058,7.447,-0.0106,-0.0708,-89.441,-0.0,-0.1126,11.5455,-0.0,-0.0359,3.6858,-0.0002,-0.0003
43618,-106.8093,7.8119,-0.0106,-0.0693,-89.441,0.0,-0.1137,11.6588,-0.0,-0.0352,3.6096,0.0001,-0.0001
43631,-106.8093,7.8119,-0.0106,-0.0693,-89.441,0.0,-0.1137,11.6588,-0.0,-0.0352,3.6096,0.0001,-0.0001
43647,-106.8131,8.1983,-0.0107,-0.0677,-89.441,0.0,-0.1149,11.7752,-0.0,-0.0344,3.5338,0.0,-0.0
43663,-106.8131,8.1983,-0.0107,-0.0677,-89.441,0.0,-0.1149,11.7752,-0.0,-0.0344,3.5338,0.0,-0.0
43679,-106.8168,8.5768,-0.0107,-0.0663,-89.441,0.0,-0.116,11.8858,0.0,-0.0337,3.4586,0.0001,-0.0
43695,-106.8168,8.5768,-0.0107,-0.0663,-89.441,0.0,-0.116,11.8858,0.0,-0.0337,3.4586,0.0001,-0.0
43713,-106.8206,8.9674,-0.0107,-0.0649,-89.441,0.0,-0.117,11.9964,0.0,-0.033,3.3858,0.0002,-0.0
43727,-106.8206,8.9674,-0.0107,-0.0649,-89.441,0.0,-0.117,11.9964,0.0,-0.033,3.3858,0.0002,-0.0
43744,-106.8243,9.3469,-0.0107,-0.0636,-89.441,0.0,-0.1181,12.1007,0.0,-0.0324,3.3146,-0.0001,-0.0
43759,-106.8243,9.3469,-0.0107,-0.0636,-89.441,0.0,-0.1181,12.1007,0.0,-0.0324,3.3146,-0.0001,-0.0
43777,-106.8283,9.7541,-0.0107,-0.0622,-89.441,-0.0,-0.1191,12.2093,0.0,-0.0317,3.2448,-0.0,-0.0
43791,-106.8283,9.7541,-0.0107,-0.0622,-89.441,-0.0,-0.1191,12.2093,0.0,-0.0317,3.2448,-0.0,-0.0
43807,-106.832,10.1421,-0.0107,-0.0609,-89.441,0.0,-0.1201,12.3097,-0.0,-0.031,3.1755,-0.0002,-0.0
43823,-106.832,10.1421,-0.0107,-0.0609,-89.441,0.0,-0.1201,12.3097,-0.0,-0.031,3.1755,-0.0002,-0.0
43841,-106.8359,10.5358,-0.0107,-0.0596,-89.441,-0.0,-0.1211,12.4086,-0.0,-0.0303,3.1101,-0.0002,-0.0
43855,-106.8359,10.5358,-0.0107,-0.0596,-89.441,-0.0,-0.1211,12.4086,-0.0,-0.0303,3.1101,-0.0002,-0.0
43873,-106.8396,10.9216,-0.0107,-0.0585,-89.441,0.0,-0.122,12.5029,0.0,-0.0297,3.0463,0.0005,-0.0
43887,-106.8396,10.9216,-0.0107,-0.0585,-89.441,0.0,-0.122,12.5029,0.0,-0.0297,3.0463,0.0005,-0.0
43905,-106.8436,11.3286,-0.0107,-0.0573,-89.441,0.0,-0.1229,12.5996,0.0,-0.0291,2.9836,-0.0003,-0.0
43919,-106.8436,11.3286,-0.0107,-0.0573,-89.441,0.0,-0.1229,12.5996,0.0,-0.0291,2.9836,-0.0003,-0.0
43937,-106.8474,11.7176,-0.0107,-0.0561,-89.441,0.0,-0.1238,12.6863,0.0,-0.0275,2.8216,0.0001,-0.0
43952,-106.8474,11.7176,-0.0107,-0.0561,-89.441,0.0,-0.1238,12.6863,0.0,-0.0275,2.8216,0.0001,-0.0
43967,-106.8514,12.1239,-0.0108,-0.0545,-89.441,-0.0,-0.1245,12.766,-0.0,-0.0244,2.4993,-0.0003,-0.0
43983,-106.8514,12.1239,-0.0108,-0.0545,-89.441,-0.0,-0.1245,12.766,-0.0,-0.0244,2.4993,-0.0003,-0.0
43999,-106.8553,12.5294,-0.0108,-0.0525,-89.441,-0.0,-0.1252,12.8358,-0.0,-0.0215,2.2047,-0.0006,-0.0
44015,-106.8553,12.5294,-0.0108,-0.0525,-89.441,-0.0,-0.1252,12.8358,-0.0,-0.0215,2.2047,-0.0006,-0.0
44031,-106.8593,12.937,-0.0108,-0.0501,-89.441,0.0,-0.1258,12.8974,0.0,-0.0189,1.945,0.0009,-0.0
44047,-106.8593,12.937,-0.0108,-0.0501,-89.441,0.0,-0.1258,12.8974,0.0,-0.0189,1.945,0.0009,-0.0
44063,-106.8632,13.3363,-0.0108,-0.0475,-89.441,0.0,-0.1263,12.9504,0.0,-0.0168,1.7155,0.0001,-0.0
44079,-106.8632,13.3363,-0.0108,-0.0475,-89.441,0.0,-0.1263,12.9504,0.0,-0.0168,1.7155,0.0001,-0.0
44095,-106.8673,13.7565,-0.0108,-0.0446,-89.441,0.0,-0.1268,12.9995,-0.0,-0.0148,1.5168,-0.0002,-0.0
44111,-106.8673,13.7565,-0.0108,-0.0446,-89.441,0.0,-0.1268,12.9995,-0.0,-0.0148,1.5168,-0.0002,-0.0
44127,-106.8712,14.1602,-0.0109,-0.0417,-89.441,0.0,-0.1272,13.0408,-0.0,-0.013,1.3329,-0.0003,-0.0
44143,-106.8712,14.1602,-0.0109,-0.0417,-89.441,0.0,-0.1272,13.0408,-0.0,-0.013,1.3329,-0.0003,-0.0
44175,-106.8756,14.6041,-0.0109,-0.0384,-89.441,0.0,-0.1276,13.0809,-0.0,-0.0115,1.1798,0.0002,-0.0
44191,-106.8818,15.0281,-0.0109,-0.035,-89.5304,0.0141,-0.2764,13.0998,0.0001,-4.5943,0.5835,0.0031,-5.1119
44207,-106.8818,15.0281,-0.0109,-0.035,-89.5304,0.0141,-0.2764,13.0998,0.0001,-4.5943,0.5835,0.0031,-5.1119
44223,-106.8934,15.4466,-0.0109,-0.0304,-89.8758,0.0519,-0.5422,13.0825,0.0005,-8.3121,-0.539,0.0113,-14.6028
44239,-106.8934,15.4466,-0.0109,-0.0304,-89.8758,0.0519,-0.5422,13.0825,0.0005,-8.3121,-0.539,0.0113,-14.6028
44255,-106.9115,15.8512,-0.0109,-0.024,-90.5529,0.1017,-0.85,13.0337,0.0009,-9.9339,-1.5742,0.013,-26.4399
44271,-106.9115,15.8512,-0.0109,-0.024,-90.5529,0.1017,-0.85,13.0337,0.0009,-9.9339,-1.5742,0.013,-26.4399
44287,-106.938,16.2729,-0.011,-0.0151,-91.7025,0.1575,-1.1885,12.9543,0.0012,-10.418,-2.4443,0.0093,-40.9402
44304,-106.9693,16.6679,-0.011,-0.0052,-93.2445,0.2041,-1.4933,12.8619,0.0013,-9.9402,-3.014,0.003,-56.0392
44319,-106.9693,16.6679,-0.011,-0.0052,-93.2445,0.2041,-1.4933,12.8619,0.0013,-9.9402,-3.014,0.003,-56.0392
44335,-106.9693,16.6679,-0.011,-0.0052,-93.2445,0.2041,-1.4933,12.8619,0.0013,-9.9402,-3.014,0.003,-56.0392
44351,-107.007,17.0699,-0.0111,0.0059,-95.3372,0.2415,-1.7757,12.7564,0.0012,-8.9633,-3.3498,-0.0028,-72.7706
44367,-107.007,17.0699,-0.0111,0.0059,-95.3372,0.2415,-1.7757,12.7564,0.0012,-8.9633,-3.3498,-0.0028,-72.7706
44383,-107.0488,17.4686,-0.0111,0.0167,-97.9856,0.2648,-2.0114,12.6483,0.0009,-7.4569,-3.4184,-0.0079,-90.4978
44399,-107.0929,17.8643,-0.0111,0.0262,-101.226,0.2721,-2.1877,12.5451,0.0006,-5.5525,-3.2515,-0.0109,-109.0013
44415,-107.0929,17.8643,-0.0111,0.0262,-101.226,0.2721,-2.1877,12.5451,0.0006,-5.5525,-3.2515,-0.0109,-109.0013
44432,-107.1388,18.2678,-0.0112,0.0332,-105.2097,0.2622,-2.297,12.4497,0.0001,-3.3259,-2.9045,-0.0131,-128.6388
44447,-107.1388,18.2678,-0.0112,0.0332,-105.2097,0.2622,-2.297,12.4497,0.0001,-3.3259,-2.9045,-0.0131,-128.6388
44463,-107.1388,18.2678,-0.0112,0.0332,-105.2097,0.2622,-2.297,12.4497,0.0001,-3.3259,-2.9045,-0.0131,-128.6388
44479,-107.183,18.6713,-0.0112,0.0361,-109.9253,0.2351,-2.3227,12.3694,-0.0003,-0.7715,-2.4055,-0.0133,-148.8267
44495,-107.183,18.6713,-0.0112,0.0361,-109.9253,0.2351,-2.3227,12.3694,-0.0003,-0.7715,-2.4055,-0.0133,-148.8267
44511,-107.2212,19.0516,-0.0112,0.0339,-115.0755,0.1952,-2.2599,12.3103,-0.0007,1.9621,-1.8464,-0.0127,-168.1237
44527,-107.2212,19.0516,-0.0112,0.0339,-115.0755,0.1952,-2.2599,12.3103,-0.0007,1.9621,-1.8464,-0.0127,-168.1237
44543,-107.2521,19.422,-0.0112,0.0249,-120.756,0.1413,-2.0523,12.2892,-0.001,6.5449,-0.6623,-0.01,-184.8706
44561,-107.2521,19.422,-0.0112,0.0249,-120.756,0.1413,-2.0523,12.2892,-0.001,6.5449,-0.6623,-0.01,-184.8706
44575,-107.2718,19.7916,-0.0111,0.0047,-126.9404,0.0659,-1.6306,12.305,-0.0015,13.1307,0.4893,-0.0137,-196.696
44591,-107.2718,19.7916,-0.0111,0.0047,-126.9404,0.0659,-1.6306,12.305,-0.0015,13.1307,0.4893,-0.0137,-196.696
44607,-107.2759,20.1626,-0.0109,-0.0268,-133.5587,-0.0257,-1.0512,12.303,-0.0016,17.7135,-0.0603,-0.0044,-205.3416
44623,-107.2759,20.1626,-0.0109,-0.0268,-133.5587,-0.0257,-1.0512,12.303,-0.0016,17.7135,-0.0603,-0.0044,-205.3416
44639,-107.262,20.5221,-0.0106,-0.0649,-140.3144,-0.1205,-0.3789,12.2486,0.0003,20.8377,-1.6867,0.0581,-211.5724
44655,-107.262,20.5221,-0.0106,-0.0649,-140.3144,-0.1205,-0.3789,12.2486,0.0003,20.8377,-1.6867,0.0581,-211.5724
44673,-107.2271,20.8884,-0.0103,-0.1082,-147.5404,-0.2178,0.3859,12.1144,0.0014,22.7191,-3.986,0.0332,-216.3495
44687,-107.2271,20.8884,-0.0103,-0.1082,-147.5404,-0.2178,0.3859,12.1144,0.0014,22.7191,-3.986,0.0332,-216.3495
44705,-107.1747,21.2247,-0.0099,-0.1485,-154.4967,-0.3027,1.1392,11.9002,0.0019,23.6717,-6.7305,0.0168,-219.8528
44719,-107.1747,21.2247,-0.0099,-0.1485,-154.4967,-0.3027,1.1392,11.9002,0.0019,23.6717,-6.7305,0.0168,-219.8528
44737,-107.1042,21.5476,-0.0096,-0.1864,-161.524,-0.3803,1.8932,11.5965,0.0021,23.794,-9.5825,0.0057,-222.8842
44751,-107.1042,21.5476,-0.0096,-0.1864,-161.524,-0.3803,1.8932,11.5965,0.0021,23.794,-9.5825,0.0057,-222.8842
44784,-107.0177,21.8514,-0.0093,-0.2201,-168.5244,-0.4486,2.6165,11.2104,0.0021,23.214,-12.3922,-0.0011,-225.8012
44799,-106.9201,22.1258,-0.009,-0.2498,-175.2849,-0.5089,3.2737,10.7681,0.002,22.1464,-14.9055,-0.0034,-228.8566
44815,-106.813,22.3795,-0.0087,-0.2725,178.0027,-0.5657,3.7885,10.1845,0.002,17.6296,-19.9831,0.0004,-230.1821
44831,-106.813,22.3795,-0.0087,-0.2725,178.0027,-0.5657,3.7885,10.1845,0.002,17.6296,-19.9831,0.0004,-230.1821
44848,-106.6974,22.6217,-0.0086,-0.2864,171.0288,-0.6293,4.1245,9.4522,0.002,11.1327,-24.2684,-0.0,-231.6766
44863,-106.6974,22.6217,-0.0086,-0.2864,171.0288,-0.6293,4.1245,9.4522,0.002,11.1327,-24.2684,-0.0,-231.6766
44881,-106.5808,22.8414,-0.0085,-0.2932,164.0193,-0.6992,4.3067,8.6539,0.002,6.0337,-26.4409,-0.0005,-232.3181
44895,-106.5808,22.8414,-0.0085,-0.2932,164.0193,-0.6992,4.3067,8.6539,0.002,6.0337,-26.4409,-0.0005,-232.3181
44912,-106.4641,23.0474,-0.0084,-0.2911,156.7255,-0.7725,4.1748,7.8816,0.0019,-4.1758,-24.4576,-0.0024,-227.3318
44927,-106.4641,23.0474,-0.0084,-0.2911,156.7255,-0.7725,4.1748,7.8816,0.0019,-4.1758,-24.4576,-0.0024,-227.3318
44944,-106.3749,23.2292,-0.0087,-0.2623,150.4018,-0.8121,3.5694,7.4981,-0.0028,-20.6623,-13.0896,-0.1604,-210.3236
44959,-106.3749,23.2292,-0.0087,-0.2623,150.4018,-0.8121,3.5694,7.4981,-0.0028,-20.6623,-13.0896,-0.1604,-210.3236
44977,-106.3041,23.416,-0.009,-0.2142,144.138,-0.8549,2.843,7.1268,0.0037,-23.4124,-11.9673,0.2106,-197.692
44991,-106.3041,23.416,-0.009,-0.2142,144.138,-0.8549,2.843,7.1268,0.0037,-23.4124,-11.9673,0.2106,-197.692
45008,-106.2614,23.587,-0.0093,-0.1626,138.518,-0.8964,2.1381,6.8684,0.0026,-24.1188,-8.8425,-0.0401,-189.3697
45023,-106.2614,23.587,-0.0093,-0.1626,138.518,-0.8964,2.1381,6.8684,0.0026,-24.1188,-8.8425,-0.0401,-189.3697
45039,-106.2397,23.7729,-0.0096,-0.1075,132.8488,-0.9181,1.342,6.8462,0.0015,-25.2955,-0.7058,-0.0336,-173.9282
45055,-106.2397,23.7729,-0.0096,-0.1075,132.8488,-0.9181,1.342,6.8462,0.0015,-25.2955,-0.7058,-0.0336,-173.9282
45071,-106.2418,23.9562,-0.01,-0.0495,128.0455,-0.9132,0.6141,6.9987,0.0007,-24.5788,5.1499,-0.0262,-156.1393
45087,-106.2622,24.1477,-0.0104,0.0063,123.8515,-0.8905,-0.0484,7.2413,0.0,-22.7082,8.3154,-0.0241,-137.3699
45103,-106.2622,24.1477,-0.0104,0.0063,123.8515,-0.8905,-0.0484,7.2413,0.0,-22.7082,8.3154,-0.0241,-137.3699
45120,-106.2987,24.3585,-0.0108,0.0566,120.0762,-0.8558,-0.6326,7.547,-0.0006,-19.314,10.1049,-0.0187,-117.4261
45135,-106.2987,24.3585,-0.0108,0.0566,120.0762,-0.8558,-0.6326,7.547,-0.0006,-19.314,10.1049,-0.0187,-117.4261
45153,-106.3493,24.5962,-0.0112,0.1018,116.651,-0.7936,-1.0072,7.9115,-0.0011,-11.6985,11.3859,-0.0156,-101.9433
45167,-106.3493,24.5962,-0.0112,0.1018,116.651,-0.7936,-1.0072,7.9115,-0.0011,-11.6985,11.3859,-0.0156,-101.9433
45183,-106.4048,24.8567,-0.0115,0.1342,113.4058,-0.6821,-1.0234,8.2668,-0.0018,-0.49,10.7159,-0.0213,-96.2906
45199,-106.4048,24.8567,-0.0115,0.1342,113.4058,-0.6821,-1.0234,8.2668,-0.0018,-0.49,10.7159,-0.0213,-96.2906
45215,-106.4048,24.8567,-0.0115,0.1342,113.4058,-0.6821,-1.0234,8.2668,-0.0018,-0.49,10.7159,-0.0213,-96.2906
45231,-106.4588,25.1445,-0.0117,0.1536,110.0884,-0.5302,-0.8422,8.5856,-0.0025,5.1843,9.1243,-0.0218,-94.4452
45247,-106.4588,25.1445,-0.0117,0.1536,110.0884,-0.5302,-0.8422,8.5856,-0.0025,5.1843,9.1243,-0.0218,-94.4452
45263,-106.5033,25.4389,-0.0119,0.1618,106.8472,-0.3745,-0.5492,8.8495,-0.0031,8.5141,7.6657,-0.0164,-94.1838
45297,-106.5365,25.7435,-0.012,0.1625,103.5887,-0.2249,-0.1809,9.0688,-0.0034,10.6629,6.3485,-0.009,-94.5843
45311,-106.5365,25.7435,-0.012,0.1625,103.5887,-0.2249,-0.1809,9.0688,-0.0034,10.6629,6.3485,-0.009,-94.5843
45329,-106.5593,26.0514,-0.0121,0.1608,100.5126,-0.1117,-0.0023,9.2994,-0.0034,5.2668,6.8038,0.0005,-87.1797
45343,-106.5593,26.0514,-0.0121,0.1608,100.5126,-0.1117,-0.0023,9.2994,-0.0034,5.2668,6.8038,0.0005,-87.1797
45361,-106.5795,26.3754,-0.0122,0.1576,97.853,-0.0606,-0.0864,9.4989,-0.0028,-2.4251,5.7544,0.0179,-69.873
45375,-106.5795,26.3754,-0.0122,0.1576,97.853,-0.0606,-0.0864,9.4989,-0.0028,-2.4251,5.7544,0.0179,-69.873
45393,-106.6007,26.6896,-0.0122,0.1501,95.9943,-0.0663,-0.3374,9.6119,-0.0017,-7.6068,3.4242,0.032,-48.1362
45407,-106.6007,26.6896,-0.0122,0.1501,95.9943,-0.0663,-0.3374,9.6119,-0.0017,-7.6068,3.4242,0.032,-48.1362
45423,-106.6007,26.6896,-0.0122,0.1501,95.9943,-0.0663,-0.3374,9.6119,-0.0017,-7.6068,3.4242,0.032,-48.1362
45439,-106.6288,27.0535,-0.0121,0.1357,94.6769,-0.0959,-0.5522,9.6988,-0.0004,-5.6937,2.303,0.0348,-28.3936
45455,-106.6288,27.0535,-0.0121,0.1357,94.6769,-0.0959,-0.5522,9.6988,-0.0004,-5.6937,2.303,0.0348,-28.3936
45471,-106.6541,27.3785,-0.012,0.1217,93.9797,-0.1061,-0.6237,9.7655,0.0002,-2.1407,1.9974,0.0159,-17.5331
45487,-106.6541,27.3785,-0.012,0.1217,93.9797,-0.1061,-0.6237,9.7655,0.0002,-2.1407,1.9974,0.0159,-17.5331
45503,-106.6792,27.7175,-0.0119,0.107,93.5452,-0.1001,-0.6356,9.8238,0.0002,-0.3426,1.6835,0.0012,-10.8561
45519,-106.6792,27.7175,-0.0119,0.107,93.5452,-0.1001,-0.6356,9.8238,0.0002,-0.3426,1.6835,0.0012,-10.8561
45537,-106.7038,28.0746,-0.0118,0.0923,93.2777,-0.0838,-0.6197,9.872,0.0001,0.4369,1.3296,-0.0038,-6.9484
45551,-106.7038,28.0746,-0.0118,0.0923,93.2777,-0.0838,-0.6197,9.872,0.0001,0.4369,1.3296,-0.0038,-6.9484
45567,-106.7269,28.437,-0.0117,0.0787,93.1235,-0.065,-0.5964,9.9087,-0.0001,0.6362,1.0009,-0.0041,-4.5366
45583,-106.7269,28.437,-0.0117,0.0787,93.1235,-0.065,-0.5964,9.9087,-0.0001,0.6362,1.0009,-0.0041,-4.5366
45601,-106.7471,28.7725,-0.0116,0.0679,93.0434,-0.0494,-0.5761,9.9399,-0.0002,0.6001,0.9232,-0.0023,-2.8315
45615,-106.7471,28.7725,-0.0116,0.0679,93.0434,-0.0494,-0.5761,9.9399,-0.0002,0.6001,0.9232,-0.0023,-2.8315
45631,-106.7471,28.7725,-0.0116,0.0679,93.0434,-0.0494,-0.5761,9.9399,-0.0002,0.6001,0.9232,-0.0023,-2.8315
45649,-106.7681,29.1384,-0.0116,0.0577,92.9928,-0.0352,-0.5585,9.9699,-0.0002,0.4782,0.8158,-0.0009,-2.3422
45663,-106.7681,29.1384,-0.0116,0.0577,92.9928,-0.0352,-0.5585,9.9699,-0.0002,0.4782,0.8158,-0.0009,-2.3422
45680,-106.7879,29.4954,-0.0115,0.0493,92.9677,-0.0249,-0.5459,9.9943,-0.0002,0.3536,0.6827,0.0007,-1.8291
45695,-106.7879,29.4954,-0.0115,0.0493,92.9677,-0.0249,-0.5459,9.9943,-0.0002,0.3536,0.6827,0.0007,-1.8291
45713,-106.8065,29.839,-0.0115,0.0425,92.9553,-0.0177,-0.5372,10.0155,-0.0001,0.2517,0.6161,0.0011,-1.5534
45727,-106.8065,29.839,-0.0115,0.0425,92.9553,-0.0177,-0.5372,10.0155,-0.0001,0.2517,0.6161,0.0011,-1.5534
45743,-106.8258,30.2021,-0.0114,0.0364,92.9464,-0.0121,-0.5313,10.0332,-0.0001,0.1652,0.4882,0.0011,-1.9163
45759,-106.8258,30.2021,-0.0114,0.0364,92.9464,-0.0121,-0.5313,10.0332,-0.0001,0.1652,0.4882,0.0011,-1.9163
45775,-106.8258,30.2021,-0.0114,0.0364,92.9464,-0.0121,-0.5313,10.0332,-0.0001,0.1652,0.4882,0.0011,-1.9163
45791,-106.8455,30.5748,-0.0114,0.031,92.9414,-0.0083,-0.5273,10.0486,-0.0,0.1058,0.4151,0.0015,-2.0651
45807,-106.8455,30.5748,-0.0114,0.031,92.9414,-0.0083,-0.5273,10.0486,-0.0,0.1058,0.4151,0.0015,-2.0651
45824,-106.8636,30.9222,-0.0114,0.0269,92.9402,-0.0058,-0.5252,10.0691,-0.0,0.0634,0.5927,0.0003,-1.5547
45839,-106.8636,30.9222,-0.0114,0.0269,92.9402,-0.0058,-0.5252,10.0691,-0.0,0.0634,0.5927,0.0003,-1.5547
45857,-106.8828,31.2911,-0.0113,0.0234,92.9374,-0.0039,-0.5237,10.0866,0.0,0.0395,0.48,0.0011,-1.8756
45871,-106.8828,31.2911,-0.0113,0.0234,92.9374,-0.0039,-0.5237,10.0866,0.0,0.0395,0.48,0.0011,-1.8756
45888,-106.9008,31.6393,-0.0113,0.0208,92.9375,-0.0027,-0.5231,10.1068,0.0,0.0168,0.5838,0.0004,-1.4861
45903,-106.9008,31.6393,-0.0113,0.0208,92.9375,-0.0027,-0.5231,10.1068,0.0,0.0168,0.5838,0.0004,-1.4861
45920,-106.9008,31.6393,-0.0113,0.0208,92.9375,-0.0027,-0.5231,10.1068,0.0,0.0168,0.5838,0.0004,-1.4861
45935,-106.9197,32.0037,-0.0113,0.0185,92.936,-0.0019,-0.5229,10.1249,0.0,0.0054,0.5038,0.0002,-1.7223
45951,-106.9197,32.0037,-0.0113,0.0185,92.936,-0.0019,-0.5229,10.1249,0.0,0.0054,0.5038,0.0002,-1.7223
45969,-106.9379,32.3574,-0.0113,0.0168,92.9362,-0.0013,-0.5231,10.1439,0.0,-0.0054,0.5442,-0.0003,-1.5226
45983,-106.9379,32.3574,-0.0113,0.0168,92.9362,-0.0013,-0.5231,10.1439,0.0,-0.0054,0.5442,-0.0003,-1.5226
46000,-106.9561,32.7097,-0.0113,0.0154,92.9362,-0.0009,-0.5236,10.1632,0.0,-0.0127,0.5558,0.0003,-1.4607
46015,-106.9561,32.7097,-0.0113,0.0154,92.9362,-0.0009,-0.5236,10.1632,0.0,-0.0127,0.5558,0.0003,-1.4607
46033,-106.9733,33.045,-0.0113,0.0145,92.937,-0.0006,-0.5242,10.1838,0.0,-0.0195,0.6263,-0.0002,-1.1393
46047,-106.9733,33.045,-0.0113,0.0145,92.937,-0.0006,-0.5242,10.1838,0.0,-0.0195,0.6263,-0.0002,-1.1393
46065,-106.9918,33.4043,-0.0113,0.0136,92.9356,-0.0004,-0.5249,10.2021,0.0,-0.0198,0.519,-0.0006,-1.4831
46079,-106.9918,33.4043,-0.0113,0.0136,92.9356,-0.0004,-0.5249,10.2021,0.0,-0.0198,0.519,-0.0006,-1.4831
46095,-107.0096,33.7501,-0.0113,0.0129,92.9362,-0.0003,-0.5256,10.2203,0.0,-0.0216,0.5377,0.0004,-1.2812
46111,-107.0096,33.7501,-0.0113,0.0129,92.9362,-0.0003,-0.5256,10.2203,0.0,-0.0216,0.5377,0.0004,-1.2812
46127,-107.028,34.1078,-0.0112,0.0122,92.9356,-0.0002,-0.5264,10.2375,0.0,-0.0221,0.4918,0.0003,-1.4431
46143,-107.028,34.1078,-0.0112,0.0122,92.9356,-0.0002,-0.5264,10.2375,0.0,-0.0221,0.4918,0.0003,-1.4431
46159,-107.028,34.1078,-0.0112,0.0122,92.9356,-0.0002,-0.5264,10.2375,0.0,-0.0221,0.4918,0.0003,-1.4431
46175,-107.0461,34.46,-0.0112,0.0116,92.9359,-0.0001,-0.5272,10.2547,0.0,-0.0231,0.5002,-0.0002,-1.3517
46191,-107.0461,34.46,-0.0112,0.0116,92.9359,-0.0001,-0.5272,10.2547,0.0,-0.0231,0.5002,-0.0002,-1.3517
46207,-107.0645,34.8173,-0.0112,0.0111,92.9357,-0.0001,-0.528,10.2715,0.0,-0.0233,0.4819,-0.0001,-1.4101
46223,-107.0645,34.8173,-0.0112,0.0111,92.9357,-0.0001,-0.528,10.2715,0.0,-0.0233,0.4819,-0.0001,-1.4101
46241,-107.0825,35.1678,-0.0112,0.0107,92.9361,-0.0001,-0.5288,10.2887,0.0,-0.0244,0.506,-0.0004,-1.284
46255,-107.0825,35.1678,-0.0112,0.0107,92.9361,-0.0001,-0.5288,10.2887,0.0,-0.0244,0.506,-0.0004,-1.284
46273,-107.1014,35.5354,-0.0112,0.0103,92.9352,-0.0,-0.5296,10.3042,0.0,-0.0225,0.4346,0.0002,-1.5449
46287,-107.1014,35.5354,-0.0112,0.0103,92.9352,-0.0,-0.5296,10.3042,0.0,-0.0225,0.4346,0.0002,-1.5449
46305,-107.1193,35.8834,-0.0112,0.01,92.9362,-0.0,-0.5305,10.3214,0.0,-0.0245,0.5092,-0.0002,-1.2245
46319,-107.1193,35.8834,-0.0112,0.01,92.9362,-0.0,-0.5305,10.3214,0.0,-0.0245,0.5092,-0.0002,-1.2245
46335,-107.1372,36.2325,-0.0112,0.0098,92.9363,0.0,-0.5313,10.3389,0.0,-0.0256,0.519,0.0004,-1.1818
46351,-107.1372,36.2325,-0.0112,0.0098,92.9363,0.0,-0.5313,10.3389,0.0,-0.0256,0.519,0.0004,-1.1818
46367,-107.1372,36.2325,-0.0112,0.0098,92.9363,0.0,-0.5313,10.3389,0.0,-0.0256,0.519,0.0004,-1.1818
46383,-107.1558,36.5936,-0.0112,0.0096,92.9357,0.0,-0.5322,10.355,0.0,-0.0239,0.4614,-0.0001,-1.3586
46399,-107.1558,36.5936,-0.0112,0.0096,92.9357,0.0,-0.5322,10.355,0.0,-0.0239,0.4614,-0.0001,-1.3586
46417,-107.1745,36.9571,-0.0112,0.0093,92.9355,0.0,-0.533,10.3702,0.0,-0.0223,0.4322,-0.0003,-1.4147
46431,-107.1745,36.9571,-0.0112,0.0093,92.9355,0.0,-0.533,10.3702,0.0,-0.0223,0.4322,-0.0003,-1.4147
46449,-107.1927,37.3114,-0.0112,0.0091,92.9361,0.0,-0.5338,10.3864,-0.0,-0.0236,0.4741,-0.0003,-1.2491
46463,-107.1927,37.3114,-0.0112,0.0091,92.9361,0.0,-0.5338,10.3864,-0.0,-0.0236,0.4741,-0.0003,-1.2491
