timestamp,x,y,z,pitch,yaw,roll,vx,vy,vz,ax,ay,az,yaw_rate
46795,-106.6867,-4.8475,0.3806,0.0,-89.3578,0.0,0.0,0.0,-2.0195,0.0,0.0,-9.8,0.0
46811,-106.6867,-4.8475,0.3806,0.0,-89.3578,0.0,0.0,0.0,-2.0195,0.0,0.0,-9.8,0.0
46827,-106.6867,-4.8475,0.3806,0.0,-89.3578,0.0,0.0,0.0,-2.0195,0.0,0.0,-9.8,0.0
46843,-106.6867,-4.8475,0.3806,0.0,-89.3578,0.0,0.0,0.0,-2.0195,0.0,0.0,-9.8,0.0
46859,-106.6867,-4.8475,0.3806,0.0,-89.3578,0.0,0.0,0.0,-2.0195,0.0,0.0,-9.8,0.0
46875,-106.6867,-4.8475,0.3806,0.0,-89.3578,0.0,0.0,0.0,-2.0195,0.0,0.0,-9.8,0.0
46891,-106.6867,-4.8475,0.3806,0.0,-89.3578,0.0,0.0,0.0,-2.0195,0.0,0.0,-9.8,0.0
46907,-106.6867,-4.8475,0.3806,0.0,-89.3578,0.0,0.0,0.0,-2.0195,0.0,0.0,-9.8,0.0
46923,-106.6867,-4.8475,0.3806,0.0,-89.3578,0.0,0.0,0.0,-2.0195,0.0,0.0,-9.8,0.0
46939,-106.6867,-4.8475,0.3806,0.0,-89.3578,0.0,0.0,0.0,-2.0195,0.0,0.0,-9.8,0.0
46955,-106.6867,-4.8475,0.1247,0.0,-89.3578,0.0,0.0,0.0,-2.9995,0.0,0.0,-6.1129,0.0
46971,-106.6867,-4.8475,0.1247,0.0,-89.3578,0.0,0.0,0.0,-2.9995,0.0,0.0,-6.1129,0.0
46987,-106.6867,-4.8475,0.1247,0.0,-89.3578,0.0,0.0,0.0,-2.9995,0.0,0.0,-6.1129,0.0
47006,-106.6868,-4.8453,-0.0232,-0.0029,-89.3578,0.0,-0.0015,0.1341,-1.7374,-0.0261,2.3313,21.9471,-0.0
47019,-106.6868,-4.8453,-0.0232,-0.0029,-89.3578,0.0,-0.0015,0.1341,-1.7374,-0.0261,2.3313,21.9471,-0.0
47035,-106.6868,-4.8453,-0.0232,-0.0029,-89.3578,0.0,-0.0015,0.1341,-1.7374,-0.0261,2.3313,21.9471,-0.0
47057,-106.6868,-4.8438,-0.0737,-0.0025,-89.3578,0.0,-0.0011,0.0984,-0.5156,0.0075,-0.6677,22.8796,0.0001
47067,-106.6868,-4.8438,-0.0737,-0.0025,-89.3578,0.0,-0.0011,0.0984,-0.5156,0.0075,-0.6677,22.8796,0.0001
47083,-106.6868,-4.8438,-0.0737,-0.0025,-89.3578,0.0,-0.0011,0.0984,-0.5156,0.0075,-0.6677,22.8796,0.0001
47102,-106.6868,-4.8422,-0.0829,-0.0022,-89.3568,0.0,-0.0005,0.0283,-0.046,0.0143,-1.5829,10.597,0.014
47115,-106.6868,-4.8422,-0.0829,-0.0022,-89.3568,0.0,-0.0005,0.0283,-0.046,0.0143,-1.5829,10.597,0.014
47134,-106.6868,-4.8422,-0.0829,-0.0022,-89.3568,0.0,-0.0005,0.0283,-0.046,0.0143,-1.5829,10.597,0.014
47147,-106.687,-4.8332,-0.0793,-0.0117,-89.3425,-0.0,-0.0037,0.322,0.1537,-0.0801,7.277,4.9481,1.3438
47163,-106.687,-4.8332,-0.0793,-0.0117,-89.3425,-0.0,-0.0037,0.322,0.1537,-0.0801,7.277,4.9481,1.3438
47179,-106.6873,-4.8174,-0.072,-0.0236,-89.3257,-0.0001,-0.0064,0.5282,0.2264,-0.0779,5.8792,2.0716,0.3002
47195,-106.6873,-4.8174,-0.072,-0.0236,-89.3257,-0.0001,-0.0064,0.5282,0.2264,-0.0779,5.8792,2.0716,0.3002
47214,-106.6876,-4.794,-0.0628,-0.0342,-89.3123,-0.0002,-0.0062,0.697,0.2466,0.0051,4.4728,0.5344,0.7687
47227,-106.6876,-4.794,-0.0628,-0.0342,-89.3123,-0.0002,-0.0062,0.697,0.2466,0.0051,4.4728,0.5344,0.7687
47243,-106.6876,-4.794,-0.0628,-0.0342,-89.3123,-0.0002,-0.0062,0.697,0.2466,0.0051,4.4728,0.5344,0.7687
47259,-106.6878,-4.7561,-0.052,-0.0464,-89.3345,-0.0001,-0.0115,0.9477,0.2305,-0.1187,5.6128,-0.3587,0.0732
47275,-106.6878,-4.7561,-0.052,-0.0464,-89.3345,-0.0001,-0.0115,0.9477,0.2305,-0.1187,5.6128,-0.3587,0.0732
47291,-106.6878,-4.7561,-0.052,-0.0464,-89.3345,-0.0001,-0.0115,0.9477,0.2305,-0.1187,5.6128,-0.3587,0.0732
47307,-106.6886,-4.7124,-0.0425,-0.0518,-89.299,0.0001,-0.0102,1.0133,0.1909,0.0305,1.5153,-0.9154,0.7766
47323,-106.6886,-4.7124,-0.0425,-0.0518,-89.299,0.0001,-0.0102,1.0133,0.1909,0.0305,1.5153,-0.9154,0.7766
47339,-106.6893,-4.6691,-0.0348,-0.0507,-89.287,0.0004,-0.014,1.0343,0.1751,-0.0941,0.5303,-0.3998,-0.6405
47355,-106.6893,-4.6691,-0.0348,-0.0507,-89.287,0.0004,-0.014,1.0343,0.1751,-0.0941,0.5303,-0.3998,-0.6405
47374,-106.6896,-4.6288,-0.0293,-0.0435,-89.3046,0.0002,-0.0125,1.0237,0.1343,0.0387,-0.2828,-1.0852,-0.3606
47387,-106.6896,-4.6288,-0.0293,-0.0435,-89.3046,0.0002,-0.0125,1.0237,0.1343,0.0387,-0.2828,-1.0852,-0.3606
47403,-106.6896,-4.6288,-0.0293,-0.0435,-89.3046,0.0002,-0.0125,1.0237,0.1343,0.0387,-0.2828,-1.0852,-0.3606
47423,-106.6899,-4.5788,-0.0245,-0.0424,-89.3564,0.0003,-0.017,1.3073,0.0993,-0.1062,6.6862,-0.8246,0.6525
47435,-106.6899,-4.5788,-0.0245,-0.0424,-89.3564,0.0003,-0.017,1.3073,0.0993,-0.1062,6.6862,-0.8246,0.6525
47451,-106.6908,-4.5356,-0.0216,-0.0419,-89.3224,0.0003,-0.0177,1.324,0.0789,-0.0203,0.4963,-0.6045,0.661
47467,-106.6908,-4.5356,-0.0216,-0.0419,-89.3224,0.0003,-0.0177,1.324,0.0789,-0.0203,0.4963,-0.6045,0.661
47483,-106.6908,-4.5356,-0.0216,-0.0419,-89.3224,0.0003,-0.0177,1.324,0.0789,-0.0203,0.4963,-0.6045,0.661
47499,-106.6915,-4.4893,-0.0192,-0.037,-89.3117,0.0003,-0.0176,1.3201,0.062,0.0037,-0.1079,-0.4682,0.1759
47515,-106.6915,-4.4893,-0.0192,-0.037,-89.3117,0.0003,-0.0176,1.3201,0.062,0.0037,-0.1079,-0.4682,0.1759
47537,-106.6922,-4.4297,-0.0169,-0.0337,-89.3166,0.0001,-0.0176,1.3692,0.045,-0.0008,1.1001,-0.3804,0.3473
47547,-106.6922,-4.4297,-0.0169,-0.0337,-89.3166,0.0001,-0.0176,1.3692,0.045,-0.0008,1.1001,-0.3804,0.3473
47563,-106.6922,-4.4297,-0.0169,-0.0337,-89.3166,0.0001,-0.0176,1.3692,0.045,-0.0008,1.1001,-0.3804,0.3473
47582,-106.6929,-4.3504,-0.0151,-0.0464,-89.3394,-0.0006,-0.0184,1.7865,0.0322,-0.0172,8.7311,-0.2682,1.1945
47595,-106.6929,-4.3504,-0.0151,-0.0464,-89.3394,-0.0006,-0.0184,1.7865,0.0322,-0.0172,8.7311,-0.2682,1.1945
47611,-106.6934,-4.2798,-0.014,-0.0594,-89.3733,-0.0003,-0.0258,2.0852,0.0246,-0.2085,8.4476,-0.2141,-5.0509
47627,-106.6934,-4.2798,-0.014,-0.0594,-89.3733,-0.0003,-0.0258,2.0852,0.0246,-0.2085,8.4476,-0.2141,-5.0509
47643,-106.6934,-4.2798,-0.014,-0.0594,-89.3733,-0.0003,-0.0258,2.0852,0.0246,-0.2085,8.4476,-0.2141,-5.0509
47659,-106.6946,-4.2036,-0.0132,-0.0641,-89.3608,0.0005,-0.0294,2.1823,0.0191,-0.1005,2.7025,-0.1545,-2.1644
47675,-106.6946,-4.2036,-0.0132,-0.0641,-89.3608,0.0005,-0.0294,2.1823,0.0191,-0.1005,2.7025,-0.1545,-2.1644
47694,-106.696,-4.1074,-0.0125,-0.0682,-89.3309,0.0003,-0.031,2.3624,0.014,-0.0394,4.3355,-0.1218,3.2562
47707,-106.696,-4.1074,-0.0125,-0.0682,-89.3309,0.0003,-0.031,2.3624,0.014,-0.0394,4.3355,-0.1218,3.2562
47723,-106.696,-4.1074,-0.0125,-0.0682,-89.3309,0.0003,-0.031,2.3624,0.014,-0.0394,4.3355,-0.1218,3.2562
47739,-106.697,-4.0055,-0.012,-0.0727,-89.3628,0.0001,-0.0327,2.6645,0.0105,-0.0413,7.5066,-0.0875,-1.9506
47755,-106.697,-4.0055,-0.012,-0.0727,-89.3628,0.0001,-0.0327,2.6645,0.0105,-0.0413,7.5066,-0.0875,-1.9506
47771,-106.697,-4.0055,-0.012,-0.0727,-89.3628,0.0001,-0.0327,2.6645,0.0105,-0.0413,7.5066,-0.0875,-1.9506
47787,-106.6984,-3.8759,-0.0116,-0.0813,-89.362,-0.0005,-0.0346,2.9487,0.0077,-0.0411,6.2565,-0.062,2.023
47803,-106.6984,-3.8759,-0.0116,-0.0813,-89.362,-0.0005,-0.0346,2.9487,0.0077,-0.0411,6.2565,-0.062,2.023
47822,-106.6999,-3.7571,-0.0113,-0.0834,-89.3458,-0.0005,-0.0327,3.161,0.0058,0.0486,5.4683,-0.0482,2.5275
47835,-106.6999,-3.7571,-0.0113,-0.0834,-89.3458,-0.0005,-0.0327,3.161,0.0058,0.0486,5.4683,-0.0482,2.5275
47854,-106.701,-3.6435,-0.0111,-0.0849,-89.3606,-0.0002,-0.0394,3.365,0.0044,-0.1919,5.8455,-0.0404,2.6899
47867,-106.701,-3.6435,-0.0111,-0.0849,-89.3606,-0.0002,-0.0394,3.365,0.0044,-0.1919,5.8455,-0.0404,2.6899
47883,-106.701,-3.6435,-0.0111,-0.0849,-89.3606,-0.0002,-0.0394,3.365,0.0044,-0.1919,5.8455,-0.0404,2.6899
47899,-106.7025,-3.4906,-0.0109,-0.0883,-89.3919,-0.0003,-0.0408,3.6145,0.0032,-0.032,5.7483,-0.027,-2.7194
47915,-106.7025,-3.4906,-0.0109,-0.0883,-89.3919,-0.0003,-0.0408,3.6145,0.0032,-0.032,5.7483,-0.027,-2.7194
47931,-106.7041,-3.3609,-0.0108,-0.0907,-89.3818,-0.0004,-0.0406,3.8196,0.0025,0.0058,5.9498,-0.0212,-1.6328
47947,-106.7041,-3.3609,-0.0108,-0.0907,-89.3818,-0.0004,-0.0406,3.8196,0.0025,0.0058,5.9498,-0.0212,-1.6328
47963,-106.7054,-3.2185,-0.0107,-0.0933,-89.3982,-0.0009,-0.0421,4.0733,0.0019,-0.0444,7.1007,-0.0159,-0.2316
47979,-106.7054,-3.2185,-0.0107,-0.0933,-89.3982,-0.0009,-0.0421,4.0733,0.0019,-0.0444,7.1007,-0.0159,-0.2316
47995,-106.7054,-3.2185,-0.0107,-0.0933,-89.3982,-0.0009,-0.0421,4.0733,0.0019,-0.0444,7.1007,-0.0159,-0.2316
48014,-106.7073,-3.0406,-0.0106,-0.0965,-89.3893,-0.0007,-0.0462,4.3847,0.0014,-0.0961,7.4282,-0.0116,0.4672
48027,-106.7073,-3.0406,-0.0106,-0.0965,-89.3893,-0.0007,-0.0462,4.3847,0.0014,-0.0961,7.4282,-0.0116,0.4672
48043,-106.7092,-2.8645,-0.0106,-0.0944,-89.3882,-0.0006,-0.047,4.5529,0.0011,-0.0205,4.2326,-0.0089,1.5628
48059,-106.7092,-2.8645,-0.0106,-0.0944,-89.3882,-0.0006,-0.047,4.5529,0.0011,-0.0205,4.2326,-0.0089,1.5628
48075,-106.7092,-2.8645,-0.0106,-0.0944,-89.3882,-0.0006,-0.047,4.5529,0.0011,-0.0205,4.2326,-0.0089,1.5628
48091,-106.7108,-2.683,-0.0106,-0.091,-89.423,-0.0007,-0.0488,4.7309,0.0008,-0.0472,4.5106,-0.0069,-1.2709
48107,-106.7108,-2.683,-0.0106,-0.091,-89.423,-0.0007,-0.0488,4.7309,0.0008,-0.0472,4.5106,-0.0069,-1.2709
48123,-106.7108,-2.683,-0.0106,-0.091,-89.423,-0.0007,-0.0488,4.7309,0.0008,-0.0472,4.5106,-0.0069,-1.2709
48139,-106.7128,-2.4628,-0.0106,-0.0902,-89.4614,-0.001,-0.0485,4.9278,0.0006,0.0074,4.3381,-0.0053,-1.1821
48155,-106.7128,-2.4628,-0.0106,-0.0902,-89.4614,-0.001,-0.0485,4.9278,0.0006,0.0074,4.3381,-0.0053,-1.1821
48174,-106.7148,-2.2476,-0.0105,-0.0931,-89.4643,-0.0012,-0.0499,5.2963,0.0004,-0.0327,8.8131,-0.0034,0.9506
48187,-106.7148,-2.2476,-0.0105,-0.0931,-89.4643,-0.0012,-0.0499,5.2963,0.0004,-0.0327,8.8131,-0.0034,0.9506
48203,-106.7148,-2.2476,-0.0105,-0.0931,-89.4643,-0.0012,-0.0499,5.2963,0.0004,-0.0327,8.8131,-0.0034,0.9506
48226,-106.7174,-1.9635,-0.0105,-0.097,-89.4839,-0.0013,-0.0525,5.6363,0.0003,-0.051,6.5325,-0.0025,-1.4926
48235,-106.7174,-1.9635,-0.0105,-0.097,-89.4839,-0.0013,-0.0525,5.6363,0.0003,-0.051,6.5325,-0.0025,-1.4926
48251,-106.7174,-1.9635,-0.0105,-0.097,-89.4839,-0.0013,-0.0525,5.6363,0.0003,-0.051,6.5325,-0.0025,-1.4926
48267,-106.7196,-1.716,-0.0105,-0.0995,-89.4906,-0.0013,-0.0531,5.8743,0.0002,-0.0127,5.5512,-0.0017,-0.4344
48283,-106.7196,-1.716,-0.0105,-0.0995,-89.4906,-0.0013,-0.0531,5.8743,0.0002,-0.0127,5.5512,-0.0017,-0.4344
48299,-106.7196,-1.716,-0.0105,-0.0995,-89.4906,-0.0013,-0.0531,5.8743,0.0002,-0.0127,5.5512,-0.0017,-0.4344
48318,-106.722,-1.4572,-0.0104,-0.1047,-89.4839,-0.0012,-0.0563,6.2663,0.0001,-0.0752,9.2599,-0.0018,0.8269
48331,-106.722,-1.4572,-0.0104,-0.1047,-89.4839,-0.0012,-0.0563,6.2663,0.0001,-0.0752,9.2599,-0.0018,0.8269
48358,-106.7243,-1.1924,-0.0104,-0.1095,-89.4833,-0.001,-0.0592,6.561,0.0001,-0.0707,7.1641,-0.0008,0.2179
48363,-106.7243,-1.1924,-0.0104,-0.1095,-89.4833,-0.001,-0.0592,6.561,0.0001,-0.0707,7.1641,-0.0008,0.2179
48379,-106.7243,-1.1924,-0.0104,-0.1095,-89.4833,-0.001,-0.0592,6.561,0.0001,-0.0707,7.1641,-0.0008,0.2179
48398,-106.7268,-0.9127,-0.0103,-0.1154,-89.4871,-0.0009,-0.0624,6.9458,0.0001,-0.0786,9.3485,-0.0005,-0.2386
48411,-106.7268,-0.9127,-0.0103,-0.1154,-89.4871,-0.0009,-0.0624,6.9458,0.0001,-0.0786,9.3485,-0.0005,-0.2386
48427,-106.7268,-0.9127,-0.0103,-0.1154,-89.4871,-0.0009,-0.0624,6.9458,0.0001,-0.0786,9.3485,-0.0005,-0.2386
48443,-106.7293,-0.6365,-0.0103,-0.117,-89.4867,-0.0007,-0.0644,7.1745,0.0001,-0.0501,5.8662,-0.0005,-0.1689
48459,-106.7293,-0.6365,-0.0103,-0.117,-89.4867,-0.0007,-0.0644,7.1745,0.0001,-0.0501,5.8662,-0.0005,-0.1689
48482,-106.732,-0.3313,-0.0103,-0.1145,-89.4874,-0.0005,-0.0665,7.4191,0.0,-0.0507,5.8513,-0.0009,-0.0694
48491,-106.732,-0.3313,-0.0103,-0.1145,-89.4874,-0.0005,-0.0665,7.4191,0.0,-0.0507,5.8513,-0.0009,-0.0694
48507,-106.732,-0.3313,-0.0103,-0.1145,-89.4874,-0.0005,-0.0665,7.4191,0.0,-0.0507,5.8513,-0.0009,-0.0694
48523,-106.7349,-0.0118,-0.0103,-0.1157,-89.4866,-0.0004,-0.0696,7.7709,0.0,-0.0756,8.4042,0.0001,0.0105
48539,-106.7349,-0.0118,-0.0103,-0.1157,-89.4866,-0.0004,-0.0696,7.7709,0.0,-0.0756,8.4042,0.0001,0.0105
48555,-106.7373,0.2501,-0.0103,-0.1168,-89.4867,-0.0004,-0.0718,8.014,0.0,-0.0654,7.3473,-0.0002,-0.0011
48571,-106.7373,0.2501,-0.0103,-0.1168,-89.4867,-0.0004,-0.0718,8.014,0.0,-0.0654,7.3473,-0.0002,-0.0011
48590,-106.7402,0.5813,-0.0103,-0.1172,-89.4867,-0.0003,-0.0742,8.2831,0.0,-0.0592,6.6405,-0.0002,-0.0014
48603,-106.7402,0.5813,-0.0103,-0.1172,-89.4867,-0.0003,-0.0742,8.2831,0.0,-0.0592,6.6405,-0.0002,-0.0014
48619,-106.7402,0.5813,-0.0103,-0.1172,-89.4867,-0.0003,-0.0742,8.2831,0.0,-0.0592,6.6405,-0.0002,-0.0014
48635,-106.7431,0.9063,-0.0103,-0.1159,-89.4868,-0.0002,-0.0762,8.5078,0.0,-0.0521,5.8357,0.0,-0.0022
48651,-106.7431,0.9063,-0.0103,-0.1159,-89.4868,-0.0002,-0.0762,8.5078,0.0,-0.0521,5.8357,0.0,-0.0022
48667,-106.7431,0.9063,-0.0103,-0.1159,-89.4868,-0.0002,-0.0762,8.5078,0.0,-0.0521,5.8357,0.0,-0.0022
48683,-106.7467,1.304,-0.0103,-0.1102,-89.4867,-0.0002,-0.0783,8.7382,0.0,-0.0448,5.0091,0.0,0.0002
48699,-106.7467,1.304,-0.0103,-0.1102,-89.4867,-0.0002,-0.0783,8.7382,0.0,-0.0448,5.0091,0.0,0.0002
48715,-106.7494,1.6108,-0.0104,-0.1051,-89.4867,-0.0002,-0.0798,8.9119,0.0,-0.0447,4.9956,-0.0003,-0.0001
48731,-106.7494,1.6108,-0.0104,-0.1051,-89.4867,-0.0002,-0.0798,8.9119,0.0,-0.0447,4.9956,-0.0003,-0.0001
48750,-106.7526,1.9594,-0.0104,-0.1011,-89.4867,-0.0001,-0.0816,9.1113,0.0,-0.0462,5.1646,-0.0001,0.0002
48763,-106.7526,1.9594,-0.0104,-0.1011,-89.4867,-0.0001,-0.0816,9.1113,0.0,-0.0462,5.1646,-0.0001,0.0002
48779,-106.7526,1.9594,-0.0104,-0.1011,-89.4867,-0.0001,-0.0816,9.1113,0.0,-0.0462,5.1646,-0.0001,0.0002
48795,-106.7566,2.4065,-0.0105,-0.0945,-89.4868,-0.0001,-0.0831,9.2827,-0.0,-0.0316,3.5325,-0.0002,-0.0003
48811,-106.7566,2.4065,-0.0105,-0.0945,-89.4868,-0.0001,-0.0831,9.2827,-0.0,-0.0316,3.5325,-0.0002,-0.0003
48827,-106.7566,2.4065,-0.0105,-0.0945,-89.4868,-0.0001,-0.0831,9.2827,-0.0,-0.0316,3.5325,-0.0002,-0.0003
48843,-106.7597,2.7571,-0.0105,-0.0907,-89.4867,-0.0001,-0.0848,9.4644,0.0,-0.0437,4.8756,0.0003,-0.0
48859,-106.7597,2.7571,-0.0105,-0.0907,-89.4867,-0.0001,-0.0848,9.4644,0.0,-0.0437,4.8756,0.0003,-0.0
48878,-106.7597,2.7571,-0.0105,-0.0907,-89.4867,-0.0001,-0.0848,9.4644,0.0,-0.0437,4.8756,0.0003,-0.0
48891,-106.764,3.2357,-0.0105,-0.0877,-89.4868,0.0,-0.0871,9.7274,0.0,-0.047,5.2892,0.0008,-0.0053
48907,-106.764,3.2357,-0.0105,-0.0877,-89.4868,0.0,-0.0871,9.7274,0.0,-0.047,5.2892,0.0008,-0.0053
48923,-106.767,3.5733,-0.0105,-0.0865,-89.4868,-0.0,-0.0887,9.9062,0.0,-0.0469,5.2041,-0.0006,-0.001
48939,-106.767,3.5733,-0.0105,-0.0865,-89.4868,-0.0,-0.0887,9.9062,0.0,-0.0469,5.2041,-0.0006,-0.001
48959,-106.7704,3.9509,-0.0105,-0.0869,-89.4868,-0.0001,-0.0906,10.1164,0.0,-0.0501,5.5826,-0.0002,-0.0004
48971,-106.7704,3.9509,-0.0105,-0.0869,-89.4868,-0.0001,-0.0906,10.1164,0.0,-0.0501,5.5826,-0.0002,-0.0004
48987,-106.7704,3.9509,-0.0105,-0.0869,-89.4868,-0.0001,-0.0906,10.1164,0.0,-0.0501,5.5826,-0.0002,-0.0004
49003,-106.7742,4.3713,-0.0105,-0.0873,-89.4869,-0.0001,-0.0925,10.3278,-0.0,-0.046,5.1513,-0.0004,-0.0004
49019,-106.7742,4.3713,-0.0105,-0.0873,-89.4869,-0.0001,-0.0925,10.3278,-0.0,-0.046,5.1513,-0.0004,-0.0004
49035,-106.7778,4.78,-0.0105,-0.0871,-89.4869,-0.0001,-0.0943,10.5235,0.0,-0.0448,5.0062,0.0002,-0.0004
49051,-106.7778,4.78,-0.0105,-0.0871,-89.4869,-0.0001,-0.0943,10.5235,0.0,-0.0448,5.0062,0.0002,-0.0004
49076,-106.7811,5.1461,-0.0105,-0.0864,-89.4869,-0.0,-0.0957,10.6872,-0.0,-0.0425,4.75,-0.0003,-0.0003
49087,-106.7811,5.1461,-0.0105,-0.0864,-89.4869,-0.0,-0.0957,10.6872,-0.0,-0.0425,4.75,-0.0003,-0.0003
49103,-106.7811,5.1461,-0.0105,-0.0864,-89.4869,-0.0,-0.0957,10.6872,-0.0,-0.0425,4.75,-0.0003,-0.0003
49119,-106.7856,5.6487,-0.0105,-0.0845,-89.4869,-0.0001,-0.0976,10.8976,-0.0,-0.0405,4.5272,-0.0003,0.0003
49135,-106.7856,5.6487,-0.0105,-0.0845,-89.4869,-0.0001,-0.0976,10.8976,-0.0,-0.0405,4.5272,-0.0003,0.0003
49151,-106.7856,5.6487,-0.0105,-0.0845,-89.4869,-0.0001,-0.0976,10.8976,-0.0,-0.0405,4.5272,-0.0003,0.0003
49170,-106.7902,6.1646,-0.0106,-0.0819,-89.4869,0.0,-0.0994,11.0934,-0.0,-0.0374,4.1816,0.0002,-0.0008
49183,-106.7902,6.1646,-0.0106,-0.0819,-89.4869,0.0,-0.0994,11.0934,-0.0,-0.0374,4.1816,0.0002,-0.0008
49202,-106.7941,6.5964,-0.0106,-0.0795,-89.4869,-0.0,-0.1007,11.2491,0.0,-0.0361,4.0346,0.0005,-0.0016
49215,-106.7941,6.5964,-0.0106,-0.0795,-89.4869,-0.0,-0.1007,11.2491,0.0,-0.0361,4.0346,0.0005,-0.0016
49231,-106.7941,6.5964,-0.0106,-0.0795,-89.4869,-0.0,-0.1007,11.2491,0.0,-0.0361,4.0346,0.0005,-0.0016
49247,-106.798,7.0301,-0.0106,-0.0771,-89.4869,-0.0,-0.1021,11.3978,-0.0,-0.0349,3.8889,-0.0003,-0.0026
49263,-106.798,7.0301,-0.0106,-0.0771,-89.4869,-0.0,-0.1021,11.3978,-0.0,-0.0349,3.8889,-0.0003,-0.0026
49282,-106.8019,7.4712,-0.0106,-0.0746,-89.4869,-0.0,-0.1034,11.5422,-0.0,-0.0337,3.7611,0.0,-0.0044
49295,-106.8019,7.4712,-0.0106,-0.0746,-89.4869,-0.0,-0.1034,11.5422,-0.0,-0.0337,3.7611,0.0,-0.0044
49311,-106.8019,7.4712,-0.0106,-0.0746,-89.4869,-0.0,-0.1034,11.5422,-0.0,-0.0337,3.7611,0.0,-0.0044
49327,-106.8059,7.9188,-0.0106,-0.0722,-89.4869,0.0,-0.1046,11.6825,0.0,-0.0327,3.6461,0.0002,-0.0069
49343,-106.8059,7.9188,-0.0106,-0.0722,-89.4869,0.0,-0.1046,11.6825,0.0,-0.0327,3.6461,0.0002,-0.0069
49363,-106.8103,8.4109,-0.0106,-0.0699,-89.4869,0.0,-0.106,11.8327,-0.0,-0.0322,3.5938,-0.0002,0.0028
49375,-106.8103,8.4109,-0.0106,-0.0699,-89.4869,0.0,-0.106,11.8327,-0.0,-0.0322,3.5938,-0.0002,0.0028
49394,-106.8144,8.8615,-0.0107,-0.0677,-89.4869,-0.0,-0.1071,11.9633,0.0,-0.0309,3.4524,0.0003,0.0034
49407,-106.8144,8.8615,-0.0107,-0.0677,-89.4869,-0.0,-0.1071,11.9633,0.0,-0.0309,3.4524,0.0003,0.0034
49423,-106.8144,8.8615,-0.0107,-0.0677,-89.4869,-0.0,-0.1071,11.9633,0.0,-0.0309,3.4524,0.0003,0.0034
49442,-106.8187,9.3395,-0.0107,-0.0656,-89.4869,0.0,-0.1083,12.0965,0.0,-0.03,3.357,0.0,0.0056
49455,-106.8187,9.3395,-0.0107,-0.0656,-89.4869,0.0,-0.1083,12.0965,0.0,-0.03,3.357,0.0,0.0056
49474,-106.823,9.8263,-0.0107,-0.0636,-89.4869,0.0,-0.1095,12.2269,-0.0,-0.0292,3.2618,-0.0005,0.0095
49487,-106.823,9.8263,-0.0107,-0.0636,-89.4869,0.0,-0.1095,12.2269,-0.0,-0.0292,3.2618,-0.0005,0.0095
49503,-106.823,9.8263,-0.0107,-0.0636,-89.4869,0.0,-0.1095,12.2269,-0.0,-0.0292,3.2618,-0.0005,0.0095
49519,-106.8272,10.2977,-0.0107,-0.0618,-89.4869,0.0,-0.1106,12.3484,0.0,-0.0284,3.1707,0.0007,0.0112
49535,-106.8272,10.2977,-0.0107,-0.0618,-89.4869,0.0,-0.1106,12.3484,0.0,-0.0284,3.1707,0.0007,0.0112
49551,-106.8272,10.2977,-0.0107,-0.0618,-89.4869,0.0,-0.1106,12.3484,0.0,-0.0284,3.1707,0.0007,0.0112
49568,-106.8323,10.8579,-0.0107,-0.0598,-89.4869,0.0,-0.1118,12.487,0.0,-0.0276,3.0758,-0.0002,-0.0068
49584,-106.8323,10.8579,-0.0107,-0.0598,-89.4869,0.0,-0.1118,12.487,0.0,-0.0276,3.0758,-0.0002,-0.0068
49600,-106.8323,10.8579,-0.0107,-0.0598,-89.4869,0.0,-0.1118,12.487,0.0,-0.0276,3.0758,-0.0002,-0.0068
49616,-106.8379,11.4886,-0.0107,-0.0577,-89.4869,0.0,-0.1132,12.6365,0.0,-0.0267,2.9812,0.0,-0.0012
49632,-106.8379,11.4886,-0.0107,-0.0577,-89.4869,0.0,-0.1132,12.6365,0.0,-0.0267,2.9812,0.0,-0.0012
49660,-106.8432,12.0778,-0.0107,-0.0554,-89.4869,0.0,-0.1143,12.7581,-0.0,-0.0235,2.6243,-0.0002,0.001
49664,-106.8432,12.0778,-0.0107,-0.0554,-89.4869,0.0,-0.1143,12.7581,-0.0,-0.0235,2.6243,-0.0002,0.001
49680,-106.8432,12.0778,-0.0107,-0.0554,-89.4869,0.0,-0.1143,12.7581,-0.0,-0.0235,2.6243,-0.0002,0.001
49696,-106.8432,12.0778,-0.0107,-0.0554,-89.4869,0.0,-0.1143,12.7581,-0.0,-0.0235,2.6243,-0.0002,0.001
49712,-106.8487,12.6985,-0.0108,-0.0521,-89.4869,0.0,-0.1152,12.8639,0.0,-0.0196,2.1845,0.0002,-0.0013
49728,-106.8487,12.6985,-0.0108,-0.0521,-89.4869,0.0,-0.1152,12.8639,0.0,-0.0196,2.1845,0.0002,-0.0013
49753,-106.8534,13.2165,-0.0108,-0.0488,-89.4869,0.0,-0.1159,12.9367,0.0,-0.0162,1.8148,-0.0001,0.0002
49760,-106.8534,13.2165,-0.0108,-0.0488,-89.4869,0.0,-0.1159,12.9367,0.0,-0.0162,1.8148,-0.0001,0.0002
49776,-106.8534,13.2165,-0.0108,-0.0488,-89.4869,0.0,-0.1159,12.9367,0.0,-0.0162,1.8148,-0.0001,0.0002
49808,-106.8579,13.7235,-0.0108,-0.0451,-89.4869,0.0,-0.1164,12.9981,-0.0,-0.014,1.5695,-0.0003,0.0003
49827,-106.865,14.1988,-0.0109,-0.0412,-89.6126,0.0193,-0.3008,13.0272,0.0001,-5.0508,0.7991,0.0035,-6.3482
49840,-106.865,14.1988,-0.0109,-0.0412,-89.6126,0.0193,-0.3008,13.0272,0.0001,-5.0508,0.7991,0.0035,-6.3482
49860,-106.88,14.6769,-0.0109,-0.035,-90.1063,0.0686,-0.6267,13.0064,0.0006,-8.8745,-0.5661,0.013,-18.1573
49872,-106.88,14.6769,-0.0109,-0.035,-90.1063,0.0686,-0.6267,13.0064,0.0006,-8.8745,-0.5661,0.013,-18.1573
49899,-106.88,14.6769,-0.0109,-0.035,-90.1063,0.0686,-0.6267,13.0064,0.0006,-8.8745,-0.5661,0.013,-18.1573
49904,-106.9105,15.2447,-0.0109,-0.0237,-91.3728,0.143,-1.08,12.9236,0.0011,-10.3444,-1.8911,0.0116,-36.5441
49920,-106.9105,15.2447,-0.0109,-0.0237,-91.3728,0.143,-1.08,12.9236,0.0011,-10.3444,-1.8911,0.0116,-36.5441
49936,-106.9105,15.2447,-0.0109,-0.0237,-91.3728,0.143,-1.08,12.9236,0.0011,-10.3444,-1.8911,0.0116,-36.5441
49952,-106.9511,15.7732,-0.011,-0.01,-93.3638,0.2064,-1.4926,12.808,0.0013,-10.0241,-2.8083,0.0036,-56.5666
49968,-106.9511,15.7732,-0.011,-0.01,-93.3638,0.2064,-1.4926,12.808,0.0013,-10.0241,-2.8083,0.0036,-56.5666
49984,-106.9965,16.2501,-0.011,0.0041,-95.9592,0.2497,-1.8246,12.6848,0.0011,-8.835,-3.2766,-0.0035,-76.7159
50000,-106.9965,16.2501,-0.011,0.0041,-95.9592,0.2497,-1.8246,12.6848,0.0011,-8.835,-3.2766,-0.0035,-76.7159
50019,-107.0485,16.7334,-0.0111,0.0177,-99.4512,0.2715,-2.0911,12.5567,0.0008,-6.901,-3.3192,-0.0086,-98.7446
50032,-107.0485,16.7334,-0.0111,0.0177,-99.4512,0.2715,-2.0911,12.5567,0.0008,-6.901,-3.3192,-0.0086,-98.7446
50057,-107.0992,17.1827,-0.0111,0.0274,-103.539,0.269,-2.25,12.448,0.0003,-4.3574,-2.9807,-0.0121,-120.2134
50064,-107.0992,17.1827,-0.0111,0.0274,-103.539,0.269,-2.25,12.448,0.0003,-4.3574,-2.9807,-0.0121,-120.2134
50080,-107.0992,17.1827,-0.0111,0.0274,-103.539,0.269,-2.25,12.448,0.0003,-4.3574,-2.9807,-0.0121,-120.2134
50103,-107.1505,17.6444,-0.0112,0.0328,-108.6676,0.2435,-2.3122,12.3524,-0.0002,-1.6342,-2.5083,-0.014,-143.1404
50112,-107.1505,17.6444,-0.0112,0.0328,-108.6676,0.2435,-2.3122,12.3524,-0.0002,-1.6342,-2.5083,-0.014,-143.1404
50128,-107.1505,17.6444,-0.0112,0.0328,-108.6676,0.2435,-2.3122,12.3524,-0.0002,-1.6342,-2.5083,-0.014,-143.1404
50144,-107.1994,18.1293,-0.0112,0.0308,-115.11,0.1947,-2.2408,12.2787,-0.0007,1.7493,-1.8058,-0.0129,-167.5579
50160,-107.1994,18.1293,-0.0112,0.0308,-115.11,0.1947,-2.2408,12.2787,-0.0007,1.7493,-1.8058,-0.0129,-167.5579
50179,-107.2387,18.6401,-0.0111,0.0157,-123.0953,0.1134,-1.8989,12.2627,-0.0012,7.7726,-0.3644,-0.011,-189.426
50192,-107.2387,18.6401,-0.0111,0.0157,-123.0953,0.1134,-1.8989,12.2627,-0.0012,7.7726,-0.3644,-0.011,-189.426
50208,-107.2387,18.6401,-0.0111,0.0157,-123.0953,0.1134,-1.8989,12.2627,-0.0012,7.7726,-0.3644,-0.011,-189.426
50224,-107.2535,19.1209,-0.0109,-0.0182,-131.4408,0.004,-1.2365,12.2771,-0.0018,15.6923,0.3411,-0.0135,-202.4827
50240,-107.2535,19.1209,-0.0109,-0.0182,-131.4408,0.004,-1.2365,12.2771,-0.0018,15.6923,0.3411,-0.0135,-202.4827
50256,-107.2535,19.1209,-0.0109,-0.0182,-131.4408,0.004,-1.2365,12.2771,-0.0018,15.6923,0.3411,-0.0135,-202.4827
50272,-107.2344,19.6467,-0.0106,-0.0733,-141.2923,-0.1363,-0.2693,12.207,0.0005,20.4733,-1.4821,0.0474,-211.9651
50288,-107.2344,19.6467,-0.0106,-0.0733,-141.2923,-0.1363,-0.2693,12.207,0.0005,20.4733,-1.4821,0.0474,-211.9651
50304,-107.2344,19.6467,-0.0106,-0.0733,-141.2923,-0.1363,-0.2693,12.207,0.0005,20.4733,-1.4821,0.0474,-211.9651
50327,-107.1666,20.2048,-0.01,-0.1389,-152.5295,-0.2798,0.9346,11.9426,0.0018,23.1447,-5.0835,0.0257,-218.5836
50336,-107.1666,20.2048,-0.01,-0.1389,-152.5295,-0.2798,0.9346,11.9426,0.0018,23.1447,-5.0835,0.0257,-218.5836
50355,-107.091,20.5699,-0.0096,-0.1819,-160.3965,-0.3691,1.783,11.6259,0.0021,23.8104,-8.8901,0.0082,-222.0815
50368,-107.091,20.5699,-0.0096,-0.1819,-160.3965,-0.3691,1.783,11.6259,0.0021,23.8104,-8.8901,0.0082,-222.0815
50384,-107.091,20.5699,-0.0096,-0.1819,-160.3965,-0.3691,1.783,11.6259,0.0021,23.8104,-8.8901,0.0082,-222.0815
50416,-106.9838,20.9452,-0.0092,-0.2242,-169.0436,-0.4554,2.6795,11.1563,0.0021,23.2575,-12.1799,-0.0004,-225.6853
50435,-106.8344,21.3458,-0.0089,-0.2594,-179.1563,-0.5547,3.466,10.2796,0.0022,17.6467,-19.6715,0.0021,-227.7414
50448,-106.8344,21.3458,-0.0089,-0.2594,-179.1563,-0.5547,3.466,10.2796,0.0022,17.6467,-19.6715,0.0021,-227.7414
50464,-106.8344,21.3458,-0.0089,-0.2594,-179.1563,-0.5547,3.466,10.2796,0.0022,17.6467,-19.6715,0.0021,-227.7414
50480,-106.7018,21.6401,-0.0087,-0.2748,172.4611,-0.6478,3.8568,9.3717,0.0022,10.6537,-24.7557,0.0006,-228.9051
50496,-106.7018,21.6401,-0.0087,-0.2748,172.4611,-0.6478,3.8568,9.3717,0.0022,10.6537,-24.7557,0.0006,-228.9051
50517,-106.5518,21.937,-0.0085,-0.2772,162.8725,-0.7518,3.8556,8.3121,0.0021,-0.0274,-25.1846,-0.003,-223.98
50528,-106.5518,21.937,-0.0085,-0.2772,162.8725,-0.7518,3.8556,8.3121,0.0021,-0.0274,-25.1846,-0.003,-223.98
50544,-106.5518,21.937,-0.0085,-0.2772,162.8725,-0.7518,3.8556,8.3121,0.0021,-0.0274,-25.1846,-0.003,-223.98
50560,-106.4486,22.1752,-0.0089,-0.2393,155.1398,-0.804,3.12,7.7644,-0.0024,-20.1109,-14.9713,-0.1217,-204.4597
50576,-106.4486,22.1752,-0.0089,-0.2393,155.1398,-0.804,3.12,7.7644,-0.0024,-20.1109,-14.9713,-0.1217,-204.4597
50597,-106.3772,22.4125,-0.0093,-0.176,147.5903,-0.86,2.2462,7.2339,0.0039,-22.7037,-13.7863,0.1639,-192.2203
50608,-106.3772,22.4125,-0.0093,-0.176,147.5903,-0.86,2.2462,7.2339,0.0039,-22.7037,-13.7863,0.1639,-192.2203
50624,-106.3772,22.4125,-0.0093,-0.176,147.5903,-0.86,2.2462,7.2339,0.0039,-22.7037,-13.7863,0.1639,-192.2203
50640,-106.3444,22.6515,-0.0097,-0.1076,140.1105,-0.9077,1.2386,6.9461,0.0022,-25.0236,-7.146,-0.0435,-179.8
50656,-106.3444,22.6515,-0.0097,-0.1076,140.1105,-0.9077,1.2386,6.9461,0.0022,-25.0236,-7.146,-0.0435,-179.8
50672,-106.3444,22.6515,-0.0097,-0.1076,140.1105,-0.9077,1.2386,6.9461,0.0022,-25.0236,-7.146,-0.0435,-179.8
50688,-106.3624,22.9508,-0.0103,-0.0147,132.0955,-0.9049,0.0016,7.0962,0.0007,-25.4267,3.0844,-0.0312,-154.0001
50704,-106.3624,22.9508,-0.0103,-0.0147,132.0955,-0.9049,0.0016,7.0962,0.0007,-25.4267,3.0844,-0.0312,-154.0001
50729,-106.4164,23.2143,-0.0108,0.0576,126.6004,-0.8652,-0.8803,7.4108,-0.0003,-22.3021,7.956,-0.0231,-129.6682
50736,-106.4164,23.2143,-0.0108,0.0576,126.6004,-0.8652,-0.8803,7.4108,-0.0003,-22.3021,7.956,-0.0231,-129.6682
50752,-106.4164,23.2143,-0.0108,0.0576,126.6004,-0.8652,-0.8803,7.4108,-0.0003,-22.3021,7.956,-0.0231,-129.6682
50768,-106.497,23.5095,-0.0113,0.1163,121.8329,-0.7896,-1.4524,7.8439,-0.001,-13.9758,10.5806,-0.0177,-109.2419
50784,-106.497,23.5095,-0.0113,0.1163,121.8329,-0.7896,-1.4524,7.8439,-0.001,-13.9758,10.5806,-0.0177,-109.2419
50804,-106.5955,23.8574,-0.0117,0.1571,117.2673,-0.6418,-1.5787,8.3084,-0.0018,-2.8248,10.3909,-0.0186,-98.8345
50816,-106.5955,23.8574,-0.0117,0.1571,117.2673,-0.6418,-1.5787,8.3084,-0.0018,-2.8248,10.3909,-0.0186,-98.8345
50832,-106.5955,23.8574,-0.0117,0.1571,117.2673,-0.6418,-1.5787,8.3084,-0.0018,-2.8248,10.3909,-0.0186,-98.8345
50848,-106.6916,24.2404,-0.0119,0.1741,112.7931,-0.4457,-1.3445,8.717,-0.0027,5.0628,8.8339,-0.0202,-96.0486
50864,-106.6916,24.2404,-0.0119,0.1741,112.7931,-0.4457,-1.3445,8.717,-0.0027,5.0628,8.8339,-0.0202,-96.0486
50880,-106.6916,24.2404,-0.0119,0.1741,112.7931,-0.4457,-1.3445,8.717,-0.0027,5.0628,8.8339,-0.0202,-96.0486
50896,-106.6916,24.2404,-0.0119,0.1741,112.7931,-0.4457,-1.3445,8.717,-0.0027,5.0628,8.8339,-0.0202,-96.0486
50928,-106.7783,24.683,-0.0121,0.174,107.9486,-0.2309,-0.8671,9.087,-0.0033,9.3991,7.2852,-0.0109,-95.5471
50953,-106.835,25.0642,-0.0122,0.1691,104.1864,-0.1015,-0.7147,9.3853,-0.0032,3.6368,7.1153,0.0013,-83.5983
50960,-106.835,25.0642,-0.0122,0.1691,104.1864,-0.1015,-0.7147,9.3853,-0.0032,3.6368,7.1153,0.0013,-83.5983
50976,-106.835,25.0642,-0.0122,0.1691,104.1864,-0.1015,-0.7147,9.3853,-0.0032,3.6368,7.1153,0.0013,-83.5983
50992,-106.8865,25.4333,-0.0122,0.1615,101.4095,-0.065,-0.8968,9.5578,-0.0024,-4.6321,4.3852,0.0214,-60.9942
51008,-106.8865,25.4333,-0.0122,0.1615,101.4095,-0.065,-0.8968,9.5578,-0.0024,-4.6321,4.3852,0.0214,-60.9942
51031,-106.9461,25.8316,-0.0122,0.147,99.4962,-0.0891,-1.2118,9.6441,-0.0009,-7.5513,2.0697,0.0362,-36.2353
51040,-106.9461,25.8316,-0.0122,0.147,99.4962,-0.0891,-1.2118,9.6441,-0.0009,-7.5513,2.0697,0.0362,-36.2353
51056,-106.9461,25.8316,-0.0122,0.147,99.4962,-0.0891,-1.2118,9.6441,-0.0009,-7.5513,2.0697,0.0362,-36.2353
51072,-107.0059,26.2176,-0.0121,0.1289,98.4765,-0.1089,-1.3489,9.7149,0.0,-3.4302,1.7721,0.0224,-21.065
51088,-107.0059,26.2176,-0.0121,0.1289,98.4765,-0.1089,-1.3489,9.7149,0.0,-3.4302,1.7721,0.0224,-21.065
51104,-107.0059,26.2176,-0.0121,0.1289,98.4765,-0.1089,-1.3489,9.7149,0.0,-3.4302,1.7721,0.0224,-21.065
51120,-107.0724,26.6586,-0.0119,0.1084,97.8567,-0.1023,-1.3743,9.7793,0.0002,-0.5612,1.4228,0.0033,-9.428
51136,-107.0724,26.6586,-0.0119,0.1084,97.8567,-0.1023,-1.3743,9.7793,0.0002,-0.5612,1.4228,0.0033,-9.428
51152,-107.0724,26.6586,-0.0119,0.1084,97.8567,-0.1023,-1.3743,9.7793,0.0002,-0.5612,1.4228,0.0033,-9.428
51168,-107.1508,27.2057,-0.0118,0.0857,97.4903,-0.0747,-1.3501,9.8469,-0.0001,0.4351,1.2117,-0.004,-3.4731
51184,-107.1508,27.2057,-0.0118,0.0857,97.4903,-0.0747,-1.3501,9.8469,-0.0001,0.4351,1.2117,-0.004,-3.4731
51200,-107.1508,27.2057,-0.0118,0.0857,97.4903,-0.0747,-1.3501,9.8469,-0.0001,0.4351,1.2117,-0.004,-3.4731
51216,-107.2088,27.6273,-0.0117,0.0714,97.3531,-0.0539,-1.3285,9.8978,-0.0002,0.5049,1.1925,-0.0027,-2.8804
51232,-107.2088,27.6273,-0.0117,0.0714,97.3531,-0.0539,-1.3285,9.8978,-0.0002,0.5049,1.1925,-0.0027,-2.8804
51248,-107.2088,27.6273,-0.0117,0.0714,97.3531,-0.0539,-1.3285,9.8978,-0.0002,0.5049,1.1925,-0.0027,-2.8804
51268,-107.2744,28.1258,-0.0106,0.1058,97.2662,0.1116,-1.313,9.9345,0.0457,0.3079,0.7306,0.9134,-1.8309
51280,-107.2744,28.1258,-0.0106,0.1058,97.2662,0.1116,-1.313,9.9345,0.0457,0.3079,0.7306,0.9134,-1.8309
51296,-107.2744,28.1258,-0.0106,0.1058,97.2662,0.1116,-1.313,9.9345,0.0457,0.3079,0.7306,0.9134,-1.8309
51312,-107.3341,28.5737,-0.0107,0.0791,97.2306,0.0521,-1.3007,9.9593,-0.0069,0.2738,0.5521,-1.168,-0.2765
51328,-107.3341,28.5737,-0.0107,0.0791,97.2306,0.0521,-1.3007,9.9593,-0.0069,0.2738,0.5521,-1.168,-0.2765
51344,-107.3341,28.5737,-0.0107,0.0791,97.2306,0.0521,-1.3007,9.9593,-0.0069,0.2738,0.5521,-1.168,-0.2765
51360,-107.3953,29.044,-0.0108,0.0592,97.1997,0.0341,-1.2848,9.9836,-0.0055,0.3369,0.5138,0.0302,-1.1024
51376,-107.3953,29.044,-0.0108,0.0592,97.1997,0.0341,-1.2848,9.9836,-0.0055,0.3369,0.5138,0.0302,-1.1024
51392,-107.3953,29.044,-0.0108,0.0592,97.1997,0.0341,-1.2848,9.9836,-0.0055,0.3369,0.5138,0.0302,-1.1024
51408,-107.4638,29.5781,-0.0109,0.0445,97.1852,0.0264,-1.2765,10.0159,-0.0039,0.1565,0.6058,0.0302,-0.7519
51424,-107.4638,29.5781,-0.0109,0.0445,97.1852,0.0264,-1.2765,10.0159,-0.0039,0.1565,0.6058,0.0302,-0.7519
51440,-107.4638,29.5781,-0.0109,0.0445,97.1852,0.0264,-1.2765,10.0159,-0.0039,0.1565,0.6058,0.0302,-0.7519
51456,-107.5232,30.0454,-0.011,0.0355,97.1844,0.0219,-1.2728,10.0383,-0.0029,0.0774,0.4804,0.0218,0.5394
51472,-107.5232,30.0454,-0.011,0.0355,97.1844,0.0219,-1.2728,10.0383,-0.0029,0.0774,0.4804,0.0218,0.5394
51488,-107.5779,30.4769,-0.0111,0.0295,97.1766,0.0184,-1.2727,10.0659,-0.0021,0.004,0.6431,0.0176,-0.5218
51504,-107.5779,30.4769,-0.0111,0.0295,97.1766,0.0184,-1.2727,10.0659,-0.0021,0.004,0.6431,0.0176,-0.5218
51520,-107.5779,30.4769,-0.0111,0.0295,97.1766,0.0184,-1.2727,10.0659,-0.0021,0.004,0.6431,0.0176,-0.5218
51539,-107.6353,30.9358,-0.0095,-0.0574,97.1814,0.1149,-1.2785,10.0949,0.0319,-0.1268,0.635,0.7473,0.7892
51552,-107.6353,30.9358,-0.0095,-0.0574,97.1814,0.1149,-1.2785,10.0949,0.0319,-0.1268,0.635,0.7473,0.7892
51568,-107.6353,30.9358,-0.0095,-0.0574,97.1814,0.1149,-1.2785,10.0949,0.0319,-0.1268,0.635,0.7473,0.7892
51587,-107.6966,31.4169,-0.0104,-0.01,97.1801,0.0374,-1.2744,10.112,-0.0093,0.0861,0.361,-0.8659,-0.7155
51600,-107.6966,31.4169,-0.0104,-0.01,97.1801,0.0374,-1.2744,10.112,-0.0093,0.0861,0.361,-0.8659,-0.7155
51616,-107.6966,31.4169,-0.0104,-0.01,97.1801,0.0374,-1.2744,10.112,-0.0093,0.0861,0.361,-0.8659,-0.7155
51635,-107.7574,31.8996,-0.0108,0.0057,97.1892,0.0176,-1.2754,10.1313,-0.0051,-0.0218,0.4044,0.0865,0.704
51648,-107.7574,31.8996,-0.0108,0.0057,97.1892,0.0176,-1.2754,10.1313,-0.0051,-0.0218,0.4044,0.0865,0.704
51664,-107.7574,31.8996,-0.0108,0.0057,97.1892,0.0176,-1.2754,10.1313,-0.0051,-0.0218,0.4044,0.0865,0.704
51684,-107.8202,32.3977,-0.011,0.0101,97.1833,0.0107,-1.2778,10.147,-0.0027,-0.0499,0.3187,0.0492,-0.7213
51696,-107.8202,32.3977,-0.011,0.0101,97.1833,0.0107,-1.2778,10.147,-0.0027,-0.0499,0.3187,0.0492,-0.7213
51712,-107.8202,32.3977,-0.011,0.0101,97.1833,0.0107,-1.2778,10.147,-0.0027,-0.0499,0.3187,0.0492,-0.7213
51728,-107.8717,32.8061,-0.0111,0.0112,97.1874,0.0081,-1.2822,10.1785,-0.0016,-0.1082,0.7846,0.029,0.3233
51744,-107.8717,32.8061,-0.0111,0.0112,97.1874,0.0081,-1.2822,10.1785,-0.0016,-0.1082,0.7846,0.029,0.3233
51760,-107.8717,32.8061,-0.0111,0.0112,97.1874,0.0081,-1.2822,10.1785,-0.0016,-0.1082,0.7846,0.029,0.3233
51776,-107.9356,33.3137,-0.0112,0.0114,97.1821,0.0058,-1.2849,10.197,-0.0008,-0.0547,0.3709,0.0146,-0.7614
51792,-107.9356,33.3137,-0.0112,0.0114,97.1821,0.0058,-1.2849,10.197,-0.0008,-0.0547,0.3709,0.0146,-0.7614
51808,-107.9356,33.3137,-0.0112,0.0114,97.1821,0.0058,-1.2849,10.197,-0.0008,-0.0547,0.3709,0.0146,-0.7614
51824,-107.998,33.8088,-0.0112,0.0105,97.1893,0.0043,-1.2871,10.2132,-0.0004,-0.0455,0.3354,0.0083,0.7078
51840,-107.998,33.8088,-0.0112,0.0105,97.1893,0.0043,-1.2871,10.2132,-0.0004,-0.0455,0.3354,0.0083,0.7078
51860,-108.0478,34.2042,-0.0112,0.0098,97.1893,0.0034,-1.2891,10.2281,-0.0003,-0.0519,0.3849,0.0045,0.6981
51872,-108.0478,34.2042,-0.0112,0.0098,97.1893,0.0034,-1.2891,10.2281,-0.0003,-0.0519,0.3849,0.0045,0.6981
51888,-108.0478,34.2042,-0.0112,0.0098,97.1893,0.0034,-1.2891,10.2281,-0.0003,-0.0519,0.3849,0.0045,0.6981
51909,-108.1058,34.6634,-0.0112,0.0095,97.1841,0.0027,-1.2926,10.254,-0.0001,-0.0775,0.5776,0.0025,-0.524
51920,-108.1058,34.6634,-0.0112,0.0095,97.1841,0.0027,-1.2926,10.254,-0.0001,-0.0775,0.5776,0.0025,-0.524
51936,-108.1058,34.6634,-0.0112,0.0095,97.1841,0.0027,-1.2926,10.254,-0.0001,-0.0775,0.5776,0.0025,-0.524
51952,-108.1058,34.6634,-0.0112,0.0095,97.1841,0.0027,-1.2926,10.254,-0.0001,-0.0775,0.5776,0.0025,-0.524
51968,-108.1774,35.2315,-0.0112,0.0094,97.184,0.0019,-1.2962,10.2814,-0.0001,-0.065,0.4957,0.0011,-0.5791
51984,-108.1774,35.2315,-0.0112,0.0094,97.184,0.0019,-1.2962,10.2814,-0.0001,-0.065,0.4957,0.0011,-0.5791
52004,-108.2252,35.6107,-0.0112,0.0093,97.184,0.0015,-1.2984,10.2988,-0.0,-0.0609,0.47,0.001,-0.5745
52016,-108.2252,35.6107,-0.0112,0.0093,97.184,0.0015,-1.2984,10.2988,-0.0,-0.0609,0.47,0.001,-0.5745
52032,-108.2252,35.6107,-0.0112,0.0093,97.184,0.0015,-1.2984,10.2988,-0.0,-0.0609,0.47,0.001,-0.5745
52050,-108.2783,36.0316,-0.0112,0.0094,97.1873,0.0012,-1.3018,10.3258,-0.0,-0.0828,0.6639,0.0003,0.3182
52066,-108.2783,36.0316,-0.0112,0.0094,97.1873,0.0012,-1.3018,10.3258,-0.0,-0.0828,0.6639,0.0003,0.3182
52082,-108.2783,36.0316,-0.0112,0.0094,97.1873,0.0012,-1.3018,10.3258,-0.0,-0.0828,0.6639,0.0003,0.3182
52101,-108.3489,36.5916,-0.0112,0.0095,97.1881,0.0009,-1.3052,10.3525,-0.0,-0.0615,0.4915,0.0004,0.5075
