timestamp,x,y,z,pitch,yaw,roll,vx,vy,vz,ax,ay,az,yaw_rate
16613,-106.6867,-4.8475,0.5006,0.0,-89.3578,0.0,0.0,0.0,-1.3373,0.0,0.0,-9.8,0.0
16629,-106.6867,-4.8475,0.4866,0.0,-89.3578,0.0,0.0,0.0,-1.4332,0.0,0.0,-9.8,0.0
16645,-106.6867,-4.8475,0.4866,0.0,-89.3578,0.0,0.0,0.0,-1.4332,0.0,0.0,-9.8,0.0
16663,-106.6867,-4.8475,0.4312,0.0,-89.3578,0.0,0.0,0.0,-1.7644,0.0,0.0,-9.8,0.0
16677,-106.6867,-4.8475,0.3956,0.0,-89.3578,0.0,0.0,0.0,-1.9475,0.0,0.0,-9.8,0.0
16693,-106.6867,-4.8475,0.3563,0.0,-89.3578,0.0,0.0,0.0,-2.1321,0.0,0.0,-9.8,0.0
16709,-106.6867,-4.8475,0.3563,0.0,-89.3578,0.0,0.0,0.0,-2.1321,0.0,0.0,-9.8,0.0
16725,-106.6867,-4.8475,0.3108,0.0,-89.3578,0.0,0.0,0.0,-2.3277,0.0,0.0,-9.8,0.0
16744,-106.6867,-4.8475,0.2669,0.0,-89.3578,0.0,0.0,0.0,-2.5027,0.0,0.0,-9.8,0.0
16757,-106.6867,-4.8475,0.2015,0.0,-89.3578,0.0,0.0,0.0,-2.7435,0.0,0.0,-9.8,0.0
16773,-106.6867,-4.8475,0.2015,0.0,-89.3578,0.0,0.0,0.0,-2.7435,0.0,0.0,-9.8,0.0
16789,-106.6867,-4.8475,0.1411,0.0,-89.3578,0.0,0.0,0.0,-2.9489,0.0,0.0,-9.8,0.0
16807,-106.6867,-4.8475,0.0831,0.0,-89.3578,0.0,0.0,0.0,-3.1331,0.0,0.0,-9.8,0.0
16823,-106.6867,-4.8462,0.0259,-0.002,-89.3578,0.0,-0.0005,0.0456,-2.6851,-0.0262,2.3426,23.0174,0.0
16837,-106.6867,-4.8462,0.0259,-0.002,-89.3578,0.0,-0.0005,0.0456,-2.6851,-0.0262,2.3426,23.0174,0.0
16853,-106.6868,-4.8431,-0.0253,-0.0052,-89.3578,-0.0,-0.0013,0.1202,-1.6782,-0.0324,2.8867,38.9677,-0.0
16872,-106.6868,-4.8412,-0.0517,-0.0056,-89.3578,0.0,-0.0009,0.0778,-1.0896,0.0229,-2.0388,28.3004,-0.0
16887,-106.6868,-4.8395,-0.0669,-0.0056,-89.3578,0.0,-0.0008,0.069,-0.7156,0.0052,-0.4698,19.9089,0.0
16903,-106.6868,-4.8381,-0.0756,-0.0052,-89.3578,-0.0,-0.0007,0.0613,-0.4394,0.0048,-0.4367,15.8343,-0.0
16917,-106.6868,-4.8381,-0.0756,-0.0052,-89.3578,-0.0,-0.0007,0.0613,-0.4394,0.0048,-0.4367,15.8343,-0.0
16933,-106.6869,-4.8337,-0.0811,-0.0089,-89.3578,0.0,-0.0031,0.2792,-0.1985,-0.1195,10.7756,11.9115,-0.0151
16949,-106.6871,-4.8268,-0.0826,-0.0152,-89.3338,-0.0002,-0.0012,0.4029,-0.0508,0.1045,6.8999,8.2463,0.9172
16967,-106.6873,-4.8129,-0.0811,-0.0252,-89.319,-0.0002,-0.0049,0.5642,0.0993,-0.1377,6.0571,5.6344,1.1722
16981,-106.6874,-4.8013,-0.0784,-0.032,-89.3259,-0.0002,-0.0072,0.6917,0.1624,-0.1281,7.2083,3.5679,-0.1496
16997,-106.6874,-4.8013,-0.0784,-0.032,-89.3259,-0.0002,-0.0072,0.6917,0.1624,-0.1281,7.2083,3.5679,-0.1496
17013,-106.6876,-4.7865,-0.0744,-0.0379,-89.3265,0.0,-0.0098,0.7361,0.2079,-0.1323,2.2244,2.2781,1.2936
17030,-106.6879,-4.7719,-0.0705,-0.0428,-89.3187,0.0003,-0.0129,0.8721,0.2307,-0.178,7.8829,1.322,0.849
17047,-106.6882,-4.7471,-0.064,-0.0504,-89.3112,0.0003,-0.0123,0.9947,0.2761,0.0242,4.847,1.7943,1.0195
17061,-106.6882,-4.7277,-0.0595,-0.0553,-89.3493,0.0002,-0.015,1.1412,0.2738,-0.1555,8.3156,-0.1297,-5.1593
17077,-106.6885,-4.7061,-0.0546,-0.0596,-89.3322,-0.0001,-0.0136,1.2841,0.2598,0.0746,7.7683,-0.7582,0.873
17093,-106.6885,-4.7061,-0.0546,-0.0596,-89.3322,-0.0001,-0.0136,1.2841,0.2598,0.0746,7.7683,-0.7582,0.873
17109,-106.6889,-4.6839,-0.0501,-0.0617,-89.3199,-0.0001,-0.0146,1.2787,0.2411,-0.0557,-0.301,-1.0408,0.6311
17127,-106.6893,-4.6512,-0.0442,-0.0588,-89.3071,0.0001,-0.014,1.1857,0.2132,0.0249,-3.4663,-1.0401,0.4054
17141,-106.6897,-4.6275,-0.0403,-0.0555,-89.3009,0.0002,-0.0144,1.1835,0.1957,-0.0234,-0.1105,-0.9038,0.2963
17157,-106.6897,-4.6275,-0.0403,-0.0555,-89.3009,0.0002,-0.0144,1.1835,0.1957,-0.0234,-0.1105,-0.9038,0.2963
17173,-106.69,-4.6037,-0.0368,-0.0512,-89.2963,0.0002,-0.0146,1.179,0.1758,-0.0099,-0.2301,-1.0257,0.2182
17195,-106.6903,-4.5798,-0.0337,-0.0465,-89.293,0.0003,-0.0147,1.1745,0.1571,-0.0047,-0.2337,-0.9575,0.1577
17205,-106.6903,-4.5798,-0.0337,-0.0465,-89.293,0.0003,-0.0147,1.1745,0.1571,-0.0047,-0.2337,-0.9575,0.1577
17221,-106.6908,-4.5478,-0.0302,-0.0417,-89.2913,0.0003,-0.0161,1.2717,0.1318,-0.0548,3.7484,-0.9733,0.0006
17237,-106.691,-4.5254,-0.0279,-0.0378,-89.2913,0.0003,-0.0159,1.2659,0.1192,0.0104,-0.3186,-0.6911,0.0025
17255,-106.6913,-4.4951,-0.0254,-0.0335,-89.3087,0.0004,-0.0174,1.2176,0.1006,-0.0603,-1.9673,-0.759,-0.7903
17269,-106.6918,-4.4708,-0.0237,-0.0331,-89.2813,0.0004,-0.0175,1.2918,0.0912,-0.0064,4.0864,-0.514,1.3767
17285,-106.6923,-4.4466,-0.0222,-0.033,-89.2645,0.0006,-0.0225,1.3681,0.0809,-0.279,4.3236,-0.5853,0.7475
17301,-106.6923,-4.4466,-0.0222,-0.033,-89.2645,0.0006,-0.0225,1.3681,0.0809,-0.279,4.3236,-0.5853,0.7475
17317,-106.6927,-4.4195,-0.0208,-0.0337,-89.2729,0.0006,-0.0206,1.358,0.0722,0.0986,-0.5363,-0.4672,0.7713
17335,-106.6936,-4.3799,-0.0191,-0.0354,-89.227,0.0007,-0.0248,1.5781,0.0597,-0.1582,8.3542,-0.4738,-0.0894
17351,-106.6943,-4.3509,-0.0181,-0.038,-89.1981,0.0007,-0.025,1.6901,0.053,-0.0113,6.2132,-0.3689,2.6121
17365,-106.6943,-4.3509,-0.0181,-0.038,-89.1981,0.0007,-0.025,1.6901,0.053,-0.0113,6.2132,-0.3689,2.6121
17381,-106.6947,-4.3175,-0.0172,-0.0425,-89.2149,0.0008,-0.0283,1.7855,0.0469,-0.1717,5.0,-0.3216,2.4304
17397,-106.6955,-4.2804,-0.0163,-0.0472,-89.1678,0.0003,-0.0201,1.7988,0.041,0.4085,0.6708,-0.2966,1.5539
17413,-106.6958,-4.2294,-0.0153,-0.0522,-89.214,0.0001,-0.0292,2.0519,0.0333,-0.3488,9.7373,-0.2951,-2.6673
17429,-106.6958,-4.2294,-0.0153,-0.0522,-89.214,0.0001,-0.0292,2.0519,0.0333,-0.3488,9.7373,-0.2951,-2.6673
17447,-106.6965,-4.1785,-0.0146,-0.0564,-89.2139,0.0,-0.0291,2.1699,0.0279,0.0054,4.8322,-0.2216,2.0258
17464,-106.6971,-4.1373,-0.0141,-0.0619,-89.2077,0.0,-0.0306,2.3052,0.025,-0.0829,7.5468,-0.1601,3.078
17480,-106.6974,-4.0929,-0.0136,-0.0665,-89.241,-0.0004,-0.0305,2.4609,0.0221,0.0019,8.3495,-0.1597,-2.7307
17493,-106.6974,-4.0929,-0.0136,-0.0665,-89.241,-0.0004,-0.0305,2.4609,0.0221,0.0019,8.3495,-0.1597,-2.7307
17509,-106.6981,-4.048,-0.0132,-0.0677,-89.2385,-0.0002,-0.034,2.5135,0.0193,-0.186,2.82,-0.1497,0.5905
17525,-106.6986,-4.0029,-0.0129,-0.0692,-89.2427,-0.0001,-0.0359,2.5947,0.0168,-0.1063,4.5241,-0.137,-1.4453
17552,-106.6992,-3.9498,-0.0126,-0.0766,-89.2521,-0.0004,-0.0349,2.8702,0.0148,0.0506,14.4873,-0.1051,0.8701
17557,-106.6992,-3.9498,-0.0126,-0.0766,-89.2521,-0.0004,-0.0349,2.8702,0.0148,0.0506,14.4873,-0.1051,0.8701
17573,-106.7,-3.8687,-0.0121,-0.0848,-89.2978,-0.0002,-0.0423,3.0264,0.0121,-0.2678,5.7211,-0.1012,-3.0321
17589,-106.7009,-3.8052,-0.0119,-0.0891,-89.2864,-0.0002,-0.0419,3.181,0.01,0.0191,7.5877,-0.1004,1.713
17605,-106.7018,-3.7206,-0.0116,-0.0944,-89.3061,-0.0008,-0.0377,3.3488,0.0087,0.1622,6.5703,-0.0526,-2.7766
17621,-106.7018,-3.7206,-0.0116,-0.0944,-89.3061,-0.0008,-0.0377,3.3488,0.0087,0.1622,6.5703,-0.0526,-2.7766
17637,-106.7023,-3.654,-0.0114,-0.0963,-89.3456,-0.0012,-0.0395,3.3977,0.0077,-0.0905,2.5308,-0.0493,-1.6885
17653,-106.703,-3.588,-0.0113,-0.0947,-89.3472,-0.0014,-0.0392,3.3939,0.0067,0.0166,-0.2007,-0.056,-1.1646
17671,-106.7039,-3.5097,-0.0112,-0.0936,-89.3489,-0.0014,-0.0422,3.6258,0.0055,-0.1399,10.6016,-0.0537,1.5173
17685,-106.7039,-3.5097,-0.0112,-0.0936,-89.3489,-0.0014,-0.0422,3.6258,0.0055,-0.1399,10.6016,-0.0537,1.5173
17701,-106.7048,-3.416,-0.0111,-0.0963,-89.3662,-0.0014,-0.0438,3.8735,0.0047,-0.062,10.0507,-0.0334,-3.1601
17722,-106.7059,-3.3401,-0.011,-0.0975,-89.3502,-0.0009,-0.0476,3.9875,0.0042,-0.1981,5.9177,-0.0253,-1.5061
17733,-106.7059,-3.3401,-0.011,-0.0975,-89.3502,-0.0009,-0.0476,3.9875,0.0042,-0.1981,5.9177,-0.0253,-1.5061
17749,-106.7073,-3.2313,-0.0109,-0.1001,-89.3304,-0.0008,-0.0485,4.1748,0.0033,-0.0363,7.088,-0.031,2.3808
17767,-106.7084,-3.1221,-0.0108,-0.1016,-89.3519,-0.0009,-0.0495,4.3156,0.0028,-0.0361,5.5242,-0.0224,-3.2784
17781,-106.7096,-3.0308,-0.0107,-0.103,-89.3367,-0.0008,-0.0513,4.5146,0.0023,-0.0892,9.6759,-0.0214,1.009
17797,-106.7096,-3.0308,-0.0107,-0.103,-89.3367,-0.0008,-0.0513,4.5146,0.0023,-0.0892,9.6759,-0.0214,1.009
17813,-106.7107,-2.9436,-0.0107,-0.1063,-89.3156,-0.0005,-0.0539,4.682,0.0021,-0.1408,8.9319,-0.0107,3.5738
17829,-106.7115,-2.8614,-0.0106,-0.1077,-89.3365,-0.0009,-0.0528,4.8202,0.0018,0.0631,7.9911,-0.0168,-0.3455
17847,-106.7126,-2.7381,-0.0105,-0.1113,-89.3668,-0.001,-0.0563,5.0148,0.0015,-0.1398,7.8198,-0.0125,-2.0988
17861,-106.7136,-2.6452,-0.0105,-0.1129,-89.3817,-0.0009,-0.0589,5.1414,0.0014,-0.1423,6.9546,-0.0091,-2.7836
17877,-106.7136,-2.6452,-0.0105,-0.1129,-89.3817,-0.0009,-0.0589,5.1414,0.0014,-0.1423,6.9546,-0.0091,-2.7836
17893,-106.7149,-2.5377,-0.0105,-0.1141,-89.3698,-0.0006,-0.0608,5.3002,0.0011,-0.0901,7.7368,-0.0118,0.0868
17911,-106.7166,-2.3933,-0.0104,-0.1172,-89.3647,-0.0005,-0.0626,5.5279,0.001,-0.0699,8.6177,-0.0058,0.0752
17925,-106.7177,-2.2957,-0.0104,-0.1156,-89.3602,-0.0005,-0.0628,5.579,0.0008,-0.0116,2.8934,-0.0076,0.341
17941,-106.7177,-2.2957,-0.0104,-0.1156,-89.3602,-0.0005,-0.0628,5.579,0.0008,-0.0116,2.8934,-0.0076,0.341
17957,-106.7189,-2.1913,-0.0104,-0.1123,-89.3602,-0.0005,-0.0634,5.6367,0.0007,-0.0338,3.091,-0.0057,-0.2175
17975,-106.7206,-2.0459,-0.0104,-0.1071,-89.3507,-0.0004,-0.0645,5.7055,0.0006,-0.0418,2.6815,-0.0051,0.4702
17989,-106.7206,-2.0459,-0.0104,-0.1071,-89.3507,-0.0004,-0.0645,5.7055,0.0006,-0.0418,2.6815,-0.0051,0.4702
18005,-106.7223,-1.8941,-0.0105,-0.1043,-89.3516,-0.0004,-0.066,5.9059,0.0005,-0.059,7.7008,-0.0042,1.3852
18023,-106.7235,-1.7782,-0.0105,-0.1018,-89.3652,-0.0004,-0.0678,6.0057,0.0004,-0.0914,5.1134,-0.0027,-1.5669
18037,-106.7235,-1.7782,-0.0105,-0.1018,-89.3652,-0.0004,-0.0678,6.0057,0.0004,-0.0914,5.1134,-0.0027,-1.5669
18053,-106.7254,-1.6151,-0.0105,-0.0976,-89.3588,-0.0003,-0.0677,6.0446,0.0004,0.003,1.4375,-0.0027,0.1491
18071,-106.7271,-1.4525,-0.0105,-0.0969,-89.3685,-0.0004,-0.0696,6.2936,0.0003,-0.069,9.5147,-0.0027,0.7989
18085,-106.7283,-1.3417,-0.0105,-0.0968,-89.3763,-0.0005,-0.0711,6.4054,0.0003,-0.0887,6.4051,-0.0022,-1.1402
18101,-106.7283,-1.3417,-0.0105,-0.0968,-89.3763,-0.0005,-0.0711,6.4054,0.0003,-0.0887,6.4051,-0.0022,-1.1402
18119,-106.7301,-1.1763,-0.0105,-0.0966,-89.3708,-0.0005,-0.0718,6.5109,0.0002,-0.028,4.1293,-0.0016,0.2777
18140,-106.7314,-1.0572,-0.0105,-0.0973,-89.3838,-0.0005,-0.0724,6.6309,0.0002,-0.031,6.6798,-0.0009,-0.436
18149,-106.7314,-1.0572,-0.0105,-0.0973,-89.3838,-0.0005,-0.0724,6.6309,0.0002,-0.031,6.6798,-0.0009,-0.436
18167,-106.7339,-0.8237,-0.0104,-0.0986,-89.3848,-0.0005,-0.0745,6.8594,0.0002,-0.0624,6.6536,-0.0014,-0.3758
18181,-106.7339,-0.8237,-0.0104,-0.0986,-89.3848,-0.0005,-0.0745,6.8594,0.0002,-0.0624,6.6536,-0.0014,-0.3758
18202,-106.7359,-0.6396,-0.0104,-0.1004,-89.3824,-0.0005,-0.0772,7.0845,0.0001,-0.1017,8.5717,-0.001,-0.7295
18213,-106.7359,-0.6396,-0.0104,-0.1004,-89.3824,-0.0005,-0.0772,7.0845,0.0001,-0.1017,8.5717,-0.001,-0.7295
18231,-106.7386,-0.3953,-0.0104,-0.102,-89.3823,-0.0005,-0.0794,7.313,0.0001,-0.0661,6.7395,-0.0006,-0.5541
18247,-106.7402,-0.2472,-0.0104,-0.1036,-89.3829,-0.0005,-0.0807,7.4617,0.0001,-0.0646,7.4327,-0.0018,0.0176
18261,-106.7417,-0.1045,-0.0104,-0.1063,-89.3831,-0.0005,-0.0824,7.6238,0.0001,-0.0872,8.6246,0.0005,-0.005
18277,-106.7417,-0.1045,-0.0104,-0.1063,-89.3831,-0.0005,-0.0824,7.6238,0.0001,-0.0872,8.6246,0.0005,-0.005
18293,-106.7434,0.0489,-0.0104,-0.1089,-89.3833,-0.0004,-0.0839,7.7755,0.0,-0.0787,7.6572,-0.0016,-0.0333
18309,-106.7457,0.2599,-0.0103,-0.1114,-89.3832,-0.0004,-0.0861,7.9811,0.0,-0.0807,7.711,0.0,0.0274
18325,-106.7457,0.2599,-0.0103,-0.1114,-89.3832,-0.0004,-0.0861,7.9811,0.0,-0.0807,7.711,0.0,0.0274
18344,-106.7482,0.4967,-0.0103,-0.1108,-89.3834,-0.0004,-0.0873,8.0963,0.0,-0.0409,3.9251,-0.0005,-0.0072
18357,-106.7482,0.4967,-0.0103,-0.1108,-89.3834,-0.0004,-0.0873,8.0963,0.0,-0.0409,3.9251,-0.0005,-0.0072
18373,-106.7482,0.4967,-0.0103,-0.1108,-89.3834,-0.0004,-0.0873,8.0963,0.0,-0.0409,3.9251,-0.0005,-0.0072
18389,-106.7517,0.8242,-0.0104,-0.1046,-89.3831,-0.0003,-0.0886,8.2213,0.0,-0.0325,3.1279,-0.0002,0.0058
18405,-106.7542,1.0537,-0.0104,-0.1005,-89.383,-0.0003,-0.0904,8.3966,0.0,-0.068,6.3673,0.0001,0.0038
18421,-106.7542,1.0537,-0.0104,-0.1005,-89.383,-0.0003,-0.0904,8.3966,0.0,-0.068,6.3673,0.0001,0.0038
18439,-106.7566,1.2771,-0.0104,-0.0977,-89.3829,-0.0002,-0.0918,8.5245,0.0,-0.0521,4.8513,-0.0001,0.0028
18456,-106.7583,1.4328,-0.0104,-0.0973,-89.3829,-0.0002,-0.0931,8.6456,0.0,-0.0723,6.7151,-0.0005,0.0021
18469,-106.7601,1.6037,-0.0104,-0.0973,-89.3829,-0.0002,-0.0944,8.7666,0.0,-0.0669,6.1966,-0.0002,0.0014
18485,-106.7601,1.6037,-0.0104,-0.0973,-89.3829,-0.0002,-0.0944,8.7666,0.0,-0.0669,6.1966,-0.0002,0.0014
18507,-106.7626,1.833,-0.0104,-0.0975,-89.3828,-0.0002,-0.0964,8.9471,0.0,-0.0754,6.9951,-0.0003,0.0011
18517,-106.7626,1.833,-0.0104,-0.0975,-89.3828,-0.0002,-0.0964,8.9471,0.0,-0.0754,6.9951,-0.0003,0.0011
18533,-106.7652,2.0759,-0.0104,-0.0978,-89.3828,-0.0001,-0.098,9.0977,-0.0,-0.0606,5.6077,-0.0002,0.0004
18552,-106.7671,2.2523,-0.0104,-0.0981,-89.3828,-0.0001,-0.0992,9.2107,0.0,-0.0636,5.8922,0.0003,0.0004
18567,-106.7691,2.4388,-0.0104,-0.0984,-89.3828,-0.0001,-0.1007,9.3461,-0.0,-0.0729,6.7527,-0.0004,0.0003
18581,-106.771,2.61,-0.0104,-0.0987,-89.3828,-0.0001,-0.1019,9.4578,0.0,-0.0665,6.1546,0.0008,0.0001
18597,-106.771,2.61,-0.0104,-0.0987,-89.3828,-0.0001,-0.1019,9.4578,0.0,-0.0665,6.1546,0.0008,0.0001
18616,-106.7738,2.8705,-0.0104,-0.0989,-89.3828,-0.0001,-0.1036,9.6151,0.0,-0.0622,5.7724,-0.0004,0.0002
18639,-106.7759,3.0628,-0.0104,-0.0988,-89.3828,-0.0001,-0.1048,9.7255,0.0,-0.0601,5.5705,0.0004,0.0002
18645,-106.7759,3.0628,-0.0104,-0.0988,-89.3828,-0.0001,-0.1048,9.7255,0.0,-0.0601,5.5705,0.0004,0.0002
18665,-106.7786,3.3168,-0.0104,-0.0982,-89.3828,-0.0001,-0.1063,9.8679,-0.0,-0.0593,5.5022,-0.0005,0.0
18677,-106.7813,3.5679,-0.0104,-0.0972,-89.3828,-0.0,-0.1077,9.9957,-0.0,-0.0546,5.0674,-0.0001,0.0001
18695,-106.7833,3.7545,-0.0104,-0.0962,-89.3828,-0.0,-0.1087,10.0887,-0.0,-0.054,5.0172,-0.0002,0.0001
18709,-106.7833,3.7545,-0.0104,-0.0962,-89.3828,-0.0,-0.1087,10.0887,-0.0,-0.054,5.0172,-0.0002,0.0001
18727,-106.7854,3.95,-0.0105,-0.0951,-89.3828,-0.0,-0.1097,10.1825,-0.0,-0.0525,4.8735,-0.0002,0.0001
18746,-106.7874,4.1299,-0.0105,-0.094,-89.3828,-0.0001,-0.1106,10.2664,-0.0,-0.0516,4.7794,-0.0001,0.0
18757,-106.7874,4.1299,-0.0105,-0.094,-89.3828,-0.0001,-0.1106,10.2664,-0.0,-0.0516,4.7794,-0.0001,0.0
18773,-106.7901,4.3882,-0.0105,-0.0923,-89.3828,-0.0001,-0.1119,10.3854,0.0,-0.0515,4.7684,0.0008,-0.0001
18789,-106.7922,4.5746,-0.0105,-0.091,-89.3828,-0.0001,-0.1128,10.467,0.0,-0.0492,4.5713,-0.0001,-0.0
18805,-106.7922,4.5746,-0.0105,-0.091,-89.3828,-0.0001,-0.1128,10.467,0.0,-0.0492,4.5713,-0.0001,-0.0
18821,-106.7961,4.9388,-0.0105,-0.0884,-89.3827,-0.0,-0.1144,10.6205,0.0,-0.0479,4.4521,0.0002,-0.0001
18839,-106.7983,5.1442,-0.0105,-0.087,-89.3827,-0.0,-0.1153,10.7042,0.0,-0.0469,4.3542,0.0,-0.0001
18855,-106.8004,5.3436,-0.0105,-0.0856,-89.3827,-0.0,-0.1162,10.7835,0.0,-0.0461,4.2775,-0.0004,-0.0001
18869,-106.8004,5.3436,-0.0105,-0.0856,-89.3827,-0.0,-0.1162,10.7835,0.0,-0.0461,4.2775,-0.0004,-0.0001
18885,-106.8034,5.6184,-0.0105,-0.0838,-89.3828,-0.0,-0.1173,10.8887,0.0,-0.0448,4.1574,0.0001,0.0001
18904,-106.8056,5.8256,-0.0106,-0.0824,-89.3828,0.0,-0.1181,10.9668,-0.0,-0.0444,4.1237,-0.0003,0.0001
18920,-106.8078,6.0298,-0.0106,-0.0811,-89.3828,0.0,-0.119,11.042,-0.0,-0.0437,4.0616,-0.0,0.0001
18936,-106.81,6.2285,-0.0106,-0.0798,-89.3828,-0.0,-0.1197,11.1138,0.0,-0.0434,4.0071,0.0002,0.0001
18951,-106.8121,6.4293,-0.0106,-0.0786,-89.3828,-0.0,-0.1205,11.1849,0.0,-0.0427,3.9531,0.0002,0.0002
18965,-106.8121,6.4293,-0.0106,-0.0786,-89.3828,-0.0,-0.1205,11.1849,0.0,-0.0427,3.9531,0.0002,0.0002
18981,-106.8146,6.6549,-0.0106,-0.0774,-89.3828,-0.0,-0.1213,11.2634,0.0,-0.042,3.9088,0.0001,-0.0
18999,-106.8177,6.9475,-0.0106,-0.0757,-89.3827,-0.0,-0.1224,11.3622,0.0,-0.0412,3.8289,-0.0,0.0
19015,-106.8202,7.1787,-0.0106,-0.0745,-89.3827,0.0,-0.1232,11.4386,0.0,-0.0406,3.766,0.0001,-0.0
19029,-106.8202,7.1787,-0.0106,-0.0745,-89.3827,0.0,-0.1232,11.4386,0.0,-0.0406,3.766,0.0001,-0.0
19045,-106.8236,7.4935,-0.0106,-0.0728,-89.3828,0.0,-0.1243,11.5399,-0.0,-0.0398,3.704,-0.0005,-0.0
19063,-106.8259,7.7048,-0.0106,-0.0718,-89.3828,0.0,-0.125,11.6063,-0.0,-0.0392,3.6445,0.0001,-0.0
19077,-106.8282,7.9171,-0.0106,-0.0707,-89.3828,0.0,-0.1257,11.6719,0.0,-0.0388,3.5985,0.0008,-0.0
19093,-106.8304,8.1261,-0.0106,-0.0698,-89.3828,0.0,-0.1264,11.7353,0.0,-0.0384,3.5539,0.0,0.0
19109,-106.8304,8.1261,-0.0106,-0.0698,-89.3828,0.0,-0.1264,11.7353,0.0,-0.0384,3.5539,0.0,0.0
19127,-106.8337,8.4319,-0.0107,-0.0684,-89.3828,0.0,-0.1274,11.826,0.0,-0.0378,3.501,-0.0003,-0.0
19143,-106.8362,8.661,-0.0107,-0.0674,-89.3828,0.0,-0.1281,11.8925,-0.0,-0.0372,3.448,-0.0003,-0.0
19157,-106.8385,8.8749,-0.0107,-0.0665,-89.3828,-0.0,-0.1288,11.9536,0.0,-0.0367,3.4043,0.0004,-0.0
19173,-106.8385,8.8749,-0.0107,-0.0665,-89.3828,-0.0,-0.1288,11.9536,0.0,-0.0367,3.4043,0.0004,-0.0
19189,-106.8408,9.0899,-0.0107,-0.0656,-89.3828,0.0,-0.1294,12.0138,0.0,-0.0362,3.3634,0.0001,-0.0
19205,-106.8433,9.32,-0.0107,-0.0647,-89.3827,0.0,-0.1301,12.0772,-0.0,-0.0358,3.3222,-0.0003,-0.0
19225,-106.8466,9.6299,-0.0107,-0.0636,-89.3827,0.0,-0.131,12.1608,-0.0,-0.0353,3.2723,-0.0004,-0.0
19237,-106.849,9.8556,-0.0107,-0.0627,-89.3827,0.0,-0.1317,12.2204,-0.0,-0.0347,3.225,0.0003,-0.0
19255,-106.8515,10.0803,-0.0107,-0.0619,-89.3828,0.0,-0.1323,12.2788,0.0,-0.0344,3.1854,0.0005,-0.0
19269,-106.8515,10.0803,-0.0107,-0.0619,-89.3828,0.0,-0.1323,12.2788,0.0,-0.0344,3.1854,0.0005,-0.0
19287,-106.8541,10.3249,-0.0107,-0.061,-89.3828,-0.0,-0.133,12.3412,-0.0,-0.0338,3.1458,-0.0006,-0.0
19303,-106.8566,10.5574,-0.0107,-0.0602,-89.3828,0.0,-0.1336,12.3995,0.0,-0.0335,3.1051,0.0008,-0.0
19317,-106.8566,10.5574,-0.0107,-0.0602,-89.3828,0.0,-0.1336,12.3995,0.0,-0.0335,3.1051,0.0008,-0.0
19335,-106.8603,10.9048,-0.0107,-0.0591,-89.3828,0.0,-0.1345,12.4848,0.0,-0.0329,3.0575,0.0,-0.0
19351,-106.8629,11.1403,-0.0107,-0.0584,-89.3828,-0.0,-0.1351,12.5414,0.0,-0.0324,3.0106,-0.0001,-0.0
19367,-106.8654,11.377,-0.0107,-0.0576,-89.3828,0.0,-0.1357,12.5973,0.0,-0.032,2.9733,-0.0002,-0.0
19383,-106.868,11.6102,-0.0107,-0.0569,-89.3828,0.0,-0.1363,12.651,0.0,-0.0313,2.9071,0.0002,-0.0
19397,-106.8706,11.857,-0.0107,-0.0561,-89.3828,0.0,-0.1369,12.7037,-0.0,-0.0292,2.712,-0.0014,-0.0
19413,-106.8706,11.857,-0.0107,-0.0561,-89.3828,0.0,-0.1369,12.7037,-0.0,-0.0292,2.712,-0.0014,-0.0
19429,-106.8734,12.1125,-0.0108,-0.0551,-89.3828,0.0,-0.1374,12.7535,-0.0,-0.0267,2.4817,0.0008,-0.0
19447,-106.876,12.3604,-0.0108,-0.0539,-89.3828,0.0,-0.1379,12.7984,0.0,-0.0249,2.3188,0.0007,-0.0
19464,-106.8789,12.6281,-0.0108,-0.0526,-89.3828,0.0,-0.1384,12.8427,0.0,-0.0229,2.1215,-0.0002,-0.0
19477,-106.8789,12.6281,-0.0108,-0.0526,-89.3828,0.0,-0.1384,12.8427,0.0,-0.0229,2.1215,-0.0002,-0.0
19493,-106.8817,12.8866,-0.0108,-0.0511,-89.3828,0.0,-0.1388,12.8818,0.0,-0.021,1.9466,0.0003,-0.0
19509,-106.8842,13.1221,-0.0108,-0.0495,-89.3828,0.0,-0.1391,12.9151,-0.0,-0.0197,1.8281,-0.0005,-0.0
19525,-106.8842,13.1221,-0.0108,-0.0495,-89.3828,0.0,-0.1391,12.9151,-0.0,-0.0197,1.8281,-0.0005,-0.0
19541,-106.8883,13.494,-0.0108,-0.0469,-89.3828,0.0,-0.1397,12.9634,-0.0,-0.0181,1.6801,-0.0001,-0.0
19557,-106.8909,13.7409,-0.0108,-0.0451,-89.3828,0.0,-0.14,12.9925,0.0,-0.0165,1.5291,0.0004,-0.0
19573,-106.8947,14.0917,-0.0108,-0.0426,-89.3827,-0.0,-0.1404,13.0299,-0.0,-0.015,1.3896,-0.0008,-0.0
19589,-106.8947,14.0917,-0.0108,-0.0426,-89.3827,-0.0,-0.1404,13.0299,-0.0,-0.015,1.3896,-0.0008,-0.0
19605,-106.8972,14.3288,-0.0109,-0.0409,-89.3827,0.0,-0.1406,13.053,0.0,-0.0137,1.2691,0.0009,-0.0
19637,-106.901,14.6761,-0.0109,-0.0384,-89.3827,-0.0,-0.141,13.0838,0.0,-0.0125,1.1586,0.0002,-0.0
19653,-106.9055,14.996,-0.0109,-0.036,-89.4294,0.0079,-0.2348,13.1014,0.0,-3.843,0.721,0.0013,-3.2154
19672,-106.9112,15.2501,-0.0109,-0.0336,-89.5596,0.0257,-0.3714,13.1007,0.0002,-7.042,-0.0338,0.0077,-7.9696
19687,-106.919,15.4979,-0.0109,-0.0306,-89.7938,0.0505,-0.5361,13.0872,0.0004,-8.7031,-0.7134,0.0131,-13.8908
19703,-106.9289,15.7376,-0.0109,-0.0271,-90.1399,0.079,-0.7138,13.0628,0.0007,-9.6834,-1.3342,0.0144,-20.5577
19717,-106.9426,15.9971,-0.011,-0.0223,-90.6706,0.1137,-0.9195,13.0241,0.0009,-10.3297,-1.9395,0.0116,-28.712
19733,-106.9426,15.9971,-0.011,-0.0223,-90.6706,0.1137,-0.9195,13.0241,0.0009,-10.3297,-1.9395,0.0116,-28.712
19749,-106.9577,16.2368,-0.011,-0.0173,-91.3135,0.1451,-1.1113,12.9797,0.0011,-10.3969,-2.4092,0.0105,-36.8875
19765,-106.9577,16.2368,-0.011,-0.0173,-91.3135,0.1451,-1.1113,12.9797,0.0011,-10.3969,-2.4092,0.0105,-36.8875
19781,-106.9886,16.6421,-0.011,-0.0077,-92.7662,0.1933,-1.4295,12.888,0.0012,-10.136,-2.9206,0.0036,-52.056
19799,-107.011,16.8937,-0.011,-0.0007,-93.938,0.221,-1.6176,12.8235,0.0013,-9.5767,-3.2839,0.001,-62.2244
19815,-107.0333,17.1231,-0.011,0.0056,-95.1895,0.241,-1.7748,12.7626,0.0012,-8.7282,-3.3784,-0.0033,-71.8892
19829,-107.0333,17.1231,-0.011,0.0056,-95.1895,0.241,-1.7748,12.7626,0.0012,-8.7282,-3.3784,-0.0033,-71.8892
19845,-107.0691,17.464,-0.0111,0.015,-97.4005,0.2621,-1.9831,12.6692,0.001,-7.7192,-3.4647,-0.0076,-87.0189
19863,-107.0957,17.7046,-0.0111,0.0213,-99.2328,0.2703,-2.106,12.6043,0.0008,-6.3969,-3.3733,-0.0099,-98.1099
19879,-107.1218,17.9338,-0.0111,0.0265,-101.1919,0.2723,-2.2003,12.5455,0.0006,-5.1104,-3.1924,-0.0123,-108.9283
19901,-107.1472,18.1551,-0.0112,0.0306,-103.2916,0.2687,-2.2685,12.4921,0.0003,-3.7983,-2.9694,-0.0131,-119.5879
19909,-107.1472,18.1551,-0.0112,0.0306,-103.2916,0.2687,-2.2685,12.4921,0.0003,-3.7983,-2.9694,-0.0131,-119.5879
19925,-107.1824,18.4658,-0.0112,0.0346,-106.5968,0.255,-2.3237,12.4241,-0.0,-2.1663,-2.6701,-0.0136,-134.8829
19944,-107.207,18.6893,-0.0112,0.0358,-109.25,0.2385,-2.3331,12.3807,-0.0002,-0.5078,-2.3486,-0.0122,-146.0847
19959,-107.2297,18.9056,-0.0112,0.0355,-112.0422,0.2181,-2.3146,12.3439,-0.0005,1.0191,-2.0303,-0.0139,-157.0214
19975,-107.2502,19.1141,-0.0112,0.0336,-114.9474,0.1946,-2.2703,12.3133,-0.0007,2.5151,-1.7392,-0.0119,-167.6347
19991,-107.2705,19.3424,-0.0112,0.0292,-118.3806,0.1631,-2.1774,12.2904,-0.0009,4.7678,-1.1769,-0.0116,-178.8034
20005,-107.286,19.5504,-0.0112,0.0219,-121.6967,0.1286,-2.0112,12.2917,-0.0011,9.2806,0.072,-0.01,-187.0645
20021,-107.286,19.5504,-0.0112,0.0219,-121.6967,0.1286,-2.0112,12.2917,-0.0011,9.2806,0.072,-0.01,-187.0645
20039,-107.3015,19.8496,-0.0111,0.005,-126.732,0.0671,-1.6596,12.3057,-0.0014,13.5111,0.5392,-0.0127,-196.4421
20060,-107.3063,20.0546,-0.011,-0.0112,-130.339,0.0179,-1.3582,12.3103,-0.0017,16.742,0.2585,-0.0155,-201.6161
20069,-107.3063,20.0546,-0.011,-0.0112,-130.339,0.0179,-1.3582,12.3103,-0.0017,16.742,0.2585,-0.0155,-201.6161
20085,-107.3042,20.3375,-0.0108,-0.0378,-135.5009,-0.0538,-0.876,12.2955,-0.0009,19.2072,-0.5899,0.0304,-207.422
20103,-107.2956,20.5407,-0.0107,-0.0599,-139.3377,-0.1086,-0.4916,12.2629,0.0,21.0454,-1.7842,0.054,-210.8901
20119,-107.2801,20.7487,-0.0105,-0.0841,-143.3728,-0.1648,-0.0716,12.2056,0.0008,22.1823,-3.029,0.0422,-213.8758
20135,-107.2579,20.9541,-0.0103,-0.1089,-147.4683,-0.2191,0.3655,12.1205,0.0014,23.0305,-4.4845,0.0297,-216.3958
20149,-107.2579,20.9541,-0.0103,-0.1089,-147.4683,-0.2191,0.3655,12.1205,0.0014,23.0305,-4.4845,0.0297,-216.3958
20167,-107.2183,21.2219,-0.01,-0.1407,-152.978,-0.2859,0.9621,11.9591,0.0019,23.6376,-6.3934,0.018,-219.2092
20183,-107.1782,21.4324,-0.0098,-0.1647,-157.4594,-0.3351,1.4469,11.7865,0.002,23.86,-8.4937,0.0074,-221.1991
20205,-107.1374,21.6088,-0.0096,-0.1854,-161.3413,-0.3782,1.8621,11.6098,0.0021,23.7918,-10.128,0.0053,-222.8984
20213,-107.1374,21.6088,-0.0096,-0.1854,-161.3413,-0.3782,1.8621,11.6098,0.0021,23.7918,-10.128,0.0053,-222.8984
20247,-107.0155,22.0219,-0.0091,-0.2313,-170.9666,-0.4714,2.8475,11.0633,0.002,22.6838,-13.841,-0.0033,-226.9649
20272,-106.9556,22.1868,-0.009,-0.2478,-175.0676,-0.5082,3.2109,10.7509,0.002,20.1747,-17.3488,-0.0002,-227.7526
20277,-106.9556,22.1868,-0.009,-0.2478,-175.0676,-0.5082,3.2109,10.7509,0.002,20.1747,-17.3488,-0.0002,-227.7526
20293,-106.8655,22.4086,-0.0088,-0.2653,179.0929,-0.5653,3.6001,10.1922,0.0021,15.2428,-21.8759,0.0028,-229.1466
20309,-106.796,22.563,-0.0087,-0.2744,174.7375,-0.6121,3.8204,9.7333,0.0021,11.6187,-24.212,0.0013,-229.9975
20327,-106.7278,22.7043,-0.0086,-0.2805,170.499,-0.6579,3.9761,9.2591,0.0022,8.4626,-25.7704,0.0022,-230.4579
20343,-106.6627,22.8319,-0.0085,-0.284,166.4286,-0.7018,4.0699,8.7854,0.0021,5.3113,-26.8275,-0.0031,-230.526
20357,-106.6627,22.8319,-0.0085,-0.284,166.4286,-0.7018,4.0699,8.7854,0.0021,5.3113,-26.8275,-0.0031,-230.526
20373,-106.5692,23.0091,-0.0085,-0.2817,160.3939,-0.7646,3.939,8.1528,0.002,-4.9567,-23.9646,-0.0034,-225.1158
20389,-106.5136,23.1265,-0.0087,-0.2668,156.4486,-0.7901,3.5861,7.8874,-0.0027,-19.4296,-14.6119,-0.2614,-214.5883
20405,-106.5136,23.1265,-0.0087,-0.2668,156.4486,-0.7901,3.5861,7.8874,-0.0027,-19.4296,-14.6119,-0.2614,-214.5883
20421,-106.4362,23.3254,-0.009,-0.2244,149.948,-0.8301,2.8858,7.455,-0.0005,-22.0846,-13.6358,0.0713,-200.2403
20440,-106.4054,23.4296,-0.0091,-0.1942,146.5765,-0.8572,2.4863,7.2338,0.0034,-23.2486,-12.8707,0.2237,-195.0267
20453,-106.4054,23.4296,-0.0091,-0.1942,146.5765,-0.8572,2.4863,7.2338,0.0034,-23.2486,-12.8707,0.2237,-195.0267
20469,-106.3696,23.6111,-0.0094,-0.1425,140.7563,-0.8981,1.741,6.9621,0.0022,-24.3563,-8.8784,-0.0383,-186.6421
20485,-106.3607,23.7173,-0.0096,-0.1101,137.5245,-0.9128,1.2809,6.9215,0.0018,-25.7249,-2.27,-0.0262,-178.5541
20503,-106.3601,23.8263,-0.0099,-0.0763,134.4389,-0.9175,0.8202,6.9548,0.0012,-25.6009,1.8506,-0.0298,-169.0164
20519,-106.3667,23.9323,-0.0101,-0.0438,131.6864,-0.9132,0.3958,7.0413,0.0007,-24.9331,5.0797,-0.0277,-159.2628
20533,-106.3667,23.9323,-0.0101,-0.0438,131.6864,-0.9132,0.3958,7.0413,0.0007,-24.9331,5.0797,-0.0277,-159.2628
20549,-106.3865,24.0853,-0.0104,0.0006,128.1444,-0.8972,-0.164,7.2109,0.0002,-23.6786,7.1756,-0.0244,-144.9284
20565,-106.4088,24.2041,-0.0106,0.033,125.7417,-0.879,-0.5485,7.3615,-0.0002,-21.8371,8.5484,-0.0188,-133.6041
20583,-106.4376,24.3321,-0.0109,0.0645,123.4586,-0.8546,-0.8993,7.5422,-0.0005,-19.1881,9.8858,-0.0168,-122.0473
20599,-106.4737,24.4759,-0.0111,0.095,121.2083,-0.8184,-1.1861,7.7577,-0.0008,-14.522,10.9153,-0.0169,-111.5196
20620,-106.5079,24.6069,-0.0113,0.117,119.3523,-0.7759,-1.3222,7.9536,-0.0011,-7.8311,11.2644,-0.0197,-105.3516
20629,-106.5079,24.6069,-0.0113,0.117,119.3523,-0.7759,-1.3222,7.9536,-0.0011,-7.8311,11.2644,-0.0197,-105.3516
20645,-106.5591,24.8056,-0.0115,0.1414,116.7738,-0.6934,-1.382,8.2249,-0.0016,-2.35,10.6679,-0.0178,-99.7728
20663,-106.5996,24.9701,-0.0117,0.1546,114.7732,-0.617,-1.3331,8.4253,-0.002,2.3994,9.8255,-0.0196,-97.4816
20677,-106.5996,24.9701,-0.0117,0.1546,114.7732,-0.617,-1.3331,8.4253,-0.002,2.3994,9.8255,-0.0196,-97.4816
20693,-106.6522,25.2062,-0.0118,0.1661,112.0444,-0.4897,-1.1753,8.6777,-0.0026,5.5718,8.9128,-0.0207,-95.9411
20711,-106.685,25.3727,-0.0119,0.1699,110.1853,-0.4014,-1.0206,8.8336,-0.0029,7.9565,8.0175,-0.0182,-95.5354
20728,-106.7129,25.532,-0.012,0.1711,108.4402,-0.3216,-0.8489,8.9677,-0.0032,9.3931,7.3368,-0.013,-95.4484
20759,-106.7378,25.6967,-0.0121,0.1704,106.6648,-0.2424,-0.6535,9.0921,-0.0033,10.5102,6.6959,-0.008,-95.5577
20773,-106.7627,25.8937,-0.0121,0.1678,104.5687,-0.1579,-0.4009,9.2224,-0.0033,11.5439,5.9528,-0.0007,-95.8825
20791,-106.7803,26.0667,-0.0122,0.1648,102.7899,-0.089,-0.2501,9.3469,-0.0034,7.9783,6.5879,-0.0033,-93.3697
20811,-106.7963,26.2487,-0.0122,0.1622,101.0585,-0.0378,-0.196,9.477,-0.0033,2.774,6.6598,0.0048,-86.8966
20821,-106.7963,26.2487,-0.0122,0.1622,101.0585,-0.0378,-0.196,9.477,-0.0033,2.774,6.6598,0.0048,-86.8966
20837,-106.7963,26.2487,-0.0122,0.1622,101.0585,-0.0378,-0.196,9.477,-0.0033,2.774,6.6598,0.0048,-86.8966
20853,-106.8298,26.6525,-0.0123,0.155,97.9485,-0.004,-0.353,9.6919,-0.0023,-3.7043,5.0705,0.0244,-63.0906
20871,-106.8473,26.8515,-0.0123,0.1493,96.8362,-0.0156,-0.5117,9.7486,-0.0015,-7.7191,2.7571,0.0378,-49.4656
20887,-106.8665,27.057,-0.0122,0.1417,95.9707,-0.0357,-0.6452,9.7969,-0.0007,-6.3317,2.2917,0.0381,-37.1429
20901,-106.8665,27.057,-0.0122,0.1417,95.9707,-0.0357,-0.6452,9.7969,-0.0007,-6.3317,2.2917,0.0381,-37.1429
20917,-106.886,27.2618,-0.0122,0.1331,95.3315,-0.053,-0.7267,9.8423,-0.0001,-3.8993,2.1726,0.0286,-27.5757
20935,-106.9044,27.4587,-0.0121,0.1241,94.8903,-0.0641,-0.77,9.8824,0.0002,-2.1691,2.0056,0.0154,-20.4183
20951,-106.9224,27.6547,-0.012,0.1153,94.5675,-0.0681,-0.7877,9.9187,0.0004,-0.8939,1.8353,0.0077,-15.0708
20965,-106.9402,27.8559,-0.012,0.1072,94.3181,-0.067,-0.7881,9.9528,0.0004,-0.0205,1.6802,-0.0002,-11.0542
20981,-106.9402,27.8559,-0.012,0.1072,94.3181,-0.067,-0.7881,9.9528,0.0004,-0.0205,1.6802,-0.0002,-11.0542
20997,-106.9566,28.05,-0.0119,0.0992,94.1467,-0.0619,-0.7798,9.9821,0.0003,0.4273,1.5073,-0.0021,-8.1115
21015,-106.9727,28.2474,-0.0118,0.0914,94.0196,-0.0547,-0.7668,10.009,0.0002,0.6616,1.3635,-0.0054,-5.865
21029,-106.9937,28.5158,-0.0118,0.0819,93.8971,-0.0441,-0.7466,10.0393,0.0001,0.7546,1.1292,-0.0051,-4.147
21045,-106.9937,28.5158,-0.0118,0.0819,93.8971,-0.0441,-0.7466,10.0393,0.0001,0.7546,1.1292,-0.0051,-4.147
21061,-107.0092,28.7218,-0.0117,0.0754,93.8337,-0.0365,-0.7316,10.0618,-0.0,0.7297,1.1015,-0.004,-2.6617
21077,-107.029,28.9944,-0.0117,0.067,93.773,-0.0266,-0.714,10.0864,-0.0001,0.6494,0.908,-0.0019,-2.2977
21093,-107.029,28.9944,-0.0117,0.067,93.773,-0.0266,-0.714,10.0864,-0.0001,0.6494,0.908,-0.0019,-2.2977
21109,-107.0435,29.199,-0.0116,0.0615,93.745,-0.0207,-0.7029,10.1036,-0.0001,0.5485,0.8471,-0.0015,-1.0937
21127,-107.0579,29.4067,-0.0116,0.0564,93.7221,-0.0155,-0.6934,10.1205,-0.0001,0.4618,0.8246,-0.0001,-1.0999
21144,-107.0722,29.6162,-0.0115,0.0516,93.7072,-0.0111,-0.6855,10.1364,-0.0001,0.3831,0.7661,-0.0001,-0.5582
21157,-107.0722,29.6162,-0.0115,0.0516,93.7072,-0.0111,-0.6855,10.1364,-0.0001,0.3831,0.7661,-0.0001,-0.5582
21173,-107.086,29.8206,-0.0115,0.0474,93.6956,-0.0077,-0.6793,10.1507,-0.0001,0.309,0.7111,0.0011,-0.5694
21197,-107.1041,30.0927,-0.0115,0.0421,93.6876,-0.004,-0.6729,10.1687,-0.0001,0.2398,0.6741,0.0005,-0.0474
21205,-107.1041,30.0927,-0.0115,0.0421,93.6876,-0.004,-0.6729,10.1687,-0.0001,0.2398,0.6741,0.0005,-0.0474
21223,-107.1221,30.3645,-0.0114,0.0375,93.6765,-0.0014,-0.6684,10.1841,-0.0,0.1683,0.5745,0.0008,-0.8948
21240,-107.1353,30.5659,-0.0114,0.0343,93.6692,-0.0001,-0.6659,10.1922,-0.0,0.1237,0.4123,0.0005,-1.6086
21253,-107.1353,30.5659,-0.0114,0.0343,93.6692,-0.0001,-0.6659,10.1922,-0.0,0.1237,0.4123,0.0005,-1.6086
21269,-107.1496,30.7874,-0.0112,0.0233,93.6733,0.0106,-0.6644,10.2027,-0.0014,0.0678,0.4842,-0.0647,0.5142
21288,-107.1647,31.0188,-0.0113,0.0238,93.6674,0.0064,-0.6623,10.2166,-0.0011,0.0946,0.6123,0.0154,-0.6111
21303,-107.1782,31.2273,-0.0113,0.0234,93.6689,0.0046,-0.6611,10.2286,-0.0008,0.0602,0.5874,0.0136,0.2472
21317,-107.1909,31.425,-0.0113,0.0227,93.6708,0.0036,-0.6603,10.2389,-0.0006,0.0416,0.535,0.0091,0.7074
21333,-107.1909,31.425,-0.0113,0.0227,93.6708,0.0036,-0.6603,10.2389,-0.0006,0.0416,0.535,0.0091,0.7074
21349,-107.2045,31.6349,-0.0113,0.0217,93.6671,0.0031,-0.66,10.25,-0.0004,0.0116,0.5406,0.0096,-0.3745
21367,-107.2192,31.8638,-0.0113,0.0206,93.6693,0.0028,-0.66,10.2624,-0.0003,0.0021,0.5551,0.0059,0.3376
21383,-107.2325,32.0697,-0.0113,0.0196,93.6674,0.0026,-0.6602,10.2734,-0.0002,-0.0097,0.5498,0.005,-0.2022
21397,-107.2325,32.0697,-0.0113,0.0196,93.6674,0.0026,-0.6602,10.2734,-0.0002,-0.0097,0.5498,0.005,-0.2022
21413,-107.2455,32.2713,-0.0113,0.0186,93.6652,0.0024,-0.6605,10.2836,-0.0002,-0.0149,0.517,0.0025,-0.5415
21431,-107.2638,32.5582,-0.0113,0.0172,93.6746,0.0021,-0.6607,10.2943,-0.0001,-0.007,0.3837,0.0024,1.2941
21445,-107.2638,32.5582,-0.0113,0.0172,93.6746,0.0021,-0.6607,10.2943,-0.0001,-0.007,0.3837,0.0024,1.2941
21461,-107.2772,32.7664,-0.0113,0.0162,93.6703,0.002,-0.6613,10.3046,-0.0,-0.0322,0.51,0.0026,-0.399
21477,-107.2962,33.0631,-0.0113,0.015,93.6793,0.0017,-0.6621,10.3173,-0.0,-0.026,0.4444,0.001,1.2407
21493,-107.2962,33.0631,-0.0113,0.015,93.6793,0.0017,-0.6621,10.3173,-0.0,-0.026,0.4444,0.001,1.2407
21509,-107.3183,33.4071,-0.0113,0.0137,93.6789,0.0014,-0.663,10.3295,0.0,-0.0272,0.3647,0.0004,1.1179
21525,-107.3183,33.4071,-0.0113,0.0137,93.6789,0.0014,-0.663,10.3295,0.0,-0.0272,0.3647,0.0004,1.1179
21552,-107.3326,33.6291,-0.0113,0.013,93.674,0.0013,-0.6639,10.3409,0.0,-0.0423,0.5316,0.0005,-0.5223
21561,-107.3326,33.6291,-0.0113,0.013,93.674,0.0013,-0.6639,10.3409,0.0,-0.0423,0.5316,0.0005,-0.5223
21577,-107.3583,34.0295,-0.0112,0.0119,93.6679,0.001,-0.665,10.3542,0.0,-0.03,0.3438,0.0002,-1.7645
21595,-107.3723,34.2485,-0.0112,0.0114,93.6736,0.0008,-0.6656,10.3656,0.0,-0.0268,0.5405,-0.0001,0.528
21609,-107.3723,34.2485,-0.0112,0.0114,93.6736,0.0008,-0.6656,10.3656,0.0,-0.0268,0.5405,-0.0001,0.528
21627,-107.3914,34.5441,-0.0112,0.0109,93.6635,0.0007,-0.6663,10.3784,0.0,-0.0247,0.4488,0.0001,-1.3667
21641,-107.4052,34.7603,-0.0112,0.0105,93.6682,0.0007,-0.6667,10.3893,0.0,-0.0181,0.5228,-0.0001,0.455
21657,-107.4052,34.7603,-0.0112,0.0105,93.6682,0.0007,-0.6667,10.3893,0.0,-0.0181,0.5228,-0.0001,0.455
21673,-107.4052,34.7603,-0.0112,0.0105,93.6682,0.0007,-0.6667,10.3893,0.0,-0.0181,0.5228,-0.0001,0.455
21691,-107.4352,35.2267,-0.0112,0.01,93.6597,0.0007,-0.6675,10.4088,0.0,-0.0187,0.4354,-0.0001,-1.2963
21705,-107.4352,35.2267,-0.0112,0.01,93.6597,0.0007,-0.6675,10.4088,0.0,-0.0187,0.4354,-0.0001,-1.2963
21721,-107.4493,35.4459,-0.0112,0.0098,93.6644,0.0006,-0.6679,10.4199,0.0,-0.0186,0.5276,-0.0004,0.4697
21737,-107.4493,35.4459,-0.0112,0.0098,93.6644,0.0006,-0.6679,10.4199,0.0,-0.0186,0.5276,-0.0004,0.4697
21755,-107.4777,35.8886,-0.0112,0.0095,93.658,0.0006,-0.6688,10.44,0.0,-0.0214,0.4725,0.0002,-0.9397
21769,-107.4777,35.8886,-0.0112,0.0095,93.658,0.0006,-0.6688,10.44,0.0,-0.0214,0.4725,0.0002,-0.9397
21790,-107.4986,36.2156,-0.0112,0.0093,93.6587,0.0006,-0.6695,10.4545,0.0,-0.0218,0.4646,-0.0003,-0.707
21801,-107.4986,36.2156,-0.0112,0.0093,93.6587,0.0006,-0.6695,10.4545,0.0,-0.0218,0.4646,-0.0003,-0.707
21819,-107.5234,36.6029,-0.0112,0.009,93.6551,0.0005,-0.6702,10.4669,0.0,-0.0191,0.3331,0.0001,-1.5294
21833,-107.5234,36.6029,-0.0112,0.009,93.6551,0.0005,-0.6702,10.4669,0.0,-0.0191,0.3331,0.0001,-1.5294
21849,-107.5234,36.6029,-0.0112,0.009,93.6551,0.0005,-0.6702,10.4669,0.0,-0.0191,0.3331,0.0001,-1.5294
21865,-107.5234,36.6029,-0.0112,0.009,93.6551,0.0005,-0.6702,10.4669,0.0,-0.0191,0.3331,0.0001,-1.5294
21881,-107.5584,37.1497,-0.0112,0.0084,93.6558,0.0004,-0.6712,10.4848,-0.0,-0.0187,0.3447,-0.0003,-1.3178
21908,-107.5747,37.4054,-0.0112,0.0082,93.6645,0.0004,-0.6717,10.496,0.0,-0.0221,0.4596,0.0006,0.9678
21913,-107.5747,37.4054,-0.0112,0.0082,93.6645,0.0004,-0.6717,10.496,0.0,-0.0221,0.4596,0.0006,0.9678
21929,-107.5986,37.779,-0.0112,0.008,93.666,0.0003,-0.6725,10.5099,0.0,-0.0203,0.3893,-0.0003,1.3526
