timestamp,x,y,z,pitch,yaw,roll,vx,vy,vz,ax,ay,az,yaw_rate
18649,-106.6867,-4.8475,0.5059,0.0,-89.3578,0.0,0.0,0.0,-1.2984,0.0,0.0,-9.8,0.0
18665,-106.6867,-4.8475,0.5059,0.0,-89.3578,0.0,0.0,0.0,-1.2984,0.0,0.0,-9.8,0.0
18682,-106.6867,-4.8475,0.4552,0.0,-89.3578,0.0,0.0,0.0,-1.6285,0.0,0.0,-9.8,0.0
18698,-106.6867,-4.8475,0.4211,0.0,-89.3578,0.0,0.0,0.0,-1.8173,0.0,0.0,-9.8,0.0
18713,-106.6867,-4.8475,0.3859,0.0,-89.3578,0.0,0.0,0.0,-1.9945,0.0,0.0,-9.8,0.0
18730,-106.6867,-4.8475,0.3859,0.0,-89.3578,0.0,0.0,0.0,-1.9945,0.0,0.0,-9.8,0.0
18745,-106.6867,-4.8475,0.3477,0.0,-89.3578,0.0,0.0,0.0,-2.1703,0.0,0.0,-9.8,0.0
18761,-106.6867,-4.8475,0.3078,0.0,-89.3578,0.0,0.0,0.0,-2.3405,0.0,0.0,-9.8,0.0
18779,-106.6867,-4.8475,0.2646,0.0,-89.3578,0.0,0.0,0.0,-2.5121,0.0,0.0,-9.8,0.0
18793,-106.6867,-4.8475,0.217,0.0,-89.3578,0.0,0.0,0.0,-2.6883,0.0,0.0,-9.8,0.0
18811,-106.6867,-4.8475,0.1657,0.0,-89.3578,0.0,0.0,0.0,-2.8665,0.0,0.0,-9.8,0.0
18827,-106.6867,-4.8475,0.1057,0.0,-89.3578,0.0,0.0,0.0,-3.0627,0.0,0.0,-9.8,0.0
18841,-106.6867,-4.8462,0.0512,-0.0024,-89.3578,0.0,-0.0016,0.1457,-3.1553,-0.0943,8.4154,-5.3504,0.0
18857,-106.6867,-4.8462,0.0512,-0.0024,-89.3578,0.0,-0.0016,0.1457,-3.1553,-0.0943,8.4154,-5.3504,0.0
18873,-106.6868,-4.8451,0.0041,-0.0032,-89.3469,0.0,-0.0014,0.1249,-2.2757,0.0111,-1.1,46.3612,1.1431
18889,-106.6868,-4.8437,-0.0284,-0.0042,-89.3475,0.0,-0.0003,0.1245,-1.6216,0.0591,-0.0198,35.6037,1.2891
18906,-106.6868,-4.8425,-0.0515,-0.0044,-89.3475,-0.0,-0.0001,0.1134,-1.1111,0.013,-0.5887,27.1874,1.3371
18923,-106.6869,-4.8413,-0.0663,-0.0046,-89.3437,0.0,-0.0019,0.1298,-0.7348,-0.1034,0.9146,21.0179,1.6456
18939,-106.6868,-4.8387,-0.075,-0.0067,-89.3553,-0.0001,0.0,0.21,-0.4646,0.1188,4.816,16.2288,0.2678
18955,-106.6868,-4.8338,-0.0801,-0.0115,-89.3636,-0.0002,-0.0016,0.3105,-0.2579,-0.0956,6.0063,12.3511,0.653
18971,-106.6871,-4.8276,-0.0824,-0.0164,-89.3342,-0.0002,-0.0027,0.3927,-0.1009,-0.07,4.8966,9.3606,1.1645
18986,-106.6871,-4.8198,-0.0825,-0.0215,-89.3378,-0.0001,-0.0057,0.4903,0.0169,-0.1737,5.7636,6.9548,1.2961
19001,-106.6872,-4.8095,-0.081,-0.0279,-89.3419,-0.0003,-0.0052,0.6212,0.1057,0.0288,7.3699,4.9958,-1.3012
19017,-106.6871,-4.7961,-0.0779,-0.0349,-89.3653,-0.0003,-0.0069,0.7173,0.1702,-0.089,5.058,3.3993,-1.7384
19033,-106.6871,-4.7961,-0.0779,-0.0349,-89.3653,-0.0003,-0.0069,0.7173,0.1702,-0.089,5.058,3.3993,-1.7384
19049,-106.6873,-4.7803,-0.074,-0.0417,-89.3618,-0.0002,-0.0099,0.8426,0.2115,-0.1602,6.5121,2.1448,0.0054
19065,-106.6875,-4.764,-0.0698,-0.0464,-89.3634,0.0,-0.0111,0.9159,0.2338,-0.0613,4.0157,1.2211,-1.1337
19082,-106.6877,-4.7462,-0.0655,-0.0511,-89.3621,-0.0001,-0.0102,1.0208,0.2438,0.0486,5.9326,0.5649,0.6193
19099,-106.6875,-4.729,-0.061,-0.054,-89.4033,-0.0005,-0.0044,1.0202,0.2713,0.3578,-0.0347,1.6955,0.1451
19115,-106.6877,-4.7094,-0.0566,-0.0582,-89.4017,-0.0008,-0.008,1.1445,0.2608,-0.2214,7.5201,-0.6347,0.0941
19130,-106.6879,-4.6891,-0.0523,-0.0591,-89.4006,-0.0007,-0.0092,1.1407,0.2476,-0.0668,-0.2202,-0.7737,0.0615
19147,-106.688,-4.6689,-0.0483,-0.0577,-89.3998,-0.0006,-0.0099,1.1364,0.231,-0.0416,-0.2512,-0.9661,0.0424
19163,-106.6882,-4.6492,-0.0446,-0.055,-89.3994,-0.0005,-0.0104,1.1319,0.2136,-0.0282,-0.2682,-1.0366,0.0289
19177,-106.6884,-4.6288,-0.0412,-0.0515,-89.399,-0.0003,-0.0107,1.1286,0.1972,-0.0207,-0.1898,-0.9432,0.0176
19194,-106.6886,-4.6089,-0.038,-0.0476,-89.3988,-0.0002,-0.011,1.124,0.1796,-0.0146,-0.2686,-1.0263,0.0124
19209,-106.6888,-4.5884,-0.0351,-0.0435,-89.3986,-0.0001,-0.0112,1.1205,0.1638,-0.0104,-0.1964,-0.8974,0.0108
19225,-106.6888,-4.5884,-0.0351,-0.0435,-89.3986,-0.0001,-0.0112,1.1205,0.1638,-0.0104,-0.1964,-0.8974,0.0108
19241,-106.689,-4.5678,-0.0324,-0.0394,-89.3984,-0.0,-0.0113,1.1164,0.1478,-0.0068,-0.2356,-0.8977,0.0095
19257,-106.6893,-4.5461,-0.0299,-0.0353,-89.3983,0.0,-0.0114,1.1128,0.1331,-0.0046,-0.1891,-0.7858,0.0066
19273,-106.6895,-4.5261,-0.0278,-0.0316,-89.3983,0.0001,-0.0114,1.107,0.1179,-0.0012,-0.3369,-0.8761,0.0019
19291,-106.6898,-4.504,-0.0258,-0.029,-89.3794,0.0001,-0.0115,1.1016,0.106,-0.0077,-0.285,-0.6357,-0.2373
19307,-106.6898,-4.4813,-0.024,-0.0275,-89.4226,0.0001,-0.0133,1.1714,0.0937,-0.0951,3.7462,-0.6584,-2.1567
19323,-106.6899,-4.4579,-0.0224,-0.0265,-89.4319,0.0001,-0.0121,1.1651,0.0828,0.0654,-0.334,-0.5828,-1.667
19337,-106.6897,-4.4354,-0.0211,-0.0259,-89.4909,-0.0002,-0.0119,1.2308,0.0729,0.0086,3.7169,-0.563,-3.1077
19353,-106.6897,-4.4354,-0.0211,-0.0259,-89.4909,-0.0002,-0.0119,1.2308,0.0729,0.0086,3.7169,-0.563,-3.1077
19369,-106.69,-4.4096,-0.0198,-0.0272,-89.491,0.0002,-0.0164,1.3072,0.0649,-0.233,4.0154,-0.4183,-0.0637
19385,-106.69,-4.3826,-0.0187,-0.0319,-89.5211,-0.0004,-0.0072,1.5515,0.0568,0.5128,13.6847,-0.4554,-1.1324
19403,-106.69,-4.3538,-0.0178,-0.0382,-89.5535,-0.0008,-0.0124,1.6269,0.0502,-0.3026,4.3885,-0.3815,-1.7645
19417,-106.6902,-4.3238,-0.017,-0.0434,-89.5539,-0.0009,-0.0126,1.7264,0.0447,-0.0088,5.829,-0.3241,-0.6319
19435,-106.6902,-4.2882,-0.0161,-0.047,-89.5835,-0.0011,-0.0113,1.7165,0.04,0.0634,-0.5048,-0.2418,-0.1721
19449,-106.6908,-4.255,-0.0155,-0.0483,-89.5421,-0.0009,-0.0133,1.794,0.0346,-0.1089,4.2784,-0.2961,2.3525
19467,-106.6912,-4.2203,-0.0149,-0.0512,-89.5086,-0.0009,-0.0136,1.9208,0.0304,-0.0193,7.1915,-0.237,1.8456
19481,-106.6915,-4.1858,-0.0144,-0.0525,-89.5046,-0.0008,-0.0135,1.9593,0.0269,0.0049,2.2299,-0.2052,0.1823
19497,-106.6921,-4.1498,-0.014,-0.0554,-89.4699,-0.0002,-0.0224,2.1334,0.0238,-0.5227,10.2745,-0.1811,1.8049
19513,-106.6921,-4.1498,-0.014,-0.0554,-89.4699,-0.0002,-0.0224,2.1334,0.0238,-0.5227,10.2745,-0.1811,1.8049
19529,-106.6926,-4.1102,-0.0136,-0.0579,-89.465,0.0004,-0.0224,2.1264,0.0212,-0.002,-0.392,-0.1471,1.3556
19545,-106.6932,-4.0661,-0.0132,-0.0616,-89.4446,0.0009,-0.0252,2.3096,0.0186,-0.1461,9.735,-0.1338,0.966
19563,-106.6936,-4.0203,-0.0128,-0.0631,-89.4546,0.0009,-0.0239,2.3427,0.0163,0.0693,1.7289,-0.1242,-0.4383
19579,-106.6943,-3.972,-0.0125,-0.068,-89.422,0.0012,-0.0309,2.6378,0.0141,-0.375,15.7543,-0.1145,1.4837
19594,-106.695,-3.9254,-0.0123,-0.0753,-89.403,0.0015,-0.0333,2.8142,0.0123,-0.145,10.695,-0.1114,1.107
19610,-106.6957,-3.8744,-0.012,-0.0789,-89.3904,0.0016,-0.032,2.8116,0.011,0.0723,-0.1497,-0.0733,0.6526
19627,-106.6964,-3.8198,-0.0118,-0.0829,-89.382,0.0015,-0.0334,2.9781,0.0097,-0.0794,9.1755,-0.0725,0.3569
19641,-106.6964,-3.8198,-0.0118,-0.0829,-89.382,0.0015,-0.0334,2.9781,0.0097,-0.0794,9.1755,-0.0725,0.3569
19657,-106.697,-3.7652,-0.0117,-0.0835,-89.3777,0.0014,-0.0332,2.9974,0.0085,0.0114,1.0729,-0.0668,0.2947
19673,-106.6977,-3.7093,-0.0115,-0.0861,-89.3733,0.0012,-0.0355,3.1948,0.0074,-0.1319,11.3319,-0.0597,0.2203
19689,-106.6984,-3.6472,-0.0114,-0.0864,-89.3688,0.0011,-0.0355,3.2115,0.0066,0.0022,0.8752,-0.0454,0.2284
19707,-106.6991,-3.5852,-0.0113,-0.0887,-89.3662,0.001,-0.038,3.4211,0.0057,-0.1383,11.6151,-0.0486,0.1372
19723,-106.6998,-3.5207,-0.0112,-0.0887,-89.3664,0.0009,-0.0381,3.4407,0.005,-0.005,1.0585,-0.0379,-0.0191
19737,-106.7005,-3.4561,-0.0111,-0.0909,-89.3655,0.0009,-0.0405,3.6572,0.0043,-0.14,12.2667,-0.0363,0.0566
19755,-106.7012,-3.3917,-0.011,-0.0918,-89.3639,0.0008,-0.0412,3.7094,0.0038,-0.0361,3.0279,-0.0299,0.081
19769,-106.702,-3.3245,-0.0109,-0.0944,-89.364,0.0008,-0.0433,3.9073,0.0034,-0.1251,11.5169,-0.0255,0.0108
19785,-106.7028,-3.2542,-0.0108,-0.0958,-89.3612,0.0007,-0.0442,3.972,0.003,-0.0508,3.6893,-0.023,0.1317
19801,-106.7028,-3.2542,-0.0108,-0.0958,-89.3612,0.0007,-0.0442,3.972,0.003,-0.0508,3.6893,-0.023,0.1317
19817,-106.7036,-3.1789,-0.0108,-0.0978,-89.3661,0.0006,-0.0456,4.1361,0.0026,-0.0789,9.0441,-0.0186,-0.2171
19833,-106.7046,-3.0997,-0.0107,-0.0981,-89.3489,0.0007,-0.0473,4.1993,0.0023,-0.0877,3.3757,-0.0178,0.8124
19849,-106.7054,-3.0184,-0.0107,-0.0969,-89.3627,0.0006,-0.0477,4.2524,0.002,-0.0237,2.8127,-0.0162,0.1843
19866,-106.7064,-2.9368,-0.0107,-0.0972,-89.3471,0.0007,-0.051,4.4457,0.0017,-0.178,10.532,-0.0144,0.6781
19883,-106.7072,-2.8613,-0.0106,-0.0978,-89.3581,0.0006,-0.0512,4.5498,0.0015,-0.0113,6.2863,-0.0131,-0.3528
19899,-106.7084,-2.7749,-0.0106,-0.0977,-89.3352,0.0006,-0.0525,4.6202,0.0014,-0.0715,3.7934,-0.0086,0.5642
19913,-106.7092,-2.6862,-0.0106,-0.0968,-89.3595,0.0005,-0.053,4.7159,0.0012,-0.0256,5.1189,-0.0095,-0.8529
19929,-106.7092,-2.6862,-0.0106,-0.0968,-89.3595,0.0005,-0.053,4.7159,0.0012,-0.0256,5.1189,-0.0095,-0.8529
19945,-106.7103,-2.5997,-0.0106,-0.0959,-89.3444,0.0005,-0.0546,4.8168,0.001,-0.0905,5.6442,-0.0088,0.2311
19961,-106.7111,-2.5112,-0.0106,-0.0954,-89.3678,0.0003,-0.0547,4.9261,0.0009,-0.0044,6.1031,-0.007,-0.7755
19977,-106.7122,-2.4221,-0.0106,-0.0951,-89.3548,0.0003,-0.0565,5.034,0.0008,-0.1033,6.1123,-0.0064,0.0815
19994,-106.7131,-2.3266,-0.0105,-0.0951,-89.3781,0.0001,-0.0564,5.1413,0.0007,0.0038,5.7985,-0.0051,-0.6017
20011,-106.7142,-2.2345,-0.0105,-0.0952,-89.3655,0.0001,-0.0585,5.2607,0.0006,-0.1173,6.8247,-0.0051,-0.0078
20028,-106.7151,-2.1321,-0.0105,-0.0957,-89.3865,-0.0001,-0.0584,5.3744,0.0005,0.0065,5.9843,-0.0035,-0.4213
20041,-106.7165,-2.0178,-0.0105,-0.0982,-89.3777,-0.0001,-0.0616,5.6396,0.0004,-0.1589,12.8857,-0.0055,0.352
20057,-106.7165,-2.0178,-0.0105,-0.0982,-89.3777,-0.0001,-0.0616,5.6396,0.0004,-0.1589,12.8857,-0.0055,0.352
20073,-106.7179,-1.8821,-0.0104,-0.1048,-89.3873,-0.0002,-0.0646,5.9174,0.0004,-0.1261,11.9299,-0.0021,-1.11
20090,-106.719,-1.7665,-0.0104,-0.1104,-89.3975,-0.0003,-0.0659,6.0849,0.0003,-0.0675,8.7743,-0.0022,-2.7298
20107,-106.7202,-1.6683,-0.0104,-0.1136,-89.3877,-0.0002,-0.0678,6.226,0.0003,-0.1221,8.8676,-0.0021,-0.3283
20123,-106.7213,-1.5614,-0.0103,-0.1178,-89.3872,-0.0002,-0.0696,6.4049,0.0003,-0.1057,10.6505,-0.0031,-0.7247
20139,-106.7226,-1.4404,-0.0103,-0.1214,-89.391,-0.0003,-0.0708,6.5496,0.0002,-0.0666,7.8009,-0.001,-2.105
20153,-106.7239,-1.3281,-0.0103,-0.123,-89.3849,-0.0002,-0.0721,6.6604,0.0002,-0.0775,6.5317,-0.0018,-1.2675
20169,-106.7251,-1.2112,-0.0103,-0.1243,-89.3862,-0.0002,-0.0736,6.799,0.0002,-0.0828,8.0278,-0.0013,-1.7594
20186,-106.7251,-1.2112,-0.0103,-0.1243,-89.3862,-0.0002,-0.0736,6.799,0.0002,-0.0828,8.0278,-0.0013,-1.7594
20201,-106.7265,-1.0863,-0.0103,-0.1245,-89.3853,-0.0002,-0.0747,6.9108,0.0002,-0.0629,6.163,-0.0012,-2.0081
20217,-106.7279,-0.9614,-0.0103,-0.1239,-89.3845,-0.0002,-0.0762,7.0265,0.0001,-0.0821,6.4789,-0.0009,-1.9313
20235,-106.7292,-0.8382,-0.0103,-0.1231,-89.3836,-0.0002,-0.0775,7.1387,0.0001,-0.0747,6.4744,-0.0012,-1.8668
20251,-106.7306,-0.705,-0.0103,-0.1218,-89.3848,-0.0002,-0.0787,7.2516,0.0001,-0.0659,6.1263,-0.0007,-2.2828
20267,-106.732,-0.5775,-0.0103,-0.1202,-89.3828,-0.0001,-0.0801,7.3538,0.0001,-0.0796,5.8674,-0.0008,-1.8745
20282,-106.7335,-0.4484,-0.0103,-0.1188,-89.3823,-0.0001,-0.0813,7.4674,0.0001,-0.0718,6.5492,-0.0018,-1.8208
20299,-106.7349,-0.3169,-0.0103,-0.1175,-89.3814,-0.0,-0.0826,7.579,0.0001,-0.0737,6.4056,0.0005,-1.7305
20313,-106.7363,-0.1876,-0.0103,-0.1165,-89.3804,-0.0,-0.0839,7.6914,0.0001,-0.077,6.6636,-0.0008,-1.5054
20329,-106.7378,-0.0497,-0.0103,-0.1155,-89.381,-0.0,-0.0852,7.8072,0.0001,-0.0717,6.5306,0.0001,-1.7145
20345,-106.7378,-0.0497,-0.0103,-0.1155,-89.381,-0.0,-0.0852,7.8072,0.0001,-0.0717,6.5306,0.0001,-1.7145
20362,-106.7409,0.2301,-0.0103,-0.1133,-89.3798,0.0,-0.0877,8.0222,0.0,-0.0733,6.208,-0.0011,-1.5073
20377,-106.7409,0.2301,-0.0103,-0.1133,-89.3798,0.0,-0.0877,8.0222,0.0,-0.0733,6.208,-0.0011,-1.5073
20394,-106.7426,0.3888,-0.0103,-0.1121,-89.3828,-0.0,-0.0888,8.1365,0.0,-0.0608,5.8408,0.0003,-2.2135
20411,-106.7442,0.5334,-0.0103,-0.1105,-89.3802,0.0,-0.0901,8.2317,0.0,-0.0715,5.3982,0.0001,-1.5821
20426,-106.7458,0.679,-0.0104,-0.1093,-89.3796,0.0,-0.0913,8.3411,0.0,-0.0664,6.2471,-0.0002,-1.5246
20443,-106.7474,0.8274,-0.0104,-0.1083,-89.3791,0.0,-0.0924,8.4471,0.0,-0.0663,6.0183,-0.0002,-1.4905
20458,-106.7492,0.9904,-0.0104,-0.1071,-89.3805,0.0,-0.0936,8.5548,0.0,-0.0611,5.6339,-0.0004,-1.889
20474,-106.7508,1.1365,-0.0104,-0.106,-89.378,0.0001,-0.0948,8.6509,0.0,-0.0697,5.6738,-0.0002,-1.2393
20489,-106.7524,1.2854,-0.0104,-0.1052,-89.3775,0.0001,-0.0959,8.758,0.0,-0.0675,6.2787,0.0001,-1.1565
20505,-106.7524,1.2854,-0.0104,-0.1052,-89.3775,0.0001,-0.0959,8.758,0.0,-0.0675,6.2787,0.0001,-1.1565
20521,-106.7542,1.4473,-0.0104,-0.1044,-89.3784,0.0001,-0.0971,8.8654,0.0,-0.0642,5.862,-0.0006,-1.4165
20537,-106.7559,1.6013,-0.0104,-0.1036,-89.3772,0.0001,-0.0982,8.9619,0.0,-0.063,5.6038,0.0004,-1.1911
20555,-106.7576,1.7548,-0.0104,-0.1029,-89.3766,0.0001,-0.0993,9.0614,0.0,-0.0648,5.8557,-0.0007,-1.0523
20569,-106.7593,1.9144,-0.0104,-0.1022,-89.3766,0.0,-0.1004,9.1619,-0.0,-0.064,5.7549,-0.0013,-1.0806
20585,-106.7611,2.0736,-0.0104,-0.1015,-89.3762,0.0,-0.1015,9.2584,0.0,-0.062,5.5932,0.0021,-1.0279
20603,-106.7629,2.2427,-0.0104,-0.1006,-89.3767,0.0,-0.1026,9.3567,0.0,-0.0607,5.4292,-0.0007,-1.1662
20619,-106.7647,2.4054,-0.0104,-0.0997,-89.3761,0.0,-0.1036,9.4478,0.0,-0.0587,5.2736,-0.0002,-1.0255
20635,-106.7666,2.5762,-0.0104,-0.0988,-89.3763,0.0,-0.1047,9.5425,0.0,-0.0589,5.277,0.0005,-1.0832
20651,-106.7685,2.7465,-0.0104,-0.0977,-89.376,0.0,-0.1057,9.6332,0.0,-0.057,5.1193,-0.0004,-1.0504
20665,-106.7703,2.9139,-0.0104,-0.0967,-89.3755,0.0001,-0.1067,9.7219,-0.0,-0.0569,5.1382,-0.0007,-0.9174
20681,-106.7703,2.9139,-0.0104,-0.0967,-89.3755,0.0001,-0.1067,9.7219,-0.0,-0.0569,5.1382,-0.0007,-0.9174
20697,-106.7723,3.0983,-0.0105,-0.0956,-89.3764,0.0,-0.1077,9.8164,0.0,-0.0564,5.0198,0.0008,-1.1226
20713,-106.7742,3.2713,-0.0105,-0.0944,-89.3756,0.0,-0.1086,9.901,0.0,-0.0535,4.8304,-0.0003,-0.9659
20731,-106.7764,3.4702,-0.0105,-0.0931,-89.3774,0.0,-0.1097,9.9949,0.0,-0.0531,4.7107,0.0003,-1.3571
20746,-106.7784,3.6567,-0.0105,-0.0916,-89.3767,0.0,-0.1106,10.0759,0.0,-0.0487,4.3641,-0.0006,-1.2369
20763,-106.7804,3.8312,-0.0105,-0.0903,-89.3755,0.0,-0.1115,10.1568,0.0,-0.0516,4.6994,0.0003,-0.8935
20777,-106.7823,4.0072,-0.0105,-0.0892,-89.3747,0.0,-0.1124,10.2411,0.0,-0.0524,4.8965,-0.0001,-0.7106
20795,-106.7843,4.1869,-0.0105,-0.0883,-89.3745,0.0,-0.1133,10.3261,0.0,-0.0526,4.871,0.0001,-0.6372
20809,-106.7863,4.3675,-0.0105,-0.0874,-89.3743,0.0,-0.1142,10.4093,-0.0,-0.0516,4.79,-0.0004,-0.5801
20825,-106.7863,4.3675,-0.0105,-0.0874,-89.3743,0.0,-0.1142,10.4093,-0.0,-0.0516,4.79,-0.0004,-0.5801
20841,-106.7883,4.5541,-0.0105,-0.0866,-89.3744,0.0,-0.1151,10.4929,0.0,-0.0512,4.6891,0.0004,-0.5926
20857,-106.7905,4.7506,-0.0105,-0.0857,-89.3748,0.0,-0.1161,10.5773,0.0,-0.05,4.5358,-0.0001,-0.696
20875,-106.7925,4.94,-0.0105,-0.0847,-89.3746,0.0,-0.1169,10.656,0.0,-0.0479,4.4195,-0.0001,-0.6434
20891,-106.7947,5.1403,-0.0105,-0.0837,-89.375,0.0,-0.1178,10.7371,0.0,-0.0479,4.3382,-0.0001,-0.723
20907,-106.7971,5.3514,-0.0105,-0.0826,-89.3758,0.0,-0.1187,10.8185,0.0,-0.0465,4.1621,0.0003,-0.8943
20923,-106.7991,5.5364,-0.0106,-0.0816,-89.3748,0.0,-0.1195,10.8892,-0.0,-0.0439,4.1566,-0.0008,-0.5942
20937,-106.8011,5.7213,-0.0106,-0.0806,-89.3743,0.0,-0.1202,10.9614,-0.0,-0.0446,4.2728,0.0,-0.4419
20953,-106.8033,5.9217,-0.0106,-0.0796,-89.3745,0.0,-0.121,11.0381,0.0,-0.0451,4.214,0.0009,-0.468
20969,-106.8033,5.9217,-0.0106,-0.0796,-89.3745,0.0,-0.121,11.0381,0.0,-0.0451,4.214,0.0009,-0.468
20985,-106.8055,6.1197,-0.0106,-0.0787,-89.3745,0.0,-0.1218,11.1116,0.0,-0.0439,4.1204,-0.0004,-0.45
21001,-106.8077,6.3173,-0.0106,-0.0778,-89.3744,0.0,-0.1226,11.1835,0.0,-0.0433,4.0625,-0.0001,-0.4152
21017,-106.8099,6.5188,-0.0106,-0.0769,-89.3744,-0.0,-0.1234,11.2553,-0.0,-0.0429,4.003,-0.0002,-0.405
21035,-106.812,6.7167,-0.0106,-0.076,-89.3741,-0.0,-0.1241,11.3244,-0.0,-0.0422,3.9491,0.0001,-0.355
21049,-106.8143,6.9245,-0.0106,-0.075,-89.3743,-0.0,-0.1249,11.3955,0.0,-0.0421,3.8914,0.0002,-0.3697
21066,-106.8167,7.1406,-0.0106,-0.0741,-89.3745,-0.0,-0.1256,11.4673,-0.0,-0.0416,3.8034,-0.0006,-0.4287
21081,-106.8188,7.3365,-0.0106,-0.0732,-89.3741,-0.0,-0.1263,11.5312,-0.0,-0.0397,3.7581,-0.0006,-0.3154
21099,-106.8211,7.5413,-0.0106,-0.0723,-89.374,0.0,-0.127,11.5974,-0.0,-0.0401,3.7414,0.0004,-0.28
21113,-106.8233,7.7451,-0.0106,-0.0714,-89.3738,0.0,-0.1277,11.6621,0.0,-0.0396,3.6969,0.0013,-0.2363
21129,-106.8255,7.9504,-0.0106,-0.0706,-89.3737,-0.0,-0.1284,11.7261,0.0,-0.0395,3.6539,0.0001,-0.1995
21145,-106.8255,7.9504,-0.0106,-0.0706,-89.3737,-0.0,-0.1284,11.7261,0.0,-0.0395,3.6539,0.0001,-0.1995
21161,-106.8278,8.1592,-0.0106,-0.0697,-89.3735,-0.0,-0.1291,11.7901,0.0,-0.039,3.6056,-0.0003,-0.1746
21179,-106.8303,8.3836,-0.0107,-0.0688,-89.3737,-0.0,-0.1298,11.8573,-0.0,-0.0389,3.5474,-0.0004,-0.1976
21194,-106.8326,8.5993,-0.0107,-0.0679,-89.3736,-0.0,-0.1305,11.9205,0.0,-0.0379,3.4884,0.0002,-0.1842
21210,-106.835,8.8152,-0.0107,-0.0671,-89.3735,-0.0,-0.1312,11.9826,0.0,-0.0374,3.4422,-0.0,-0.1664
21226,-106.8374,9.0361,-0.0107,-0.0662,-89.3735,-0.0,-0.1319,12.045,-0.0,-0.037,3.3948,-0.0001,-0.1601
21243,-106.8398,9.2557,-0.0107,-0.0653,-89.3734,-0.0,-0.1325,12.1058,-0.0,-0.0364,3.3479,-0.0002,-0.145
21257,-106.8398,9.2557,-0.0107,-0.0653,-89.3734,-0.0,-0.1325,12.1058,-0.0,-0.0364,3.3479,-0.0002,-0.145
21273,-106.8422,9.4748,-0.0107,-0.0645,-89.3733,-0.0,-0.1332,12.1653,0.0,-0.0359,3.3047,0.0004,-0.1262
21289,-106.8447,9.6967,-0.0107,-0.0637,-89.3733,0.0,-0.1338,12.2246,-0.0,-0.0355,3.2617,-0.0009,-0.1121
21307,-106.8473,9.9354,-0.0107,-0.0628,-89.3733,0.0,-0.1345,12.2872,0.0,-0.0354,3.215,0.001,-0.129
21324,-106.8497,10.1541,-0.0107,-0.0619,-89.3732,0.0,-0.1351,12.3434,0.0,-0.0345,3.1702,0.0003,-0.1006
21339,-106.8521,10.3752,-0.0107,-0.0612,-89.3732,-0.0,-0.1358,12.3993,0.0,-0.0341,3.1333,-0.0006,-0.0798
21355,-106.8545,10.5901,-0.0107,-0.0605,-89.373,0.0,-0.1363,12.4528,0.0,-0.0336,3.0954,0.0004,-0.0543
21371,-106.8568,10.8012,-0.0107,-0.0597,-89.373,0.0,-0.1369,12.5045,-0.0,-0.0332,3.0585,-0.0007,-0.0331
21385,-106.8591,11.0169,-0.0107,-0.059,-89.3729,0.0,-0.1375,12.5565,0.0,-0.033,3.0215,0.0003,-0.0215
21401,-106.8615,11.2375,-0.0107,-0.0583,-89.3729,-0.0,-0.138,12.6087,-0.0,-0.0325,2.9843,-0.0008,-0.015
21417,-106.8615,11.2375,-0.0107,-0.0583,-89.3729,-0.0,-0.138,12.6087,-0.0,-0.0325,2.9843,-0.0008,-0.015
21434,-106.864,11.463,-0.0107,-0.0575,-89.3729,-0.0,-0.1386,12.66,0.0,-0.0314,2.8756,0.0011,-0.0114
21449,-106.8666,11.7007,-0.0107,-0.0566,-89.3729,-0.0,-0.1391,12.7101,-0.0,-0.0293,2.6782,-0.0006,-0.0106
21466,-106.8691,11.9251,-0.0107,-0.0557,-89.3729,0.0,-0.1396,12.754,-0.0,-0.0271,2.4899,0.0001,-0.0078
21482,-106.8715,12.1458,-0.0108,-0.0546,-89.3729,0.0,-0.1401,12.7941,0.0,-0.0254,2.3222,0.0006,-0.0054
21499,-106.8741,12.3815,-0.0108,-0.0533,-89.3729,0.0,-0.1405,12.834,-0.0,-0.0237,2.1696,-0.0007,-0.0049
21515,-106.8765,12.5998,-0.0108,-0.0521,-89.3729,-0.0,-0.1409,12.8682,0.0,-0.0221,2.0182,0.0003,-0.0032
21531,-106.879,12.8295,-0.0108,-0.0506,-89.3729,0.0,-0.1412,12.9018,0.0,-0.0206,1.8862,0.0002,-0.0026
21547,-106.8815,13.061,-0.0108,-0.0491,-89.3729,0.0,-0.1416,12.9333,0.0,-0.0193,1.7592,-0.0002,-0.0021
21561,-106.884,13.2885,-0.0108,-0.0474,-89.3728,-0.0,-0.1419,12.9621,0.0,-0.0179,1.6382,0.0002,-0.0017
21577,-106.884,13.2885,-0.0108,-0.0474,-89.3728,-0.0,-0.1419,12.9621,0.0,-0.0179,1.6382,0.0002,-0.0017
21593,-106.8865,13.5194,-0.0108,-0.0458,-89.3728,0.0,-0.1422,12.9893,0.0,-0.0167,1.5277,0.0003,-0.0014
21609,-106.889,13.7477,-0.0108,-0.0441,-89.3728,0.0,-0.1425,13.0143,-0.0,-0.0156,1.4232,-0.0009,-0.0011
21627,-106.8917,13.9945,-0.0108,-0.0423,-89.3728,0.0,-0.1427,13.0394,-0.0,-0.0145,1.3307,-0.0001,-0.0012
21658,-106.8968,14.4577,-0.0109,-0.0389,-89.3728,0.0,-0.1432,13.0817,0.0,-0.0125,1.1424,0.0001,-0.0008
21675,-106.8997,14.6763,-0.0109,-0.0372,-89.3931,0.0037,-0.1939,13.0962,0.0,-3.0375,0.8683,0.0003,-1.7328
21691,-106.904,14.9078,-0.0109,-0.0352,-89.4704,0.0153,-0.2984,13.1012,0.0001,-5.9132,0.2843,0.0057,-5.3374
21707,-106.9099,15.1357,-0.0109,-0.0329,-89.6252,0.034,-0.4348,13.0953,0.0003,-7.8385,-0.3363,0.0098,-10.1468
21722,-106.9177,15.3606,-0.0109,-0.03,-89.8727,0.0579,-0.5913,13.0792,0.0005,-9.0999,-0.9406,0.0134,-15.8473
21737,-106.9177,15.3606,-0.0109,-0.03,-89.8727,0.0579,-0.5913,13.0792,0.0005,-9.0999,-0.9406,0.0134,-15.8473
21753,-106.9294,15.6235,-0.0109,-0.026,-90.2921,0.0886,-0.7883,13.0486,0.0008,-9.7896,-1.5197,0.0127,-23.3986
21769,-106.9424,15.8566,-0.011,-0.0215,-90.8118,0.1203,-0.9749,13.0107,0.001,-10.4226,-2.1161,0.0118,-30.9389
21787,-106.9571,16.0805,-0.011,-0.0166,-91.4468,0.1502,-1.155,12.9669,0.0011,-10.4308,-2.5366,0.0087,-38.739
21801,-106.975,16.3175,-0.011,-0.0107,-92.2788,0.1806,-1.3441,12.9134,0.0012,-10.3027,-2.9134,0.0062,-47.5708
21819,-106.9945,16.5474,-0.011,-0.0046,-93.2512,0.207,-1.5203,12.8567,0.0013,-9.8489,-3.1733,0.0025,-56.6155
21835,-107.0153,16.771,-0.011,0.0016,-94.3622,0.2291,-1.6818,12.7982,0.0013,-9.2319,-3.341,-0.0017,-65.8179
21851,-107.037,16.9888,-0.0111,0.0076,-95.6101,0.2466,-1.8271,12.7395,0.0012,-8.4796,-3.4249,-0.0056,-75.1379
21865,-107.0612,17.2176,-0.0111,0.014,-97.11,0.2607,-1.966,12.6766,0.001,-7.6652,-3.4706,-0.0073,-85.3131
21881,-107.0859,17.4413,-0.0111,0.0198,-98.7698,0.2693,-2.084,12.616,0.0009,-6.6117,-3.399,-0.0098,-95.5705
21897,-107.0859,17.4413,-0.0111,0.0198,-98.7698,0.2693,-2.084,12.616,0.0009,-6.6117,-3.399,-0.0098,-95.5705
21913,-107.1107,17.6602,-0.0111,0.025,-100.5865,0.2727,-2.1801,12.5586,0.0006,-5.4679,-3.2601,-0.012,-105.8612
21929,-107.1357,17.8781,-0.0112,0.0294,-102.592,0.2709,-2.2553,12.5044,0.0004,-4.26,-3.0751,-0.0137,-116.3296
21946,-107.1612,18.0994,-0.0112,0.033,-104.8408,0.2639,-2.3092,12.4528,0.0002,-2.984,-2.8542,-0.0122,-127.1833
21962,-107.1855,18.3147,-0.0112,0.0352,-107.2377,0.252,-2.337,12.4074,-0.0,-1.5686,-2.5664,-0.0129,-137.8902
21977,-107.2092,18.5307,-0.0112,0.0362,-109.8591,0.2353,-2.34,12.3663,-0.0003,-0.1673,-2.2855,-0.0129,-148.771
21995,-107.2306,18.736,-0.0112,0.0356,-112.5546,0.2153,-2.317,12.3325,-0.0005,1.3325,-1.9677,-0.0132,-159.1785
22010,-107.252,18.955,-0.0112,0.0332,-115.6647,0.1894,-2.2679,12.2999,-0.0007,2.6468,-1.7546,-0.0124,-170.4509
22026,-107.2698,19.1578,-0.0112,0.0289,-118.7477,0.1612,-2.1687,12.2851,-0.0009,5.7183,-0.8548,-0.0108,-179.9845
22041,-107.2849,19.364,-0.0112,0.0212,-122.0562,0.1256,-1.9951,12.2882,-0.0011,9.7664,0.1773,-0.0107,-187.9658
22057,-107.2957,19.5583,-0.0111,0.0107,-125.3093,0.0863,-1.7731,12.2979,-0.0013,13.1469,0.5719,-0.0137,-194.1715
22073,-107.2957,19.5583,-0.0111,0.0107,-125.3093,0.0863,-1.7731,12.2979,-0.0013,13.1469,0.5719,-0.0137,-194.1715
22089,-107.3025,19.7606,-0.011,-0.004,-128.823,0.0393,-1.4933,12.3057,-0.0016,15.7947,0.4396,-0.0135,-199.6384
22105,-107.3043,19.9708,-0.0109,-0.0227,-132.5954,-0.0139,-1.1587,12.3042,-0.0018,18.0308,-0.0801,-0.0133,-204.4213
22122,-107.3004,20.172,-0.0108,-0.0428,-136.3143,-0.0665,-0.8012,12.2873,-0.0007,19.9361,-0.9395,0.0609,-208.2733
22138,-107.2904,20.3776,-0.0106,-0.0656,-140.2225,-0.1216,-0.4057,12.2498,0.0002,21.3327,-2.0267,0.0528,-211.63
22155,-107.2754,20.5676,-0.0104,-0.0875,-143.9257,-0.1713,-0.0176,12.1926,0.0009,22.3858,-3.2977,0.0399,-214.237
22169,-107.2554,20.7504,-0.0103,-0.1091,-147.5768,-0.2186,0.3734,12.114,0.0014,23.1189,-4.6487,0.0281,-216.4425
22187,-107.2301,20.9301,-0.0101,-0.1306,-151.2546,-0.2645,0.7715,12.0115,0.0017,23.5905,-6.0707,0.0189,-218.3903
22201,-107.1992,21.1082,-0.0099,-0.1519,-154.997,-0.3091,1.1775,11.8828,0.0019,23.8365,-7.5602,0.0127,-220.1699
22217,-107.1597,21.2964,-0.0097,-0.1744,-159.0682,-0.3556,1.6162,11.715,0.0021,23.87,-9.13,0.0076,-221.9655
22233,-107.1597,21.2964,-0.0097,-0.1744,-159.0682,-0.3556,1.6162,11.715,0.0021,23.87,-9.13,0.0076,-221.9655
22265,-107.0691,21.6392,-0.0093,-0.2132,-166.8356,-0.4342,2.4301,11.3146,0.0021,23.2636,-12.3233,-0.0021,-225.1734
22283,-107.0135,21.812,-0.0091,-0.2314,-170.9635,-0.4745,2.8163,11.022,0.0021,21.129,-16.0095,0.0021,-225.8737
22297,-106.958,21.9676,-0.009,-0.2449,-174.8421,-0.5147,3.1101,10.6747,0.0022,17.1664,-20.2941,0.0029,-226.8924
22315,-106.8959,22.1263,-0.0089,-0.2565,-179.0052,-0.5612,3.3759,10.2639,0.0022,14.5375,-22.461,0.0029,-227.8177
22331,-106.8343,22.2718,-0.0088,-0.2649,176.9665,-0.6068,3.5837,9.8349,0.0023,11.7716,-24.3089,0.0024,-228.3814
22346,-106.7783,22.3961,-0.0087,-0.2704,173.342,-0.6473,3.7252,9.4273,0.0023,8.9267,-25.7051,-0.0021,-228.6433
22363,-106.7168,22.5247,-0.0086,-0.2742,169.3665,-0.6933,3.8311,8.9627,0.0022,6.0891,-26.7224,-0.0007,-228.6257
22379,-106.6611,22.6396,-0.0086,-0.2729,165.6656,-0.7333,3.7175,8.5842,0.0022,-6.9457,-23.1405,-0.0042,-224.1323
22395,-106.6123,22.7503,-0.0086,-0.2603,162.143,-0.7639,3.4088,8.3108,0.002,-19.0569,-16.8748,-0.0129,-215.1647
22411,-106.5681,22.8623,-0.0088,-0.2415,158.6342,-0.7856,3.0848,8.0488,-0.0022,-19.2694,-15.59,-0.2493,-206.6149
22425,-106.5299,22.9755,-0.009,-0.2167,155.1281,-0.8078,2.7113,7.7833,-0.0018,-21.4239,-15.2216,0.0228,-199.4379
22442,-106.5017,23.0759,-0.0092,-0.1909,152.0185,-0.8318,2.3542,7.5415,0.0037,-22.4745,-15.2259,0.3465,-194.5468
22457,-106.4794,23.1776,-0.0094,-0.1627,148.847,-0.8585,1.9832,7.3185,0.003,-22.4361,-13.483,-0.0435,-190.9422
22473,-106.4644,23.2772,-0.0095,-0.1351,145.7302,-0.8828,1.5844,7.138,0.0024,-24.1034,-10.9115,-0.0331,-187.4468
22489,-106.457,23.3747,-0.0097,-0.1076,142.7421,-0.9013,1.1688,7.0366,0.002,-25.4918,-6.2186,-0.0275,-181.6721
22505,-106.4566,23.4702,-0.0099,-0.08,139.9399,-0.9117,0.7564,7.0037,0.0015,-25.9373,-2.0685,-0.027,-174.3734
22521,-106.4634,23.5726,-0.0101,-0.0496,137.1278,-0.9143,0.3243,7.0248,0.0011,-25.7988,1.258,-0.0254,-165.6458
22537,-106.4634,23.5726,-0.0101,-0.0496,137.1278,-0.9143,0.3243,7.0248,0.0011,-25.7988,1.258,-0.0254,-165.6458
22553,-106.4785,23.6846,-0.0103,-0.0161,134.3017,-0.9085,-0.1257,7.0975,0.0007,-25.1875,4.0734,-0.025,-155.6533
22571,-106.5034,23.8099,-0.0106,0.0201,131.4529,-0.8947,-0.5915,7.2079,0.0002,-24.042,5.6973,-0.0223,-144.09
22585,-106.5298,23.9176,-0.0108,0.0477,129.2502,-0.8794,-0.9497,7.3228,-0.0001,-22.1905,7.1149,-0.0197,-133.8696
22603,-106.563,24.035,-0.011,0.0753,127.1035,-0.8581,-1.2909,7.4667,-0.0004,-19.9962,8.4351,-0.0174,-123.1425
22619,-106.603,24.1648,-0.0112,0.1021,124.9999,-0.8271,-1.5801,7.6437,-0.0007,-15.8832,9.7213,-0.0185,-113.197
22635,-106.6485,24.306,-0.0114,0.126,122.941,-0.7809,-1.7626,7.8454,-0.0011,-9.5353,10.5386,-0.0174,-105.9447
22650,-106.6938,24.4467,-0.0115,0.144,121.0519,-0.724,-1.8443,8.0379,-0.0014,-4.4232,10.4205,-0.018,-101.2633
22665,-106.7365,24.5823,-0.0117,0.1567,119.3345,-0.6617,-1.8502,8.2123,-0.0017,-0.3395,10.0666,-0.0196,-98.5244
22681,-106.7365,24.5823,-0.0117,0.1567,119.3345,-0.6617,-1.8502,8.2123,-0.0017,-0.3395,10.0666,-0.0196,-98.5244
22697,-106.7791,24.7233,-0.0118,0.1658,117.6264,-0.5907,-1.802,8.3808,-0.0021,2.745,9.5924,-0.0207,-96.8893
22713,-106.8206,24.8689,-0.0119,0.1718,115.9217,-0.5142,-1.7113,8.5416,-0.0025,5.1101,9.067,-0.0219,-95.9738
22731,-106.8612,25.0215,-0.0119,0.1751,114.1821,-0.4333,-1.5848,8.6966,-0.0028,6.9489,8.5103,-0.0178,-95.519
22747,-106.9017,25.1886,-0.012,0.1761,112.3209,-0.3456,-1.42,8.8507,-0.0031,8.4403,7.8922,-0.015,-95.4009
22777,-106.9709,25.5249,-0.0121,0.1724,108.6758,-0.1847,-1.0305,9.116,-0.0034,10.6662,6.6205,-0.0048,-95.6872
22794,-107.0003,25.6959,-0.0122,0.1692,106.9029,-0.1173,-0.8969,9.2446,-0.0034,7.0411,6.7788,-0.0024,-93.1393
22809,-107.0003,25.6959,-0.0122,0.1692,106.9029,-0.1173,-0.8969,9.2446,-0.0034,7.0411,6.7788,-0.0024,-93.1393
22827,-107.0277,25.8684,-0.0122,0.1663,105.2472,-0.0679,-0.8512,9.3678,-0.0033,2.4314,6.5497,0.0062,-87.154
22841,-107.0545,26.044,-0.0122,0.1629,103.743,-0.038,-0.8777,9.4731,-0.003,-1.4039,5.5803,0.0171,-78.302
22859,-107.0829,26.231,-0.0123,0.1584,102.3776,-0.0267,-0.9738,9.5545,-0.0025,-4.8393,4.101,0.0248,-66.8529
22873,-107.1118,26.4159,-0.0123,0.1526,101.2842,-0.0333,-1.1237,9.6033,-0.0018,-7.7097,2.5076,0.0341,-53.7601
22891,-107.1422,26.603,-0.0122,0.1452,100.4276,-0.0502,-1.2704,9.6359,-0.0011,-7.4995,1.6653,0.0372,-41.6353
22905,-107.1422,26.603,-0.0122,0.1452,100.4276,-0.0502,-1.2704,9.6359,-0.0011,-7.4995,1.6653,0.0372,-41.6353
22923,-107.1768,26.8121,-0.0122,0.1367,99.7002,-0.0675,-1.3804,9.6809,-0.0003,-5.059,2.0737,0.0361,-30.0023
22939,-107.2091,27.006,-0.0121,0.1285,99.2002,-0.0786,-1.4422,9.7211,0.0001,-3.082,2.0023,0.0203,-22.5734
22953,-107.2384,27.184,-0.012,0.1205,98.8647,-0.0838,-1.4735,9.7561,0.0003,-1.7101,1.9133,0.0094,-17.1678
22969,-107.2384,27.184,-0.012,0.1205,98.8647,-0.0838,-1.4735,9.7561,0.0003,-1.7101,1.9133,0.0094,-17.1678
22985,-107.2732,27.399,-0.012,0.1115,98.5648,-0.0836,-1.4875,9.7979,0.0003,-0.6388,1.8997,0.0021,-12.0179
23003,-107.3058,27.604,-0.0119,0.1032,98.3581,-0.0788,-1.4865,9.8313,0.0003,0.0475,1.5985,-0.0015,-8.9207
23018,-107.335,27.7919,-0.0118,0.0955,98.2227,-0.0713,-1.4794,9.8593,0.0002,0.3752,1.4669,-0.0037,-6.8159
23035,-107.3622,27.9731,-0.0114,0.1102,98.1184,0.006,-1.4688,9.872,0.0456,0.5785,0.6924,2.4755,-5.9796
23049,-107.3896,28.1583,-0.0107,0.1344,98.0382,0.1027,-1.4656,9.8943,0.0449,0.1712,1.1891,-0.0382,-5.0215
23065,-107.3896,28.1583,-0.0107,0.1344,98.0382,0.1027,-1.4656,9.8943,0.0449,0.1712,1.1891,-0.0382,-5.0215
23081,-107.4179,28.3473,-0.0105,0.1302,97.9836,0.0989,-1.4621,9.9338,-0.0249,0.1838,2.0722,-3.6601,-3.583
23098,-107.4477,28.5471,-0.0107,0.1055,97.9392,0.0421,-1.4393,9.9403,-0.0188,1.1307,0.3233,0.3035,-1.8171
23115,-107.476,28.7411,-0.0109,0.0872,97.9093,0.0133,-1.425,9.9597,-0.0155,0.7332,0.9936,0.1698,-0.7705
23130,-107.5039,28.9361,-0.0111,0.0735,97.8892,0.0001,-1.4146,9.9727,-0.0118,0.5291,0.6651,0.19,0.3903
23145,-107.5039,28.9361,-0.0111,0.0735,97.8892,0.0001,-1.4146,9.9727,-0.0118,0.5291,0.6651,0.19,0.3903
23161,-107.5314,29.1295,-0.0112,0.063,97.8739,-0.0054,-1.4071,9.9798,-0.0087,0.3872,0.3652,0.1579,1.2216
23179,-107.5579,29.3172,-0.0113,0.0549,97.8608,-0.007,-1.4019,9.9866,-0.0064,0.2792,0.361,0.1239,1.4127
23195,-107.5849,29.5101,-0.0113,0.0482,97.8508,-0.0069,-1.3974,9.9929,-0.0047,0.2293,0.3277,0.0877,1.7212
23211,-107.6118,29.7021,-0.0113,0.0426,97.8426,-0.006,-1.3939,9.9994,-0.0034,0.1836,0.3354,0.0668,1.8149
23225,-107.6387,29.8951,-0.0114,0.0379,97.8361,-0.0049,-1.3911,10.0062,-0.0025,0.1472,0.355,0.0496,1.92
23241,-107.6387,29.8951,-0.0114,0.0379,97.8361,-0.0049,-1.3911,10.0062,-0.0025,0.1472,0.355,0.0496,1.92
23257,-107.666,30.0921,-0.0114,0.0339,97.8313,-0.0038,-1.3887,10.0126,-0.0017,0.1225,0.3226,0.0368,2.1135
23275,-107.6931,30.2876,-0.0114,0.0305,97.827,-0.0027,-1.3869,10.0194,-0.0012,0.0928,0.3484,0.0271,2.1215
23290,-107.7189,30.4736,-0.0114,0.0278,97.8231,-0.0018,-1.3859,10.0288,-0.0008,0.0501,0.5061,0.0203,1.8307
23307,-107.7443,30.6596,-0.0108,-0.0055,97.8192,0.0389,-1.3873,10.037,0.0193,-0.072,0.4447,1.0834,1.7938
23321,-107.7706,30.8509,-0.0102,-0.037,97.8169,0.0732,-1.389,10.0458,0.0201,-0.0893,0.4632,0.0446,1.9609
23337,-107.7706,30.8509,-0.0102,-0.037,97.8169,0.0732,-1.389,10.0458,0.0201,-0.0893,0.4632,0.0446,1.9609
23353,-107.8008,31.0682,-0.0105,-0.0153,97.8106,0.0375,-1.388,10.0722,-0.009,0.0449,1.2218,-1.3472,-0.5039
23370,-107.829,31.2722,-0.0108,-0.0024,97.8119,0.0201,-1.387,10.0891,-0.0068,0.0504,0.837,0.1044,0.1913
23385,-107.8565,31.4718,-0.011,0.0061,97.8138,0.0105,-1.3873,10.105,-0.0055,-0.0161,0.8047,0.0681,0.5869
23401,-107.8819,31.6569,-0.0111,0.0109,97.8154,0.0058,-1.3879,10.116,-0.0041,-0.0356,0.6011,0.077,1.0107
23417,-107.8819,31.6569,-0.0111,0.0109,97.8154,0.0058,-1.3879,10.116,-0.0041,-0.0356,0.6011,0.077,1.0107
23433,-107.909,31.855,-0.0112,0.0139,97.8185,0.003,-1.3885,10.1238,-0.003,-0.0287,0.3975,0.054,1.7172
23449,-107.9375,32.0623,-0.0112,0.0155,97.8135,0.0015,-1.3908,10.1393,-0.002,-0.1132,0.7577,0.0492,-0.4548
23467,-107.9661,32.2704,-0.0113,0.0164,97.8157,0.0007,-1.393,10.1543,-0.0014,-0.1048,0.7335,0.0299,0.2642
23482,-107.9928,32.4652,-0.0113,0.0167,97.818,0.0002,-1.3947,10.1666,-0.001,-0.0907,0.6392,0.0202,0.6581
23497,-107.9928,32.4652,-0.0113,0.0167,97.818,0.0002,-1.3947,10.1666,-0.001,-0.0907,0.6392,0.0202,0.6581
23513,-108.0206,32.6681,-0.0113,0.0166,97.8224,-0.0,-1.396,10.1756,-0.0007,-0.063,0.4496,0.0172,1.4753
23530,-108.0474,32.8635,-0.0113,0.0161,97.8243,-0.0002,-1.3966,10.1793,-0.0004,-0.0307,0.1924,0.0131,1.9585
23547,-108.0759,33.0714,-0.0113,0.0155,97.8193,-0.0002,-1.3988,10.1928,-0.0002,-0.1093,0.6649,0.0103,-0.4453
23561,-108.1022,33.2629,-0.0113,0.0151,97.8168,-0.0003,-1.4006,10.2037,-0.0001,-0.0982,0.5796,0.0062,-0.9342
23577,-108.1285,33.4541,-0.0113,0.0146,97.8144,-0.0003,-1.4019,10.2111,-0.0,-0.0681,0.3967,0.005,-1.4835
23594,-108.1285,33.4541,-0.0113,0.0146,97.8144,-0.0003,-1.4019,10.2111,-0.0,-0.0681,0.3967,0.005,-1.4835
23609,-108.156,33.6543,-0.0113,0.0138,97.8121,-0.0004,-1.4026,10.2149,0.0,-0.0374,0.1901,0.0029,-2.0625
23626,-108.1821,33.8441,-0.0113,0.0131,97.8126,-0.0004,-1.4033,10.219,0.0001,-0.0368,0.2236,0.0024,-1.9032
23643,-108.2083,34.0352,-0.0113,0.0123,97.8127,-0.0003,-1.4042,10.2245,0.0001,-0.0456,0.2927,0.0003,-1.9052
23658,-108.2342,34.2236,-0.0113,0.0117,97.813,-0.0003,-1.4051,10.2307,0.0001,-0.0504,0.3395,0.0015,-1.8186
23673,-108.2617,34.424,-0.0113,0.0111,97.8118,-0.0003,-1.4059,10.2357,0.0001,-0.0402,0.2533,-0.0007,-2.1597
23689,-108.2617,34.424,-0.0113,0.0111,97.8118,-0.0003,-1.4059,10.2357,0.0001,-0.0402,0.2533,-0.0007,-2.1597
23705,-108.2883,34.6179,-0.0113,0.0104,97.8123,-0.0003,-1.4067,10.2411,0.0001,-0.0422,0.2881,0.0002,-2.0143
23723,-108.3158,34.8178,-0.0112,0.0099,97.8117,-0.0003,-1.4075,10.2466,0.0001,-0.0417,0.2778,0.0008,-2.1747
23738,-108.342,35.0085,-0.0112,0.0095,97.8125,-0.0003,-1.4085,10.2536,0.0001,-0.0527,0.378,-0.0013,-1.9023
23755,-108.3725,35.2306,-0.0112,0.0093,97.8189,-0.0003,-1.4107,10.2711,0.0001,-0.1003,0.8069,-0.0005,0.5961
23770,-108.4016,35.4425,-0.0112,0.0094,97.8162,-0.0002,-1.4128,10.2875,0.0001,-0.1043,0.7976,-0.0004,-0.2988
23785,-108.4016,35.4425,-0.0112,0.0094,97.8162,-0.0002,-1.4128,10.2875,0.0001,-0.1043,0.7976,-0.0004,-0.2988
23803,-108.4285,35.6385,-0.0112,0.0096,97.814,-0.0002,-1.4145,10.3005,0.0001,-0.0914,0.6821,0.0003,-0.6856
23818,-108.4543,35.826,-0.0112,0.0098,97.8121,-0.0002,-1.4158,10.3103,0.0001,-0.0714,0.5383,-0.0009,-1.1018
23835,-108.4824,36.0307,-0.0112,0.0098,97.8085,-0.0001,-1.4167,10.3166,0.0001,-0.0447,0.3208,-0.0003,-1.8576
23849,-108.5101,36.2325,-0.0112,0.0095,97.8077,-0.0001,-1.4171,10.3195,0.0001,-0.0189,0.1461,-0.0003,-2.1308
23865,-108.5101,36.2325,-0.0112,0.0095,97.8077,-0.0001,-1.4171,10.3195,0.0001,-0.0189,0.1461,-0.0003,-2.1308
23881,-108.5379,36.4348,-0.0112,0.0091,97.8075,-0.0001,-1.4176,10.3229,0.0001,-0.0231,0.175,-0.0002,-2.1928
23898,-108.566,36.6392,-0.0112,0.0087,97.8073,-0.0001,-1.4181,10.3267,0.0001,-0.026,0.1905,-0.0005,-2.263
23915,-108.593,36.8365,-0.0112,0.0083,97.8079,-0.0001,-1.4188,10.3324,0.0,-0.0392,0.297,-0.0013,-2.0405
23929,-108.6194,37.0286,-0.0112,0.008,97.8085,-0.0001,-1.4198,10.3397,0.0,-0.0519,0.397,-0.0004,-1.8455
23945,-108.6466,37.2266,-0.0112,0.0078,97.8081,-0.0001,-1.4207,10.3467,0.0,-0.049,0.3641,0.0008,-1.9789
23961,-108.6466,37.2266,-0.0112,0.0078,97.8081,-0.0001,-1.4207,10.3467,0.0,-0.049,0.3641,0.0008,-1.9789
