timestamp,x,y,z,pitch,yaw,roll,vx,vy,vz,ax,ay,az,yaw_rate
52971,-106.6867,-4.8475,-0.0734,0.0,-89.3578,0.0,-0.0,0.0,-0.3014,-0.0,0.0,14.4314,0.0
52987,-106.6867,-4.8475,-0.0734,0.0,-89.3578,0.0,-0.0,0.0,-0.3014,-0.0,0.0,14.4314,0.0
53003,-106.6867,-4.8475,-0.0734,0.0,-89.3578,0.0,-0.0,0.0,-0.3014,-0.0,0.0,14.4314,0.0
53019,-106.6867,-4.8475,-0.0734,0.0,-89.3578,0.0,-0.0,0.0,-0.3014,-0.0,0.0,14.4314,0.0
53035,-106.6867,-4.8475,-0.0734,0.0,-89.3578,0.0,-0.0,0.0,-0.3014,-0.0,0.0,14.4314,0.0
53051,-106.6867,-4.8475,-0.0734,0.0,-89.3578,0.0,-0.0,0.0,-0.3014,-0.0,0.0,14.4314,0.0
53067,-106.6867,-4.8475,-0.0734,0.0,-89.3578,0.0,-0.0,0.0,-0.3014,-0.0,0.0,14.4314,0.0
53083,-106.6867,-4.8475,-0.0734,0.0,-89.3578,0.0,-0.0,0.0,-0.3014,-0.0,0.0,14.4314,0.0
53099,-106.6867,-4.8475,-0.0734,0.0,-89.3578,0.0,-0.0,0.0,-0.3014,-0.0,0.0,14.4314,0.0
53115,-106.6867,-4.8475,-0.0734,0.0,-89.3578,0.0,-0.0,0.0,-0.3014,-0.0,0.0,14.4314,0.0
53131,-106.6867,-4.8475,-0.0734,0.0,-89.3578,0.0,-0.0,0.0,-0.3014,-0.0,0.0,14.4314,0.0
53147,-106.6867,-4.8475,-0.0734,0.0,-89.3578,0.0,-0.0,0.0,-0.3014,-0.0,0.0,14.4314,0.0
53163,-106.6867,-4.8475,-0.0734,0.0,-89.3578,0.0,-0.0,0.0,-0.3014,-0.0,0.0,14.4314,0.0
53179,-106.6867,-4.8475,-0.0734,0.0,-89.3578,0.0,-0.0,0.0,-0.3014,-0.0,0.0,14.4314,0.0
53195,-106.6867,-4.8475,-0.0734,0.0,-89.3578,0.0,-0.0,0.0,-0.3014,-0.0,0.0,14.4314,0.0
53211,-106.6867,-4.8475,-0.0734,0.0,-89.3578,0.0,-0.0,0.0,-0.3014,-0.0,0.0,14.4314,0.0
53227,-106.6867,-4.8475,-0.0734,0.0,-89.3578,0.0,-0.0,0.0,-0.3014,-0.0,0.0,14.4314,0.0
53243,-106.6867,-4.8475,-0.0734,0.0,-89.3578,0.0,-0.0,0.0,-0.3014,-0.0,0.0,14.4314,0.0
53259,-106.6867,-4.847,-0.0684,-0.0006,-89.3578,0.0,-0.0003,0.0234,0.1991,-0.0009,0.0772,1.6501,-0.0001
53275,-106.6867,-4.847,-0.0684,-0.0006,-89.3578,0.0,-0.0003,0.0234,0.1991,-0.0009,0.0772,1.6501,-0.0001
53291,-106.6867,-4.847,-0.0684,-0.0006,-89.3578,0.0,-0.0003,0.0234,0.1991,-0.0009,0.0772,1.6501,-0.0001
53307,-106.6867,-4.847,-0.0684,-0.0006,-89.3578,0.0,-0.0003,0.0234,0.1991,-0.0009,0.0772,1.6501,-0.0001
53323,-106.6867,-4.847,-0.0684,-0.0006,-89.3578,0.0,-0.0003,0.0234,0.1991,-0.0009,0.0772,1.6501,-0.0001
53339,-106.6867,-4.847,-0.0684,-0.0006,-89.3578,0.0,-0.0003,0.0234,0.1991,-0.0009,0.0772,1.6501,-0.0001
53355,-106.6867,-4.847,-0.0684,-0.0006,-89.3578,0.0,-0.0003,0.0234,0.1991,-0.0009,0.0772,1.6501,-0.0001
53371,-106.6867,-4.847,-0.0684,-0.0006,-89.3578,0.0,-0.0003,0.0234,0.1991,-0.0009,0.0772,1.6501,-0.0001
53390,-106.6868,-4.8416,-0.0466,-0.0053,-89.3529,-0.0001,-0.0006,0.1028,0.2043,-0.0027,0.6385,0.0419,0.1401
53403,-106.6868,-4.8416,-0.0466,-0.0053,-89.3529,-0.0001,-0.0006,0.1028,0.2043,-0.0027,0.6385,0.0419,0.1401
53419,-106.6868,-4.8416,-0.0466,-0.0053,-89.3529,-0.0001,-0.0006,0.1028,0.2043,-0.0027,0.6385,0.0419,0.1401
53435,-106.6868,-4.8416,-0.0466,-0.0053,-89.3529,-0.0001,-0.0006,0.1028,0.2043,-0.0027,0.6385,0.0419,0.1401
53451,-106.6868,-4.8416,-0.0466,-0.0053,-89.3529,-0.0001,-0.0006,0.1028,0.2043,-0.0027,0.6385,0.0419,0.1401
53467,-106.6868,-4.8416,-0.0466,-0.0053,-89.3529,-0.0001,-0.0006,0.1028,0.2043,-0.0027,0.6385,0.0419,0.1401
53492,-106.6872,-4.8037,-0.0301,-0.0297,-89.3531,0.0,-0.007,0.613,0.13,-0.0626,4.9954,-0.7274,-0.0453
53499,-106.6872,-4.8037,-0.0301,-0.0297,-89.3531,0.0,-0.007,0.613,0.13,-0.0626,4.9954,-0.7274,-0.0453
53515,-106.6872,-4.8037,-0.0301,-0.0297,-89.3531,0.0,-0.007,0.613,0.13,-0.0626,4.9954,-0.7274,-0.0453
53531,-106.6872,-4.8037,-0.0301,-0.0297,-89.3531,0.0,-0.007,0.613,0.13,-0.0626,4.9954,-0.7274,-0.0453
53547,-106.6872,-4.8037,-0.0301,-0.0297,-89.3531,0.0,-0.007,0.613,0.13,-0.0626,4.9954,-0.7274,-0.0453
53563,-106.6872,-4.8037,-0.0301,-0.0297,-89.3531,0.0,-0.007,0.613,0.13,-0.0626,4.9954,-0.7274,-0.0453
53579,-106.6872,-4.8037,-0.0301,-0.0297,-89.3531,0.0,-0.007,0.613,0.13,-0.0626,4.9954,-0.7274,-0.0453
53595,-106.6882,-4.7184,-0.0202,-0.0481,-89.3542,-0.0,-0.0103,0.9137,0.0872,-0.0324,2.9458,-0.4194,0.0077
53611,-106.6882,-4.7184,-0.0202,-0.0481,-89.3542,-0.0,-0.0103,0.9137,0.0872,-0.0324,2.9458,-0.4194,0.0077
53627,-106.6882,-4.7184,-0.0202,-0.0481,-89.3542,-0.0,-0.0103,0.9137,0.0872,-0.0324,2.9458,-0.4194,0.0077
53643,-106.6882,-4.7184,-0.0202,-0.0481,-89.3542,-0.0,-0.0103,0.9137,0.0872,-0.0324,2.9458,-0.4194,0.0077
53659,-106.6882,-4.7184,-0.0202,-0.0481,-89.3542,-0.0,-0.0103,0.9137,0.0872,-0.0324,2.9458,-0.4194,0.0077
53675,-106.6882,-4.7184,-0.0202,-0.0481,-89.3542,-0.0,-0.0103,0.9137,0.0872,-0.0324,2.9458,-0.4194,0.0077
53691,-106.6894,-4.615,-0.0151,-0.047,-89.3539,0.0006,-0.0207,1.2831,0.0396,-0.1089,3.8552,-0.4972,2.7257
53707,-106.6894,-4.615,-0.0151,-0.047,-89.3539,0.0006,-0.0207,1.2831,0.0396,-0.1089,3.8552,-0.4972,2.7257
53723,-106.6894,-4.615,-0.0151,-0.047,-89.3539,0.0006,-0.0207,1.2831,0.0396,-0.1089,3.8552,-0.4972,2.7257
53739,-106.6894,-4.615,-0.0151,-0.047,-89.3539,0.0006,-0.0207,1.2831,0.0396,-0.1089,3.8552,-0.4972,2.7257
53755,-106.6894,-4.615,-0.0151,-0.047,-89.3539,0.0006,-0.0207,1.2831,0.0396,-0.1089,3.8552,-0.4972,2.7257
53775,-106.6914,-4.504,-0.0129,-0.036,-89.3436,0.0011,-0.0181,1.2378,0.0173,0.0292,-0.5027,-0.2476,1.9208
53787,-106.6914,-4.504,-0.0129,-0.036,-89.3436,0.0011,-0.0181,1.2378,0.0173,0.0292,-0.5027,-0.2476,1.9208
53803,-106.6914,-4.504,-0.0129,-0.036,-89.3436,0.0011,-0.0181,1.2378,0.0173,0.0292,-0.5027,-0.2476,1.9208
53819,-106.6914,-4.504,-0.0129,-0.036,-89.3436,0.0011,-0.0181,1.2378,0.0173,0.0292,-0.5027,-0.2476,1.9208
53835,-106.6914,-4.504,-0.0129,-0.036,-89.3436,0.0011,-0.0181,1.2378,0.0173,0.0292,-0.5027,-0.2476,1.9208
53851,-106.6914,-4.504,-0.0129,-0.036,-89.3436,0.0011,-0.0181,1.2378,0.0173,0.0292,-0.5027,-0.2476,1.9208
53878,-106.6914,-4.504,-0.0129,-0.036,-89.3436,0.0011,-0.0181,1.2378,0.0173,0.0292,-0.5027,-0.2476,1.9208
53883,-106.6929,-4.3801,-0.0119,-0.0212,-89.3547,-0.001,-0.0088,1.2493,0.0075,0.0922,0.1131,-0.0976,1.3158
53899,-106.6929,-4.3801,-0.0119,-0.0212,-89.3547,-0.001,-0.0088,1.2493,0.0075,0.0922,0.1131,-0.0976,1.3158
53915,-106.6929,-4.3801,-0.0119,-0.0212,-89.3547,-0.001,-0.0088,1.2493,0.0075,0.0922,0.1131,-0.0976,1.3158
53931,-106.6929,-4.3801,-0.0119,-0.0212,-89.3547,-0.001,-0.0088,1.2493,0.0075,0.0922,0.1131,-0.0976,1.3158
53947,-106.6929,-4.3801,-0.0119,-0.0212,-89.3547,-0.001,-0.0088,1.2493,0.0075,0.0922,0.1131,-0.0976,1.3158
53963,-106.6929,-4.3801,-0.0119,-0.0212,-89.3547,-0.001,-0.0088,1.2493,0.0075,0.0922,0.1131,-0.0976,1.3158
53982,-106.6939,-4.2205,-0.0112,-0.0488,-89.3978,-0.0002,-0.0268,2.0221,0.0033,-0.1736,7.4627,-0.04,2.5634
53995,-106.6939,-4.2205,-0.0112,-0.0488,-89.3978,-0.0002,-0.0268,2.0221,0.0033,-0.1736,7.4627,-0.04,2.5634
54011,-106.6939,-4.2205,-0.0112,-0.0488,-89.3978,-0.0002,-0.0268,2.0221,0.0033,-0.1736,7.4627,-0.04,2.5634
54027,-106.6939,-4.2205,-0.0112,-0.0488,-89.3978,-0.0002,-0.0268,2.0221,0.0033,-0.1736,7.4627,-0.04,2.5634
54043,-106.6939,-4.2205,-0.0112,-0.0488,-89.3978,-0.0002,-0.0268,2.0221,0.0033,-0.1736,7.4627,-0.04,2.5634
54059,-106.6939,-4.2205,-0.0112,-0.0488,-89.3978,-0.0002,-0.0268,2.0221,0.0033,-0.1736,7.4627,-0.04,2.5634
54078,-106.6964,-4.0062,-0.0108,-0.0701,-89.407,0.0002,-0.0294,2.5568,0.0016,-0.0264,5.4544,-0.0179,-0.2043
54091,-106.6964,-4.0062,-0.0108,-0.0701,-89.407,0.0002,-0.0294,2.5568,0.0016,-0.0264,5.4544,-0.0179,-0.2043
54107,-106.6964,-4.0062,-0.0108,-0.0701,-89.407,0.0002,-0.0294,2.5568,0.0016,-0.0264,5.4544,-0.0179,-0.2043
54123,-106.6964,-4.0062,-0.0108,-0.0701,-89.407,0.0002,-0.0294,2.5568,0.0016,-0.0264,5.4544,-0.0179,-0.2043
54139,-106.6964,-4.0062,-0.0108,-0.0701,-89.407,0.0002,-0.0294,2.5568,0.0016,-0.0264,5.4544,-0.0179,-0.2043
54155,-106.6964,-4.0062,-0.0108,-0.0701,-89.407,0.0002,-0.0294,2.5568,0.0016,-0.0264,5.4544,-0.0179,-0.2043
54171,-106.6964,-4.0062,-0.0108,-0.0701,-89.407,0.0002,-0.0294,2.5568,0.0016,-0.0264,5.4544,-0.0179,-0.2043
54187,-106.6994,-3.7306,-0.0106,-0.0829,-89.3999,-0.0004,-0.0333,3.1379,0.0007,-0.0383,5.6129,-0.008,-1.4463
54203,-106.6994,-3.7306,-0.0106,-0.0829,-89.3999,-0.0004,-0.0333,3.1379,0.0007,-0.0383,5.6129,-0.008,-1.4463
54219,-106.6994,-3.7306,-0.0106,-0.0829,-89.3999,-0.0004,-0.0333,3.1379,0.0007,-0.0383,5.6129,-0.008,-1.4463
54235,-106.6994,-3.7306,-0.0106,-0.0829,-89.3999,-0.0004,-0.0333,3.1379,0.0007,-0.0383,5.6129,-0.008,-1.4463
54251,-106.6994,-3.7306,-0.0106,-0.0829,-89.3999,-0.0004,-0.0333,3.1379,0.0007,-0.0383,5.6129,-0.008,-1.4463
54267,-106.6994,-3.7306,-0.0106,-0.0829,-89.3999,-0.0004,-0.0333,3.1379,0.0007,-0.0383,5.6129,-0.008,-1.4463
54292,-106.7027,-3.3893,-0.0105,-0.0937,-89.4441,-0.0003,-0.0376,3.7848,0.0004,-0.043,6.5365,-0.0038,-1.2622
54299,-106.7027,-3.3893,-0.0105,-0.0937,-89.4441,-0.0003,-0.0376,3.7848,0.0004,-0.043,6.5365,-0.0038,-1.2622
54315,-106.7027,-3.3893,-0.0105,-0.0937,-89.4441,-0.0003,-0.0376,3.7848,0.0004,-0.043,6.5365,-0.0038,-1.2622
54331,-106.7027,-3.3893,-0.0105,-0.0937,-89.4441,-0.0003,-0.0376,3.7848,0.0004,-0.043,6.5365,-0.0038,-1.2622
54347,-106.7027,-3.3893,-0.0105,-0.0937,-89.4441,-0.0003,-0.0376,3.7848,0.0004,-0.043,6.5365,-0.0038,-1.2622
54363,-106.7027,-3.3893,-0.0105,-0.0937,-89.4441,-0.0003,-0.0376,3.7848,0.0004,-0.043,6.5365,-0.0038,-1.2622
54379,-106.706,-2.9946,-0.0105,-0.0934,-89.4947,-0.0013,-0.0378,4.2751,0.0002,-0.0028,5.0126,-0.0019,1.7296
54395,-106.706,-2.9946,-0.0105,-0.0934,-89.4947,-0.0013,-0.0378,4.2751,0.0002,-0.0028,5.0126,-0.0019,1.7296
54411,-106.706,-2.9946,-0.0105,-0.0934,-89.4947,-0.0013,-0.0378,4.2751,0.0002,-0.0028,5.0126,-0.0019,1.7296
54427,-106.706,-2.9946,-0.0105,-0.0934,-89.4947,-0.0013,-0.0378,4.2751,0.0002,-0.0028,5.0126,-0.0019,1.7296
54443,-106.706,-2.9946,-0.0105,-0.0934,-89.4947,-0.0013,-0.0378,4.2751,0.0002,-0.0028,5.0126,-0.0019,1.7296
54459,-106.706,-2.9946,-0.0105,-0.0934,-89.4947,-0.0013,-0.0378,4.2751,0.0002,-0.0028,5.0126,-0.0019,1.7296
54475,-106.706,-2.9946,-0.0105,-0.0934,-89.4947,-0.0013,-0.0378,4.2751,0.0002,-0.0028,5.0126,-0.0019,1.7296
54492,-106.7093,-2.5529,-0.0106,-0.0812,-89.5533,-0.0017,-0.0381,4.6662,0.0001,-0.0025,3.7162,-0.0008,-2.4259
54508,-106.7093,-2.5529,-0.0106,-0.0812,-89.5533,-0.0017,-0.0381,4.6662,0.0001,-0.0025,3.7162,-0.0008,-2.4259
54524,-106.7093,-2.5529,-0.0106,-0.0812,-89.5533,-0.0017,-0.0381,4.6662,0.0001,-0.0025,3.7162,-0.0008,-2.4259
54540,-106.7093,-2.5529,-0.0106,-0.0812,-89.5533,-0.0017,-0.0381,4.6662,0.0001,-0.0025,3.7162,-0.0008,-2.4259
54556,-106.7093,-2.5529,-0.0106,-0.0812,-89.5533,-0.0017,-0.0381,4.6662,0.0001,-0.0025,3.7162,-0.0008,-2.4259
54572,-106.7093,-2.5529,-0.0106,-0.0812,-89.5533,-0.0017,-0.0381,4.6662,0.0001,-0.0025,3.7162,-0.0008,-2.4259
54591,-106.7124,-2.0634,-0.0106,-0.0808,-89.6099,-0.0022,-0.0345,5.1923,0.0,0.0324,4.7608,-0.0005,1.3651
54604,-106.7124,-2.0634,-0.0106,-0.0808,-89.6099,-0.0022,-0.0345,5.1923,0.0,0.0324,4.7608,-0.0005,1.3651
54620,-106.7124,-2.0634,-0.0106,-0.0808,-89.6099,-0.0022,-0.0345,5.1923,0.0,0.0324,4.7608,-0.0005,1.3651
54636,-106.7124,-2.0634,-0.0106,-0.0808,-89.6099,-0.0022,-0.0345,5.1923,0.0,0.0324,4.7608,-0.0005,1.3651
54652,-106.7124,-2.0634,-0.0106,-0.0808,-89.6099,-0.0022,-0.0345,5.1923,0.0,0.0324,4.7608,-0.0005,1.3651
54668,-106.7124,-2.0634,-0.0106,-0.0808,-89.6099,-0.0022,-0.0345,5.1923,0.0,0.0324,4.7608,-0.0005,1.3651
54687,-106.7124,-2.0634,-0.0106,-0.0808,-89.6099,-0.0022,-0.0345,5.1923,0.0,0.0324,4.7608,-0.0005,1.3651
54700,-106.7155,-1.5417,-0.0105,-0.0919,-89.6518,-0.002,-0.0375,5.8552,0.0,-0.0317,6.9895,-0.0002,-1.7366
54716,-106.7155,-1.5417,-0.0105,-0.0919,-89.6518,-0.002,-0.0375,5.8552,0.0,-0.0317,6.9895,-0.0002,-1.7366
54732,-106.7155,-1.5417,-0.0105,-0.0919,-89.6518,-0.002,-0.0375,5.8552,0.0,-0.0317,6.9895,-0.0002,-1.7366
54748,-106.7155,-1.5417,-0.0105,-0.0919,-89.6518,-0.002,-0.0375,5.8552,0.0,-0.0317,6.9895,-0.0002,-1.7366
54764,-106.7155,-1.5417,-0.0105,-0.0919,-89.6518,-0.002,-0.0375,5.8552,0.0,-0.0317,6.9895,-0.0002,-1.7366
54791,-106.7155,-1.5417,-0.0105,-0.0919,-89.6518,-0.002,-0.0375,5.8552,0.0,-0.0317,6.9895,-0.0002,-1.7366
54796,-106.7194,-0.9237,-0.0104,-0.1035,-89.6443,-0.0015,-0.0396,6.5619,0.0,-0.0202,7.102,-0.0002,1.5065
54812,-106.7194,-0.9237,-0.0104,-0.1035,-89.6443,-0.0015,-0.0396,6.5619,0.0,-0.0202,7.102,-0.0002,1.5065
54828,-106.7194,-0.9237,-0.0104,-0.1035,-89.6443,-0.0015,-0.0396,6.5619,0.0,-0.0202,7.102,-0.0002,1.5065
54844,-106.7194,-0.9237,-0.0104,-0.1035,-89.6443,-0.0015,-0.0396,6.5619,0.0,-0.0202,7.102,-0.0002,1.5065
54860,-106.7194,-0.9237,-0.0104,-0.1035,-89.6443,-0.0015,-0.0396,6.5619,0.0,-0.0202,7.102,-0.0002,1.5065
54876,-106.7194,-0.9237,-0.0104,-0.1035,-89.6443,-0.0015,-0.0396,6.5619,0.0,-0.0202,7.102,-0.0002,1.5065
54892,-106.7194,-0.9237,-0.0104,-0.1035,-89.6443,-0.0015,-0.0396,6.5619,0.0,-0.0202,7.102,-0.0002,1.5065
54909,-106.7235,-0.2314,-0.0103,-0.1105,-89.656,-0.0009,-0.0447,7.2852,-0.0,-0.0474,6.6005,-0.0001,-1.1907
54924,-106.7235,-0.2314,-0.0103,-0.1105,-89.656,-0.0009,-0.0447,7.2852,-0.0,-0.0474,6.6005,-0.0001,-1.1907
54940,-106.7235,-0.2314,-0.0103,-0.1105,-89.656,-0.0009,-0.0447,7.2852,-0.0,-0.0474,6.6005,-0.0001,-1.1907
54956,-106.7235,-0.2314,-0.0103,-0.1105,-89.656,-0.0009,-0.0447,7.2852,-0.0,-0.0474,6.6005,-0.0001,-1.1907
54972,-106.7235,-0.2314,-0.0103,-0.1105,-89.656,-0.0009,-0.0447,7.2852,-0.0,-0.0474,6.6005,-0.0001,-1.1907
54988,-106.7235,-0.2314,-0.0103,-0.1105,-89.656,-0.0009,-0.0447,7.2852,-0.0,-0.0474,6.6005,-0.0001,-1.1907
55004,-106.7282,0.5327,-0.0103,-0.1134,-89.6503,-0.0005,-0.0481,7.9778,0.0,-0.0331,6.8711,0.0001,0.896
55020,-106.7282,0.5327,-0.0103,-0.1134,-89.6503,-0.0005,-0.0481,7.9778,0.0,-0.0331,6.8711,0.0001,0.896
55036,-106.7282,0.5327,-0.0103,-0.1134,-89.6503,-0.0005,-0.0481,7.9778,0.0,-0.0331,6.8711,0.0001,0.896
55052,-106.7282,0.5327,-0.0103,-0.1134,-89.6503,-0.0005,-0.0481,7.9778,0.0,-0.0331,6.8711,0.0001,0.896
55068,-106.7282,0.5327,-0.0103,-0.1134,-89.6503,-0.0005,-0.0481,7.9778,0.0,-0.0331,6.8711,0.0001,0.896
55084,-106.7282,0.5327,-0.0103,-0.1134,-89.6503,-0.0005,-0.0481,7.9778,0.0,-0.0331,6.8711,0.0001,0.896
55100,-106.7331,1.3466,-0.0103,-0.1126,-89.654,-0.0003,-0.0524,8.6255,0.0,-0.0443,6.6139,-0.0,-0.443
55116,-106.7331,1.3466,-0.0103,-0.1126,-89.654,-0.0003,-0.0524,8.6255,0.0,-0.0443,6.6139,-0.0,-0.443
55132,-106.7331,1.3466,-0.0103,-0.1126,-89.654,-0.0003,-0.0524,8.6255,0.0,-0.0443,6.6139,-0.0,-0.443
55148,-106.7331,1.3466,-0.0103,-0.1126,-89.654,-0.0003,-0.0524,8.6255,0.0,-0.0443,6.6139,-0.0,-0.443
55164,-106.7331,1.3466,-0.0103,-0.1126,-89.654,-0.0003,-0.0524,8.6255,0.0,-0.0443,6.6139,-0.0,-0.443
55180,-106.7331,1.3466,-0.0103,-0.1126,-89.654,-0.0003,-0.0524,8.6255,0.0,-0.0443,6.6139,-0.0,-0.443
55199,-106.7384,2.2088,-0.0104,-0.1092,-89.6527,-0.0002,-0.0558,9.2153,0.0,-0.0352,6.1124,0.0,0.0703
55212,-106.7384,2.2088,-0.0104,-0.1092,-89.6527,-0.0002,-0.0558,9.2153,0.0,-0.0352,6.1124,0.0,0.0703
55228,-106.7384,2.2088,-0.0104,-0.1092,-89.6527,-0.0002,-0.0558,9.2153,0.0,-0.0352,6.1124,0.0,0.0703
55244,-106.7384,2.2088,-0.0104,-0.1092,-89.6527,-0.0002,-0.0558,9.2153,0.0,-0.0352,6.1124,0.0,0.0703
55260,-106.7384,2.2088,-0.0104,-0.1092,-89.6527,-0.0002,-0.0558,9.2153,0.0,-0.0352,6.1124,0.0,0.0703
55276,-106.7384,2.2088,-0.0104,-0.1092,-89.6527,-0.0002,-0.0558,9.2153,0.0,-0.0352,6.1124,0.0,0.0703
55296,-106.7441,3.1554,-0.0104,-0.1001,-89.653,-0.0001,-0.0588,9.7115,0.0,-0.0303,4.9708,0.0,-0.0039
55308,-106.7441,3.1554,-0.0104,-0.1001,-89.653,-0.0001,-0.0588,9.7115,0.0,-0.0303,4.9708,0.0,-0.0039
55324,-106.7441,3.1554,-0.0104,-0.1001,-89.653,-0.0001,-0.0588,9.7115,0.0,-0.0303,4.9708,0.0,-0.0039
55340,-106.7441,3.1554,-0.0104,-0.1001,-89.653,-0.0001,-0.0588,9.7115,0.0,-0.0303,4.9708,0.0,-0.0039
55356,-106.7441,3.1554,-0.0104,-0.1001,-89.653,-0.0001,-0.0588,9.7115,0.0,-0.0303,4.9708,0.0,-0.0039
55372,-106.7441,3.1554,-0.0104,-0.1001,-89.653,-0.0001,-0.0588,9.7115,0.0,-0.0303,4.9708,0.0,-0.0039
55388,-106.7441,3.1554,-0.0104,-0.1001,-89.653,-0.0001,-0.0588,9.7115,0.0,-0.0303,4.9708,0.0,-0.0039
55404,-106.7502,4.1508,-0.0105,-0.0907,-89.653,-0.0001,-0.0617,10.1811,-0.0,-0.027,4.4731,-0.0001,0.0001
55420,-106.7502,4.1508,-0.0105,-0.0907,-89.653,-0.0001,-0.0617,10.1811,-0.0,-0.027,4.4731,-0.0001,0.0001
55436,-106.7502,4.1508,-0.0105,-0.0907,-89.653,-0.0001,-0.0617,10.1811,-0.0,-0.027,4.4731,-0.0001,0.0001
55452,-106.7502,4.1508,-0.0105,-0.0907,-89.653,-0.0001,-0.0617,10.1811,-0.0,-0.027,4.4731,-0.0001,0.0001
55468,-106.7502,4.1508,-0.0105,-0.0907,-89.653,-0.0001,-0.0617,10.1811,-0.0,-0.027,4.4731,-0.0001,0.0001
55484,-106.7502,4.1508,-0.0105,-0.0907,-89.653,-0.0001,-0.0617,10.1811,-0.0,-0.027,4.4731,-0.0001,0.0001
55500,-106.7502,4.1508,-0.0105,-0.0907,-89.653,-0.0001,-0.0617,10.1811,-0.0,-0.027,4.4731,-0.0001,0.0001
55516,-106.7565,5.1937,-0.0105,-0.0853,-89.6529,-0.0001,-0.0645,10.6506,0.0,-0.0253,4.1713,0.0001,0.0
55532,-106.7565,5.1937,-0.0105,-0.0853,-89.6529,-0.0001,-0.0645,10.6506,0.0,-0.0253,4.1713,0.0001,0.0
55548,-106.7565,5.1937,-0.0105,-0.0853,-89.6529,-0.0001,-0.0645,10.6506,0.0,-0.0253,4.1713,0.0001,0.0
55564,-106.7565,5.1937,-0.0105,-0.0853,-89.6529,-0.0001,-0.0645,10.6506,0.0,-0.0253,4.1713,0.0001,0.0
55580,-106.7565,5.1937,-0.0105,-0.0853,-89.6529,-0.0001,-0.0645,10.6506,0.0,-0.0253,4.1713,0.0001,0.0
55596,-106.7565,5.1937,-0.0105,-0.0853,-89.6529,-0.0001,-0.0645,10.6506,0.0,-0.0253,4.1713,0.0001,0.0
55612,-106.7626,6.2082,-0.0105,-0.0825,-89.653,-0.0,-0.0672,11.0872,0.0,-0.0283,4.6842,-0.0001,-0.0001
55628,-106.7626,6.2082,-0.0105,-0.0825,-89.653,-0.0,-0.0672,11.0872,0.0,-0.0283,4.6842,-0.0001,-0.0001
55644,-106.7626,6.2082,-0.0105,-0.0825,-89.653,-0.0,-0.0672,11.0872,0.0,-0.0283,4.6842,-0.0001,-0.0001
55660,-106.7626,6.2082,-0.0105,-0.0825,-89.653,-0.0,-0.0672,11.0872,0.0,-0.0283,4.6842,-0.0001,-0.0001
55676,-106.7626,6.2082,-0.0105,-0.0825,-89.653,-0.0,-0.0672,11.0872,0.0,-0.0283,4.6842,-0.0001,-0.0001
55692,-106.7626,6.2082,-0.0105,-0.0825,-89.653,-0.0,-0.0672,11.0872,0.0,-0.0283,4.6842,-0.0001,-0.0001
55712,-106.7695,7.3399,-0.0106,-0.0779,-89.653,-0.0,-0.0697,11.5003,-0.0,-0.0234,3.8578,-0.0001,-0.0001
55724,-106.7695,7.3399,-0.0106,-0.0779,-89.653,-0.0,-0.0697,11.5003,-0.0,-0.0234,3.8578,-0.0001,-0.0001
55740,-106.7695,7.3399,-0.0106,-0.0779,-89.653,-0.0,-0.0697,11.5003,-0.0,-0.0234,3.8578,-0.0001,-0.0001
55756,-106.7695,7.3399,-0.0106,-0.0779,-89.653,-0.0,-0.0697,11.5003,-0.0,-0.0234,3.8578,-0.0001,-0.0001
55772,-106.7695,7.3399,-0.0106,-0.0779,-89.653,-0.0,-0.0697,11.5003,-0.0,-0.0234,3.8578,-0.0001,-0.0001
55788,-106.7695,7.3399,-0.0106,-0.0779,-89.653,-0.0,-0.0697,11.5003,-0.0,-0.0234,3.8578,-0.0001,-0.0001
55808,-106.7761,8.4324,-0.0106,-0.0722,-89.653,-0.0,-0.0718,11.8479,-0.0,-0.0225,3.7186,0.0,-0.0001
55820,-106.7761,8.4324,-0.0106,-0.0722,-89.653,-0.0,-0.0718,11.8479,-0.0,-0.0225,3.7186,0.0,-0.0001
55836,-106.7761,8.4324,-0.0106,-0.0722,-89.653,-0.0,-0.0718,11.8479,-0.0,-0.0225,3.7186,0.0,-0.0001
55852,-106.7761,8.4324,-0.0106,-0.0722,-89.653,-0.0,-0.0718,11.8479,-0.0,-0.0225,3.7186,0.0,-0.0001
55868,-106.7761,8.4324,-0.0106,-0.0722,-89.653,-0.0,-0.0718,11.8479,-0.0,-0.0225,3.7186,0.0,-0.0001
55884,-106.7761,8.4324,-0.0106,-0.0722,-89.653,-0.0,-0.0718,11.8479,-0.0,-0.0225,3.7186,0.0,-0.0001
55900,-106.7761,8.4324,-0.0106,-0.0722,-89.653,-0.0,-0.0718,11.8479,-0.0,-0.0225,3.7186,0.0,-0.0001
55916,-106.7834,9.6363,-0.0107,-0.0666,-89.653,0.0,-0.0739,12.1941,0.0,-0.0194,3.2055,0.0001,-0.0002
55932,-106.7834,9.6363,-0.0107,-0.0666,-89.653,0.0,-0.0739,12.1941,0.0,-0.0194,3.2055,0.0001,-0.0002
55948,-106.7834,9.6363,-0.0107,-0.0666,-89.653,0.0,-0.0739,12.1941,0.0,-0.0194,3.2055,0.0001,-0.0002
55980,-106.7834,9.6363,-0.0107,-0.0666,-89.653,0.0,-0.0739,12.1941,0.0,-0.0194,3.2055,0.0001,-0.0002
55996,-106.7834,9.6363,-0.0107,-0.0666,-89.653,0.0,-0.0739,12.1941,0.0,-0.0194,3.2055,0.0001,-0.0002
56015,-106.8211,10.8643,-0.0107,-0.0508,-91.0818,0.126,-0.919,12.2883,0.001,-8.3883,0.935,0.01,-31.1646
56028,-106.8211,10.8643,-0.0107,-0.0508,-91.0818,0.126,-0.919,12.2883,0.001,-8.3883,0.935,0.01,-31.1646
56044,-106.8211,10.8643,-0.0107,-0.0508,-91.0818,0.126,-0.919,12.2883,0.001,-8.3883,0.935,0.01,-31.1646
56060,-106.8211,10.8643,-0.0107,-0.0508,-91.0818,0.126,-0.919,12.2883,0.001,-8.3883,0.935,0.01,-31.1646
56076,-106.8211,10.8643,-0.0107,-0.0508,-91.0818,0.126,-0.919,12.2883,0.001,-8.3883,0.935,0.01,-31.1646
56092,-106.8211,10.8643,-0.0107,-0.0508,-91.0818,0.126,-0.919,12.2883,0.001,-8.3883,0.935,0.01,-31.1646
56115,-106.9241,12.065,-0.0109,-0.0135,-96.7405,0.2602,-1.8525,12.082,0.0011,-9.4545,-2.0891,0.0008,-80.7537
56124,-106.9241,12.065,-0.0109,-0.0135,-96.7405,0.2602,-1.8525,12.082,0.0011,-9.4545,-2.0891,0.0008,-80.7537
56140,-106.9241,12.065,-0.0109,-0.0135,-96.7405,0.2602,-1.8525,12.082,0.0011,-9.4545,-2.0891,0.0008,-80.7537
56156,-106.9241,12.065,-0.0109,-0.0135,-96.7405,0.2602,-1.8525,12.082,0.0011,-9.4545,-2.0891,0.0008,-80.7537
56172,-106.9241,12.065,-0.0109,-0.0135,-96.7405,0.2602,-1.8525,12.082,0.0011,-9.4545,-2.0891,0.0008,-80.7537
56188,-106.9241,12.065,-0.0109,-0.0135,-96.7405,0.2602,-1.8525,12.082,0.0011,-9.4545,-2.0891,0.0008,-80.7537
56204,-106.9241,12.065,-0.0109,-0.0135,-96.7405,0.2602,-1.8525,12.082,0.0011,-9.4545,-2.0891,0.0008,-80.7537
56220,-107.0579,13.2425,-0.0111,0.0162,-107.9126,0.2519,-2.2821,11.844,-0.0001,-4.1662,-2.3078,-0.0119,-138.3743
56236,-107.0579,13.2425,-0.0111,0.0162,-107.9126,0.2519,-2.2821,11.844,-0.0001,-4.1662,-2.3078,-0.0119,-138.3743
56252,-107.0579,13.2425,-0.0111,0.0162,-107.9126,0.2519,-2.2821,11.844,-0.0001,-4.1662,-2.3078,-0.0119,-138.3743
56268,-107.0579,13.2425,-0.0111,0.0162,-107.9126,0.2519,-2.2821,11.844,-0.0001,-4.1662,-2.3078,-0.0119,-138.3743
56284,-107.0579,13.2425,-0.0111,0.0162,-107.9126,0.2519,-2.2821,11.844,-0.0001,-4.1662,-2.3078,-0.0119,-138.3743
56300,-107.0579,13.2425,-0.0111,0.0162,-107.9126,0.2519,-2.2821,11.844,-0.0001,-4.1662,-2.3078,-0.0119,-138.3743
56316,-107.1539,14.2897,-0.011,0.0023,-123.3797,0.1133,-1.8457,11.7887,-0.0012,4.6933,-0.5957,-0.0113,-186.7356
56332,-107.1539,14.2897,-0.011,0.0023,-123.3797,0.1133,-1.8457,11.7887,-0.0012,4.6933,-0.5957,-0.0113,-186.7356
56348,-107.1539,14.2897,-0.011,0.0023,-123.3797,0.1133,-1.8457,11.7887,-0.0012,4.6933,-0.5957,-0.0113,-186.7356
56364,-107.1539,14.2897,-0.011,0.0023,-123.3797,0.1133,-1.8457,11.7887,-0.0012,4.6933,-0.5957,-0.0113,-186.7356
56380,-107.1539,14.2897,-0.011,0.0023,-123.3797,0.1133,-1.8457,11.7887,-0.0012,4.6933,-0.5957,-0.0113,-186.7356
56400,-107.1423,15.3009,-0.0104,-0.0884,-142.1027,-0.1447,-0.1215,11.7541,0.0007,18.4174,-0.3696,0.0202,-208.1965
56412,-107.1423,15.3009,-0.0104,-0.0884,-142.1027,-0.1447,-0.1215,11.7541,0.0007,18.4174,-0.3696,0.0202,-208.1965
56428,-107.1423,15.3009,-0.0104,-0.0884,-142.1027,-0.1447,-0.1215,11.7541,0.0007,18.4174,-0.3696,0.0202,-208.1965
56444,-107.1423,15.3009,-0.0104,-0.0884,-142.1027,-0.1447,-0.1215,11.7541,0.0007,18.4174,-0.3696,0.0202,-208.1965
56460,-107.1423,15.3009,-0.0104,-0.0884,-142.1027,-0.1447,-0.1215,11.7541,0.0007,18.4174,-0.3696,0.0202,-208.1965
56476,-107.1423,15.3009,-0.0104,-0.0884,-142.1027,-0.1447,-0.1215,11.7541,0.0007,18.4174,-0.3696,0.0202,-208.1965
56495,-106.9687,16.257,-0.0095,-0.2003,-162.4575,-0.389,2.0969,11.0991,0.0021,23.3339,-6.8891,0.0146,-218.1153
56508,-106.9687,16.257,-0.0095,-0.2003,-162.4575,-0.389,2.0969,11.0991,0.0021,23.3339,-6.8891,0.0146,-218.1153
56524,-106.9687,16.257,-0.0095,-0.2003,-162.4575,-0.389,2.0969,11.0991,0.0021,23.3339,-6.8891,0.0146,-218.1153
56540,-106.9687,16.257,-0.0095,-0.2003,-162.4575,-0.389,2.0969,11.0991,0.0021,23.3339,-6.8891,0.0146,-218.1153
56556,-106.9687,16.257,-0.0095,-0.2003,-162.4575,-0.389,2.0969,11.0991,0.0021,23.3339,-6.8891,0.0146,-218.1153
56588,-106.9687,16.257,-0.0095,-0.2003,-162.4575,-0.389,2.0969,11.0991,0.0021,23.3339,-6.8891,0.0146,-218.1153
56604,-106.6458,17.0772,-0.0087,-0.2828,176.6736,-0.5623,4.1365,9.6966,0.0016,21.7706,-14.9695,-0.0055,-226.9649
56620,-106.6458,17.0772,-0.0087,-0.2828,176.6736,-0.5623,4.1365,9.6966,0.0016,21.7706,-14.9695,-0.0055,-226.9649
56636,-106.6458,17.0772,-0.0087,-0.2828,176.6736,-0.5623,4.1365,9.6966,0.0016,21.7706,-14.9695,-0.0055,-226.9649
56652,-106.6458,17.0772,-0.0087,-0.2828,176.6736,-0.5623,4.1365,9.6966,0.0016,21.7706,-14.9695,-0.0055,-226.9649
56668,-106.6458,17.0772,-0.0087,-0.2828,176.6736,-0.5623,4.1365,9.6966,0.0016,21.7706,-14.9695,-0.0055,-226.9649
56684,-106.6458,17.0772,-0.0087,-0.2828,176.6736,-0.5623,4.1365,9.6966,0.0016,21.7706,-14.9695,-0.0055,-226.9649
56700,-106.2203,17.7543,-0.0083,-0.3076,153.9368,-0.7543,4.8244,7.2373,0.0017,6.866,-24.5487,0.0011,-224.555
56716,-106.2203,17.7543,-0.0083,-0.3076,153.9368,-0.7543,4.8244,7.2373,0.0017,6.866,-24.5487,0.0011,-224.555
56732,-106.2203,17.7543,-0.0083,-0.3076,153.9368,-0.7543,4.8244,7.2373,0.0017,6.866,-24.5487,0.0011,-224.555
56748,-106.2203,17.7543,-0.0083,-0.3076,153.9368,-0.7543,4.8244,7.2373,0.0017,6.866,-24.5487,0.0011,-224.555
56764,-106.2203,17.7543,-0.0083,-0.3076,153.9368,-0.7543,4.8244,7.2373,0.0017,6.866,-24.5487,0.0011,-224.555
56783,-105.9431,18.2305,-0.0091,-0.2004,135.8205,-0.8711,3.0371,6.1938,0.0036,-19.9901,-11.6712,0.0216,-184.2547
56796,-105.9431,18.2305,-0.0091,-0.2004,135.8205,-0.8711,3.0371,6.1938,0.0036,-19.9901,-11.6712,0.0216,-184.2547
56812,-105.9431,18.2305,-0.0091,-0.2004,135.8205,-0.8711,3.0371,6.1938,0.0036,-19.9901,-11.6712,0.0216,-184.2547
56828,-105.9431,18.2305,-0.0091,-0.2004,135.8205,-0.8711,3.0371,6.1938,0.0036,-19.9901,-11.6712,0.0216,-184.2547
56844,-105.9431,18.2305,-0.0091,-0.2004,135.8205,-0.8711,3.0371,6.1938,0.0036,-19.9901,-11.6712,0.0216,-184.2547
56860,-105.9431,18.2305,-0.0091,-0.2004,135.8205,-0.8711,3.0371,6.1938,0.0036,-19.9901,-11.6712,0.0216,-184.2547
56876,-105.8654,18.7187,-0.0102,-0.0318,121.6042,-0.8937,0.886,6.5152,0.0004,-24.3664,3.6408,-0.0362,-138.0144
56892,-105.8654,18.7187,-0.0102,-0.0318,121.6042,-0.8937,0.886,6.5152,0.0004,-24.3664,3.6408,-0.0362,-138.0144
56908,-105.8654,18.7187,-0.0102,-0.0318,121.6042,-0.8937,0.886,6.5152,0.0004,-24.3664,3.6408,-0.0362,-138.0144
56924,-105.8654,18.7187,-0.0102,-0.0318,121.6042,-0.8937,0.886,6.5152,0.0004,-24.3664,3.6408,-0.0362,-138.0144
56940,-105.8654,18.7187,-0.0102,-0.0318,121.6042,-0.8937,0.886,6.5152,0.0004,-24.3664,3.6408,-0.0362,-138.0144
56956,-105.8654,18.7187,-0.0102,-0.0318,121.6042,-0.8937,0.886,6.5152,0.0004,-24.3664,3.6408,-0.0362,-138.0144
56975,-105.9365,19.3963,-0.0082,-0.0396,110.9084,-0.5147,-0.3984,7.6227,0.0078,-12.887,11.1125,0.0743,-92.0616
56988,-105.9365,19.3963,-0.0082,-0.0396,110.9084,-0.5147,-0.3984,7.6227,0.0078,-12.887,11.1125,0.0743,-92.0616
57004,-105.9365,19.3963,-0.0082,-0.0396,110.9084,-0.5147,-0.3984,7.6227,0.0078,-12.887,11.1125,0.0743,-92.0616
57020,-105.9365,19.3963,-0.0082,-0.0396,110.9084,-0.5147,-0.3984,7.6227,0.0078,-12.887,11.1125,0.0743,-92.0616
57036,-105.9365,19.3963,-0.0082,-0.0396,110.9084,-0.5147,-0.3984,7.6227,0.0078,-12.887,11.1125,0.0743,-92.0616
57052,-105.9365,19.3963,-0.0082,-0.0396,110.9084,-0.5147,-0.3984,7.6227,0.0078,-12.887,11.1125,0.0743,-92.0616
57068,-106.0085,20.1407,-0.0116,0.1473,102.6371,-0.3327,0.1679,8.3128,-0.0108,5.9721,7.2781,-0.1967,-84.7711
57100,-106.0085,20.1407,-0.0116,0.1473,102.6371,-0.3327,0.1679,8.3128,-0.0108,5.9721,7.2781,-0.1967,-84.7711
57116,-106.0085,20.1407,-0.0116,0.1473,102.6371,-0.3327,0.1679,8.3128,-0.0108,5.9721,7.2781,-0.1967,-84.7711
57132,-106.0085,20.1407,-0.0116,0.1473,102.6371,-0.3327,0.1679,8.3128,-0.0108,5.9721,7.2781,-0.1967,-84.7711
57148,-106.0085,20.1407,-0.0116,0.1473,102.6371,-0.3327,0.1679,8.3128,-0.0108,5.9721,7.2781,-0.1967,-84.7711
57167,-106.0456,20.9963,-0.0122,0.1512,96.0801,-0.1924,-0.2389,8.8146,-0.0023,-3.8868,4.7948,0.0814,-40.2262
57180,-106.0456,20.9963,-0.0122,0.1512,96.0801,-0.1924,-0.2389,8.8146,-0.0023,-3.8868,4.7948,0.0814,-40.2262
57196,-106.0456,20.9963,-0.0122,0.1512,96.0801,-0.1924,-0.2389,8.8146,-0.0023,-3.8868,4.7948,0.0814,-40.2262
57212,-106.0456,20.9963,-0.0122,0.1512,96.0801,-0.1924,-0.2389,8.8146,-0.0023,-3.8868,4.7948,0.0814,-40.2262
57228,-106.0456,20.9963,-0.0122,0.1512,96.0801,-0.1924,-0.2389,8.8146,-0.0023,-3.8868,4.7948,0.0814,-40.2262
57244,-106.0456,20.9963,-0.0122,0.1512,96.0801,-0.1924,-0.2389,8.8146,-0.0023,-3.8868,4.7948,0.0814,-40.2262
57263,-106.0456,20.9963,-0.0122,0.1512,96.0801,-0.1924,-0.2389,8.8146,-0.0023,-3.8868,4.7948,0.0814,-40.2262
57276,-106.1087,21.8601,-0.012,0.1124,94.069,-0.196,-0.5982,9.0056,0.0003,-3.706,1.9695,0.0269,-9.5514
57292,-106.1087,21.8601,-0.012,0.1124,94.069,-0.196,-0.5982,9.0056,0.0003,-3.706,1.9695,0.0269,-9.5514
57308,-106.1087,21.8601,-0.012,0.1124,94.069,-0.196,-0.5982,9.0056,0.0003,-3.706,1.9695,0.0269,-9.5514
57324,-106.1087,21.8601,-0.012,0.1124,94.069,-0.196,-0.5982,9.0056,0.0003,-3.706,1.9695,0.0269,-9.5514
57340,-106.1087,21.8601,-0.012,0.1124,94.069,-0.196,-0.5982,9.0056,0.0003,-3.706,1.9695,0.0269,-9.5514
57356,-106.1087,21.8601,-0.012,0.1124,94.069,-0.196,-0.5982,9.0056,0.0003,-3.706,1.9695,0.0269,-9.5514
57376,-106.1728,22.767,-0.0117,0.0744,93.5315,-0.1211,-0.6003,9.1247,-0.0,-0.0197,1.1107,-0.0035,-1.8062
57388,-106.1728,22.767,-0.0117,0.0744,93.5315,-0.1211,-0.6003,9.1247,-0.0,-0.0197,1.1107,-0.0035,-1.8062
57404,-106.1728,22.767,-0.0117,0.0744,93.5315,-0.1211,-0.6003,9.1247,-0.0,-0.0197,1.1107,-0.0035,-1.8062
57420,-106.1728,22.767,-0.0117,0.0744,93.5315,-0.1211,-0.6003,9.1247,-0.0,-0.0197,1.1107,-0.0035,-1.8062
57436,-106.1728,22.767,-0.0117,0.0744,93.5315,-0.1211,-0.6003,9.1247,-0.0,-0.0197,1.1107,-0.0035,-1.8062
57452,-106.1728,22.767,-0.0117,0.0744,93.5315,-0.1211,-0.6003,9.1247,-0.0,-0.0197,1.1107,-0.0035,-1.8062
57471,-106.1728,22.767,-0.0117,0.0744,93.5315,-0.1211,-0.6003,9.1247,-0.0,-0.0197,1.1107,-0.0035,-1.8062
57484,-106.2318,23.6845,-0.0115,0.0489,93.387,-0.0634,-0.5716,9.217,-0.0001,0.2711,0.8721,-0.0009,0.1816
57500,-106.2318,23.6845,-0.0115,0.0489,93.387,-0.0634,-0.5716,9.217,-0.0001,0.2711,0.8721,-0.0009,0.1816
57516,-106.2318,23.6845,-0.0115,0.0489,93.387,-0.0634,-0.5716,9.217,-0.0001,0.2711,0.8721,-0.0009,0.1816
57532,-106.2318,23.6845,-0.0115,0.0489,93.387,-0.0634,-0.5716,9.217,-0.0001,0.2711,0.8721,-0.0009,0.1816
57548,-106.2318,23.6845,-0.0115,0.0489,93.387,-0.0634,-0.5716,9.217,-0.0001,0.2711,0.8721,-0.0009,0.1816
57564,-106.2318,23.6845,-0.0115,0.0489,93.387,-0.0634,-0.5716,9.217,-0.0001,0.2711,0.8721,-0.0009,0.1816
57580,-106.2866,24.5853,-0.0114,0.0341,93.3477,-0.0324,-0.5566,9.302,-0.0001,0.1541,0.8743,0.0007,0.6478
57596,-106.2866,24.5853,-0.0114,0.0341,93.3477,-0.0324,-0.5566,9.302,-0.0001,0.1541,0.8743,0.0007,0.6478
57612,-106.2866,24.5853,-0.0114,0.0341,93.3477,-0.0324,-0.5566,9.302,-0.0001,0.1541,0.8743,0.0007,0.6478
57628,-106.2866,24.5853,-0.0114,0.0341,93.3477,-0.0324,-0.5566,9.302,-0.0001,0.1541,0.8743,0.0007,0.6478
57644,-106.2866,24.5853,-0.0114,0.0341,93.3477,-0.0324,-0.5566,9.302,-0.0001,0.1541,0.8743,0.0007,0.6478
57660,-106.2866,24.5853,-0.0114,0.0341,93.3477,-0.0324,-0.5566,9.302,-0.0001,0.1541,0.8743,0.0007,0.6478
57680,-106.3419,25.5191,-0.0113,0.0244,93.3365,-0.0163,-0.5512,9.3686,0.0,0.0542,0.6656,0.0007,0.849
57692,-106.3419,25.5191,-0.0113,0.0244,93.3365,-0.0163,-0.5512,9.3686,0.0,0.0542,0.6656,0.0007,0.849
57708,-106.3419,25.5191,-0.0113,0.0244,93.3365,-0.0163,-0.5512,9.3686,0.0,0.0542,0.6656,0.0007,0.849
57724,-106.3419,25.5191,-0.0113,0.0244,93.3365,-0.0163,-0.5512,9.3686,0.0,0.0542,0.6656,0.0007,0.849
57740,-106.3419,25.5191,-0.0113,0.0244,93.3365,-0.0163,-0.5512,9.3686,0.0,0.0542,0.6656,0.0007,0.849
57756,-106.3419,25.5191,-0.0113,0.0244,93.3365,-0.0163,-0.5512,9.3686,0.0,0.0542,0.6656,0.0007,0.849
57772,-106.3419,25.5191,-0.0113,0.0244,93.3365,-0.0163,-0.5512,9.3686,0.0,0.0542,0.6656,0.0007,0.849
57788,-106.3969,26.4595,-0.0113,0.0185,93.3332,-0.0084,-0.551,9.433,0.0,0.0013,0.6239,0.0002,0.8822
57804,-106.3969,26.4595,-0.0113,0.0185,93.3332,-0.0084,-0.551,9.433,0.0,0.0013,0.6239,0.0002,0.8822
57820,-106.3969,26.4595,-0.0113,0.0185,93.3332,-0.0084,-0.551,9.433,0.0,0.0013,0.6239,0.0002,0.8822
57836,-106.3969,26.4595,-0.0113,0.0185,93.3332,-0.0084,-0.551,9.433,0.0,0.0013,0.6239,0.0002,0.8822
57852,-106.3969,26.4595,-0.0113,0.0185,93.3332,-0.0084,-0.551,9.433,0.0,0.0013,0.6239,0.0002,0.8822
57868,-106.4501,27.3726,-0.0113,0.0159,93.3319,-0.0045,-0.5537,9.5044,0.0,-0.0273,0.7411,0.0001,0.8045
57884,-106.4501,27.3726,-0.0113,0.0159,93.3319,-0.0045,-0.5537,9.5044,0.0,-0.0273,0.7411,0.0001,0.8045
57900,-106.4501,27.3726,-0.0113,0.0159,93.3319,-0.0045,-0.5537,9.5044,0.0,-0.0273,0.7411,0.0001,0.8045
57916,-106.4501,27.3726,-0.0113,0.0159,93.3319,-0.0045,-0.5537,9.5044,0.0,-0.0273,0.7411,0.0001,0.8045
57932,-106.4501,27.3726,-0.0113,0.0159,93.3319,-0.0045,-0.5537,9.5044,0.0,-0.0273,0.7411,0.0001,0.8045
57948,-106.4501,27.3726,-0.0113,0.0159,93.3319,-0.0045,-0.5537,9.5044,0.0,-0.0273,0.7411,0.0001,0.8045
57964,-106.4501,27.3726,-0.0113,0.0159,93.3319,-0.0045,-0.5537,9.5044,0.0,-0.0273,0.7411,0.0001,0.8045
57984,-106.5056,28.3262,-0.0113,0.0136,93.3319,-0.0024,-0.5563,9.5609,0.0,-0.0253,0.5451,-0.0,0.8795
57996,-106.5056,28.3262,-0.0113,0.0136,93.3319,-0.0024,-0.5563,9.5609,0.0,-0.0253,0.5451,-0.0,0.8795
58012,-106.5056,28.3262,-0.0113,0.0136,93.3319,-0.0024,-0.5563,9.5609,0.0,-0.0253,0.5451,-0.0,0.8795
58028,-106.5056,28.3262,-0.0113,0.0136,93.3319,-0.0024,-0.5563,9.5609,0.0,-0.0253,0.5451,-0.0,0.8795
58044,-106.5056,28.3262,-0.0113,0.0136,93.3319,-0.0024,-0.5563,9.5609,0.0,-0.0253,0.5451,-0.0,0.8795
58060,-106.5056,28.3262,-0.0113,0.0136,93.3319,-0.0024,-0.5563,9.5609,0.0,-0.0253,0.5451,-0.0,0.8795
58082,-106.5614,29.2854,-0.0112,0.012,93.3318,-0.0013,-0.5594,9.6184,0.0,-0.0305,0.5692,-0.0001,0.8722
58092,-106.5614,29.2854,-0.0112,0.012,93.3318,-0.0013,-0.5594,9.6184,0.0,-0.0305,0.5692,-0.0001,0.8722
58108,-106.5614,29.2854,-0.0112,0.012,93.3318,-0.0013,-0.5594,9.6184,0.0,-0.0305,0.5692,-0.0001,0.8722
58124,-106.5614,29.2854,-0.0112,0.012,93.3318,-0.0013,-0.5594,9.6184,0.0,-0.0305,0.5692,-0.0001,0.8722
58140,-106.5614,29.2854,-0.0112,0.012,93.3318,-0.0013,-0.5594,9.6184,0.0,-0.0305,0.5692,-0.0001,0.8722
58156,-106.5614,29.2854,-0.0112,0.012,93.3318,-0.0013,-0.5594,9.6184,0.0,-0.0305,0.5692,-0.0001,0.8722
58172,-106.5614,29.2854,-0.0112,0.012,93.3318,-0.0013,-0.5594,9.6184,0.0,-0.0305,0.5692,-0.0001,0.8722
58194,-106.5614,29.2854,-0.0112,0.012,93.3318,-0.0013,-0.5594,9.6184,0.0,-0.0305,0.5692,-0.0001,0.8722
58204,-106.6175,30.2504,-0.0112,0.0112,93.3317,-0.0007,-0.5626,9.676,0.0,-0.0291,0.5168,-0.0,0.8643
58220,-106.6175,30.2504,-0.0112,0.0112,93.3317,-0.0007,-0.5626,9.676,0.0,-0.0291,0.5168,-0.0,0.8643
58236,-106.6175,30.2504,-0.0112,0.0112,93.3317,-0.0007,-0.5626,9.676,0.0,-0.0291,0.5168,-0.0,0.8643
58252,-106.6175,30.2504,-0.0112,0.0112,93.3317,-0.0007,-0.5626,9.676,0.0,-0.0291,0.5168,-0.0,0.8643
58268,-106.6175,30.2504,-0.0112,0.0112,93.3317,-0.0007,-0.5626,9.676,0.0,-0.0291,0.5168,-0.0,0.8643
